Estimated daily crossings,Latitude,Longitude,Name
160,43.068601,-77.145762,Whitbeck Rd/Ramp
185,43.158374,-77.121072,Steel Point Rd
185,43.224051,-77.198970,Whispering Woods Dr/Main St
185,43.125219,-77.350899,Eagles Roost Ln
160,43.209522,-76.804889,State Rte 104
160,43.336471,-76.734442,Blind Sodus Bay Rd
160,43.219975,-77.013309,State Rte 104
246,43.242818,-77.062066,Danford St/Maple Ave
160,43.074633,-76.760512,State Rte 89
160,43.163878,-76.987775,State Rte 14
160,43.127045,-77.314827,/Fairway 7
185,43.062989,-76.980102,/Clyde Rd
185,43.152536,-77.330676,/Kuttruff Rd
185,43.151074,-77.183344,Croucher Spr/N Main St
305,43.141383,-77.190661,S Main St
160,43.208829,-77.295152,Paddy Ln
246,43.089277,-76.897738,Old Rte 31/Lake Corners Rose Valley Rd
185,43.055797,-77.242053,Stafford Rd
185,43.080474,-76.872101,Mill St
160,43.223941,-77.292364,/Ridge Rd/Walter Cone Dr
185,43.060984,-77.238299,Gates St/W Jackson St
216,43.062592,-77.225813,Prospect Dr/Mill St/Vienna St
160,43.256747,-77.112143,N Centenary Rd
216,43.223458,-77.197736,/Main St
160,43.094210,-77.300455,Ontario Center Rd/Macedon Center Rd
445,43.045439,-77.105350,W Miller St/West Ave
160,43.163724,-77.336988,Atlantic Ave
185,43.223635,-76.811293,Cemetery St
160,43.291948,-76.821890,E Port Bay Rd/Martin Rd
334,43.237729,-77.061607,Smith St/Maple Ave
160,43.261456,-77.045751,Sodus Fruit Farm/Lake Rd
160,43.186358,-77.289014,Finley Rd
445,43.064167,-76.991952,Canal St/William St
390,43.088667,-76.876319,Dezeng St W/John St
160,43.139199,-77.272513,Walworth Penfield Rd/Walworth-Ontario Rd/Main St/Marion Rd
658,43.082744,-76.870346,Glasgow St/Columbia St
246,43.235706,-77.053769,Ridge Rd
160,43.128933,-77.303841,Shadbush Ct
1200,43.046627,-77.110887,W Miller St/W Union St
418,43.123186,-77.309827,Sunrise Dr/Vesper Ridge
246,43.044154,-77.138322,/State Hwy 31 W
305,43.232628,-77.195407,Whispering Woods Dr/State Rte 104
334,43.046065,-76.992855,Sohn Alloway Rd
216,43.047446,-76.993886,State Rte 14
160,43.279003,-76.751225,Chapman Corners Rd
160,43.116632,-77.320878,/Canandaigua Rd
216,43.047650,-77.087419,Old Lyons Rd
160,43.093685,-77.189384,Lusk Rd
160,43.124799,-77.352462,Eagles Roost Ln
160,43.225908,-76.833684,/Ridge Rd
160,43.212255,-77.302153,Nature Dr
160,43.128250,-77.358854,Mildahn Rd/Everwild Ln
276,43.231308,-77.062620,Mill St Exd/Benton Pl
160,43.128245,-77.359791,Mildahn Rd
246,43.058990,-77.239864,/Wayne County Fairgrounds
216,43.230786,-77.197326,Whispering Woods Dr
246,43.242002,-77.062000,Spring St/Maple Ave
160,43.188906,-77.273786,Walworth-Ontario Rd/Walworth Rd/Tummonds Rd
216,43.039952,-77.081166,/Cuyler St
246,43.216768,-76.811011,Williams St
418,43.129578,-77.346044,Heather Brook Ln
185,43.225020,-77.022146,North Rd/Ridge Rd
216,43.271907,-76.981949,Wickham Blvd/8th St
305,43.234831,-77.063799,Sergeant St
160,43.266874,-77.200358,Mystic Meadows Ln/Shepherd Rd
390,43.052807,-77.095385,Sherman Pkwy/N Main St
305,43.234434,-77.063845,Sergeant St/Curtis Ave/Grove St
160,43.123722,-77.316585,Fairway 6
160,43.088695,-77.029497,Brandt Rd
160,43.256125,-77.276121,Orchard Creek Dr
762,43.046467,-77.098386,/W Union St
160,43.225563,-77.187666,Circle Dr
160,43.086571,-77.361690,Quaker Rd/Wayneport Rd
246,43.064355,-77.362066,Pittsford-Palmyra Rd/Murphy Trailer Park
160,43.214454,-77.251872,/Arbor Rd
216,43.260150,-77.277054,Bear Creek Dr/Byron Cir
216,43.044153,-77.075302,Blue Cut Rd
334,43.057466,-76.993128,Geneva St
185,43.124611,-77.302621,Wood Sage Ter
160,43.062339,-77.307425,Brooktree Cir
160,43.229596,-77.270831,State Rte 104
839,43.048783,-77.095316,Harrison St/N Main St
160,43.212227,-76.869772,Wilson Street Rd
305,43.273354,-76.976860,2nd St
185,43.276290,-77.275140,Lake Rd
631,43.087026,-76.875296,Reese St/Caroline St
246,43.222857,-77.370255,Ridge Rd
160,43.168724,-76.771231,Butler Center Rd/Washburn Rd
276,43.121004,-77.313565,Fairway 5 Cir
1278,43.044102,-77.095303,S Main St/Maple Ct
334,43.239185,-77.078935,/State Hwy 88
185,43.225154,-76.829098,/Ridge Rd
305,43.128376,-77.343542,Westwood Trl
246,43.037609,-77.099613,Grace Ave/Wood Ln
160,43.065897,-77.291069,Southview Dr
216,43.230065,-77.268234,State Rte 104
216,43.127300,-77.342956,Cobblestone Trl/Autumn Wood Dr
305,43.123594,-77.300313,Pine View Dr
499,43.032168,-77.078374,Marie Ave
334,43.059359,-76.991532,/Shuler St
276,43.040420,-77.106719,Colonial Dr/Peirson Ave
216,43.083373,-77.136522,Tellier Rd
246,43.073491,-77.085121,State Hwy 88 N
185,43.222832,-76.821930,W Main St
185,43.065314,-77.229779,Canal St/Division St
160,43.292912,-76.823382,Robin Rd
216,43.232974,-77.217958,Salmon Creek Rd
160,43.081876,-76.880494,Geneva St/Griswald St
526,43.062915,-77.221167,State Rte 21
216,43.149513,-77.120645,Minsteed Rd/Martin Rd/Skinner Rd
216,43.082154,-76.866723,E Genesee St/Ford St
246,43.224947,-76.809255,E Port Bay Rd
216,43.058719,-77.236183,Birdsall Pkwy/W Charlotte Ave
499,43.039534,-77.090468,E Maple Ave/Prospect St
185,43.045720,-77.135896,State Hwy 31 W
160,43.025438,-77.088234,Pine Blvd/
160,43.056881,-77.063161,Old Lyons Rd/Van Auken Rd
160,43.184744,-77.221623,Gildersleeve Rd
390,43.067107,-76.764267,Grand Ave/W Church St
160,43.136574,-77.363326,Still Meadow Dr/Stalker Rd
246,43.211175,-76.981931,Ridge Rd/State Rte 14
185,43.233871,-77.195809,Railroad Ave
185,43.055176,-77.089554,Murray St
185,43.043100,-77.098657,Franklin St/Madison St
160,43.031992,-77.119827,Filkins Rd
185,43.046852,-77.083807,N Clinton St
185,43.047748,-77.060191,Blue Cut Rd
160,43.094011,-77.108378,Pine Valley Dr
160,43.140222,-77.119613,Minsteed Rd
246,43.061278,-76.976435,Old Rte 31/Cole Rd
246,43.064798,-77.313763,/Pittsford-Palmyra Rd
362,43.049039,-77.089206,Siegrist St/Norton St
216,43.072162,-76.786341,Old State Rte 31/W Church St
246,43.226696,-77.186161,Lake Ave/Stanford St
160,43.216083,-76.785877,/Countryman Rd
445,43.087516,-76.866598,Wayne Ave
160,43.070843,-77.300378,/Erie St N
216,43.271107,-77.006392,Trailer Park
185,43.035757,-77.098867,Garden Ln
185,43.237707,-77.049667,State St/State Rte 104
160,43.229497,-77.286257,Knickerbocker Rd
216,43.233577,-77.171613,Pound Rd/Old Ridge Rd
160,43.193718,-77.184837,/Williamson Rd
160,43.227395,-77.270290,Winesap Ln/Baldwin Rd
185,43.235763,-77.119956,Airport Driveway
185,43.032251,-77.075211,Marie Ave
160,43.045207,-76.900346,/Clyde-Marengo Rd
216,43.079940,-76.873197,Geneva St
160,43.235609,-77.055456,Old Ridge Rd/Ridge Rd
185,43.127176,-77.312063,Hiddenpond Ln
185,43.122920,-77.272004,Walworth Palmyra Rd/Mill Rd
185,43.035660,-77.098971,Garden Ln
160,43.128821,-76.871037,State Rte 414
160,43.280120,-77.174129,Lake Rd
160,43.130869,-76.871653,Maunder Rd/State Rte 414
160,43.230113,-77.266338,104/Cortland Dr
160,43.071335,-77.028837,Gansz Rd/Old Newark Lyons Rd
185,43.203895,-76.944193,Brick Schoolhouse Rd/State Rte 104
160,43.284923,-76.821010,Finch Rd
160,43.074418,-76.760499,State Rte 89/Fire Hall
305,43.056576,-77.233456,E Foster St/Canandaigua St
185,43.085093,-77.350552,Hillcrest Trailer Park
185,43.224229,-76.820721,Smith St
216,43.034479,-77.094019,Lea Dr/Charlotte St
160,43.208160,-76.989590,State Rte 104
305,43.092395,-76.867092,Glasgow St/Fulton St
160,43.015403,-77.131411,Bell Rd
1381,43.046617,-77.110670,W Union St
160,43.220287,-77.173209,Congdon Rd/Willow Dr
305,43.043409,-77.077213,Church St
160,43.157639,-77.175114,Witherden Rd/Heather Dr
216,43.080090,-76.873910,Waterloo St/Geneva St
185,43.237210,-77.337968,Lakeside Rd
185,43.232370,-76.820200,W Port Bay Rd
160,43.213380,-76.801765,Auburn St
216,43.059684,-77.305151,Paddy Ln
445,43.060775,-77.256840,Yellow Mills Rd/Creek Rd
334,43.061032,-77.233404,Canandaigua St/E Jackson St/W Jackson St
160,43.092906,-77.320507,Osband Ave/Canandaigua Rd
246,43.222632,-77.375264,Ridge Rd/County Line Rd
216,43.024644,-77.100248,Grace Ave/Allandale Dr
185,43.063539,-77.022604,/Dry Dock Rd
762,43.048253,-77.095299,N Main St
216,43.274350,-77.348026,Roder Pkwy/Lake View Knolls
216,43.044425,-77.103573,Moore St/Elmwood Ave
160,43.164128,-77.318774,Atlantic Ave
246,43.128428,-77.344444,Westwood Trl
216,43.068587,-76.763147,School St/Wellington Ave
160,43.056843,-77.090632,Mc Dermott St/Murray St
160,43.030217,-77.097860,Summit Dr/Lancing St
160,43.193882,-77.347078,Lincoln Rd
216,43.099543,-77.067787,Catlin Rd/Pulver Rd
160,43.139121,-77.322692,Walworth Penfield Rd/Canandaigua Rd
185,43.092026,-76.875312,Fulton St/Elm St
246,43.270928,-77.006030,Trailer Park
276,43.060289,-77.098520,/Peirson St
160,43.136318,-77.195394,S Main St/Palmyra Rd
246,43.085382,-76.874425,W Genesee St/Elm St
305,43.064456,-77.329472,/Pittsford-Palmyra Rd
160,43.053473,-76.865608,/State Hwy 414
246,43.044745,-76.993733,State Rte 14/Westphal Pkwy
185,43.051381,-77.098837,Stuart Ave/Bostwick St
160,43.254212,-76.927140,/Lake Bluff Rd
160,43.126976,-77.013972,Maple Street Rd/Mount Pleasant Rd
472,43.043757,-77.089230,Colton Ave/Elm St
185,43.085559,-77.155878,West St/Tellier Rd
185,43.073234,-76.760452,State Rte 89/Savannah Spring Lake Rd/Messner Rd/N Main St
185,43.122369,-77.325273,Blue Heron Vw
305,43.230245,-77.187056,Lake Ave/Rasmussen St
185,43.238270,-77.081024,Alnekinder Rd
390,43.223833,-77.375288,State Rte 104/County Line Rd
185,43.216481,-76.997465,Burch Ln/Ridge Rd
185,43.236135,-77.059411,E Main St/Ridge Rd/High St
276,43.039327,-77.071936,E Maple Ave/Patterson Rd/Marbletown Rd
499,43.087094,-76.883321,Adams St/W Genesee St
185,43.022179,-77.093418,Silver Hill Rd
160,43.108708,-76.969993,Pilgrimport Rd/Armitage Rd/Wayne Center Rd
185,43.050140,-77.113993,W Shore Blvd/Erie Blvd
185,43.245751,-76.724816,Church/Water St
160,43.255563,-76.989368,Sodus Bay Heights Dr/Overlook Dr
246,43.051589,-77.089314,Norton St
185,43.235297,-77.096937,/Dogwood Ln
160,43.232420,-76.917918,Lake Bluff Rd/Anchors Way
160,43.078192,-76.862015,Davis Pkwy
160,43.235428,-77.096299,Elm Ln
552,43.063588,-77.228381,/E Main St/Clinton St
185,43.095276,-76.998170,Middle Sodus Rd
160,43.059330,-76.962193,Sunderville Rd
160,43.225130,-77.179654,Ridge Rd/Locust St
185,43.187037,-77.184116,Electronics Rd/Williamson Rd
160,43.066157,-77.181379,Galloway Rd
160,43.056446,-77.242037,W Foster St/Stafford St/Stafford Rd
276,43.036441,-77.092176,/Oak Dr/East Ave
185,43.061339,-77.224900,Johnson St
216,43.249359,-77.062655,Maple Ave
160,43.094173,-77.298423,Macedon Center Rd
160,43.059140,-77.277882,Alderman Rd
185,43.059241,-77.236188,Birdsall Pkwy
160,43.086491,-77.351816,W Walworth Rd/Quaker Rd
246,43.036032,-77.096499,S Main St/Garden Ln
160,43.041496,-77.348755,Bunker Hill Dr
185,43.221921,-77.283198,Ferguson St/Furnace Rd
160,43.231600,-77.239791,State Rte 104
160,43.229652,-77.286253,/Knickerbocker Rd
276,43.225462,-77.364671,Dean Pkwy
631,43.220677,-76.815110,Lake Ave/E Main St/New Hartford St/W Main St
362,43.232346,-77.170005,/Ridge Rd
185,43.225458,-77.067204,/State Hwy 88
160,43.067370,-77.217913,State Rte 21
246,43.059763,-77.233404,Canandaigua St/Brookside Ter
185,43.041727,-77.087245,Hoffman St/Chestnut St
185,43.047542,-77.092591,East Ave
185,43.048025,-77.108209,Edgett St
160,43.231056,-77.067673,Carlton St
216,43.231612,-76.834427,Eddie Rd/Clapper Rd
160,43.098046,-76.761984,State Rte 89
185,43.158174,-77.120814,Minsteed Rd
160,43.077449,-76.760651,State Rte 89/
362,43.216655,-76.812269,Jefferson St/Willow Ln
160,43.220150,-77.002642,Boyd Rd/Trailer Park
185,43.235830,-76.820287,/W Port Bay Rd
185,43.241362,-76.806366,Melody Dr
160,43.112747,-76.868312,Kelsey Rd
160,43.048342,-76.980083,Paliotti Pkwy/Dunn Rd
445,43.061160,-77.257026,Yellow Mills Rd
160,43.219447,-77.004450,Trailer Park
216,43.079373,-76.868862,Water St
160,43.191616,-76.844534,Salter-Colvin Rd
160,43.097743,-76.762121,State Rte 89
160,43.292140,-76.821945,Robin Rd/E Port Bay Rd
160,43.238820,-77.063259,Union St
160,43.091522,-76.876496,/John St
216,43.060791,-77.093135,E Pearl St/Railroad Ave
216,43.270371,-76.984211,Lummis St
526,43.045931,-77.089302,Colton Ave/E Miller St
160,43.253249,-77.249004,Seeley Rd
362,43.048167,-77.115397,W Union St
246,43.061464,-76.976361,Forgham St
552,43.068324,-76.757978,Maple St/High St
276,43.052296,-77.096781,Mobile Dr/Emmons St
499,43.042134,-77.097669,Mason St/Jefferson St
160,43.039855,-76.904629,Rindfleisch/Clyde-Marengo Rd
305,43.087889,-76.869226,Sodus St/Alley
160,43.022718,-77.046097,Finewood Rd/Miller Rd
160,43.256873,-77.197400,/Church Rd
216,43.030666,-77.080289,Cobblestone Ter
185,43.259739,-77.277050,Byron Cir
160,43.139675,-77.257185,Boynton Rd/Daansen Rd/Marion Rd
160,43.047564,-77.015442,/Sutton Rd/Old Preemption Rd
334,43.087261,-76.884588,/W Genesee St
160,43.152555,-77.329884,Kuttruff Rd
160,43.052522,-76.969689,Lyons-Marengo Rd
185,43.051714,-77.093196,N Orchard St/Ford St/S Orchard St
160,43.072961,-76.875982,Waterloo St/Jenkins Rd
526,43.063603,-77.229610,Fayette St/Market St/E Main St
216,43.060942,-77.305768,Denise Cir/Denise Dr
185,43.270404,-76.986260,S Ontario St/N Ontario St/Bay St
160,43.212255,-77.302320,Ontario Center Rd/Nature Dr
160,43.085619,-77.361666,Wayneport Rd
418,43.086419,-76.869106,Dezeng St W/Alley
185,43.226593,-77.189713,Bennett St/Stanford St
160,43.092052,-76.969830,Pilgrimport Rd/Bishop Rd/Lock Berlin Rd
185,43.240280,-77.078825,Service Rd
160,43.219968,-77.180431,/Highland Ave
185,43.260085,-77.286824,/Knickerbocker Rd
160,43.070579,-76.958564,/State Hwy 31
216,43.081391,-76.871398,Glasgow St
185,43.234876,-77.067980,Carlton St/Sergeant St
160,43.215577,-77.375215,County Line Rd
185,43.221578,-77.252010,Arbor Rd
160,43.254079,-76.721255,Keeley St/Main St
216,43.231808,-77.067771,Carlton St
246,43.128652,-77.356534,Gananda Pkwy/Mildahn Rd
305,43.120845,-77.333142,Blue Spruce Dr/Evergreen Hill
160,43.185385,-76.891536,Gray St/Railroad Ave
185,43.235405,-77.148719,State Rte 104
684,43.049186,-77.095328,Lake St Exd/N Main St
160,43.224127,-76.753363,/Co Rte 163
276,43.069936,-77.292959,W Main St
160,43.047510,-77.060980,Blue Cut Rd
216,43.065891,-77.023718,/2nd St
185,43.259531,-77.286841,Bear Creek Dr/Knickerbocker Rd
246,43.051901,-77.100949,Driving Park Cir
160,43.128420,-77.313607,Wiedrick Rd/Fairway 7
216,43.050150,-77.091667,Blackmar St/Filmore St
160,43.073126,-76.991181,Culver St/Summit St
390,43.068290,-76.760218,Maple St/N Main St
710,43.039571,-77.096000,E Maple Ave/W Maple Ave/S Main St
276,43.219367,-77.318991,Independence Way
160,43.102070,-76.869028,State Rte 414
160,43.063421,-77.306406,Brookview Dr
362,43.227280,-77.323854,Slocum Rd/North Rd/State Rte 104
160,43.210632,-77.067028,Hill Rd/State Hwy 88
160,43.112565,-76.826961,Clyde-Hunts Corners Rd/Livingston Rd
334,43.044714,-77.080082,E Union St/Vienna St
160,43.169682,-77.131027,Owls Nest Rd/Burcroff Rd
305,43.141132,-77.190926,/S Main St
185,43.260809,-77.275707,Apple Tree Dr/Bear Creek Dr
334,43.121162,-77.332356,Pine Ter
185,43.235395,-77.096948,/Elm Ln
305,43.022524,-77.094874,Silver Hill Rd/State Hwy 88 S
160,43.085993,-77.239231,Maple Ave
160,43.228470,-77.306187,Ontario Center Rd
445,43.082850,-76.872115,Sodus St/William St
390,43.042731,-77.089198,E Myrtle Ave/Colton Ave
185,43.042203,-77.105198,Davis Dr/West Ave
160,43.184753,-77.230837,Gildersleeve Rd/Ridge Chapel Rd
160,43.020937,-76.804248,/Armitage Rd
160,43.130918,-77.221509,/Parker Rd
216,43.056472,-76.992913,Franklin St
390,43.266477,-76.991961,State Rte 14
160,43.263060,-77.005119,/Trailer Park
216,43.044027,-77.074242,Blue Cut Rd/Loomis St
160,43.060479,-76.972789,Old Rte 31
305,43.235010,-77.171863,Pound Rd/State Rte 104
185,43.079647,-76.871406,Redfield St
160,43.238749,-77.102914,State Rte 104/Trailer Park
216,43.238555,-77.077831,Ridge Rd/State Hwy 88
362,43.236110,-77.065175,W Main St/Central Ave
552,43.084191,-76.875035,Columbia St
631,43.045654,-77.097735,Mason St/W Miller St
334,43.218488,-76.816153,Washington St/Northup Ave
160,43.220306,-77.279785,Ridge Rd/Browns Sq
160,43.241260,-77.071175,Green St/Rotterdam Rd
160,43.062992,-77.360995,Carlson Ln/Wayneport Rd
185,43.088266,-77.029465,/Brandt Rd
216,43.043757,-77.072004,Blue Cut Rd/Patterson Rd/Park Ave
185,43.225136,-77.286152,New St/Knickerbocker Rd
185,43.258145,-77.294140,/Brick Church Rd
216,43.082218,-76.866945,Ford St
579,43.044724,-77.092488,Church St/East Ave
185,43.214541,-77.279769,Country Club Ln
160,43.222542,-77.286256,Ferguson St/Knickerbocker Rd
160,43.283238,-77.208659,Lake Breeze Dr
160,43.023671,-77.096486,Georgianna St/Lincoln Rd
390,43.044504,-77.078292,Blue Cut Rd/Stansell St
160,43.081274,-77.361486,Pinewood Mobile Park/Wayneport Rd
160,43.221957,-77.352102,la Frank Dr/Southbrook Dr
579,43.065260,-76.990329,Geneva St
160,43.091117,-77.268503,Walworth Rd
160,43.068939,-77.229126,/Division St
160,43.054039,-77.099766,/Driving Park Cir
246,43.030523,-77.079655,Vienna Rd/Cobblestone Ter
160,43.272201,-77.347939,Roder Pkwy
246,43.123622,-77.333744,Gananda Pkwy
246,43.123512,-77.303513,Pintail Vw
160,43.267798,-77.200121,/Mystic Meadows Ln
305,43.215488,-76.819798,Butler St
216,43.061953,-77.019318,Dry Dock Rd
216,43.271827,-76.983891,/Wickham Blvd/John St
160,43.124879,-77.305060,Bluestem Ct
160,43.279817,-76.758144,Reynolds Rd/Kyle Rd
216,43.273368,-76.977716,3rd St
160,43.216134,-76.786540,State Hwy 104/State Rte 104/Countryman Rd
160,43.058712,-77.102714,Fair St/Plain St
246,43.056505,-77.242576,W Foster St
390,43.061690,-76.991710,Water St/Geneva St/Elm St
160,43.056511,-76.720673,Railroad Rd
160,43.192370,-77.231262,Ridge Chapel Rd/Engleson Rd
684,43.082847,-76.870686,Columbia St/William St
160,43.262979,-77.029842,Maxwell Rd/Lake Rd
160,43.132576,-76.766293,State Rte 89/Rural St
160,43.021650,-77.105578,Budd Rd
216,43.032812,-77.096923,/S Main St
216,43.056496,-76.993349,Geneva St
276,43.142687,-77.188236,Firehouse Rd/Maple Ave
160,43.082088,-77.111718,Ford Rd/Parker Rd
160,43.072025,-77.301330,/Railroad Ave
246,43.220638,-76.822848,West Ave
418,43.058761,-76.992473,/Elmer St
160,43.081526,-77.360635,Pinewood Mobile Park
160,43.039482,-77.085090,E Maple Ave
160,43.164130,-77.318270,Atlantic Ave
160,43.274462,-77.356207,Morning Star la
216,43.227593,-77.312955,State Rte 104
160,43.224087,-76.879993,N Huron Rd/Ridge Rd/5th Rd
305,43.038687,-77.091017,Linden Ave/Bailey Ln
216,43.106398,-77.066492,Fairville Station Rd/Catlin Rd
160,43.196634,-76.890681,5th Rd
246,43.043923,-77.081343,Church St/Cuyler St
334,43.061288,-76.991927,Geneva St
160,43.189302,-77.011350,S Geneva Rd/Stell Rd
246,43.253903,-76.936530,Lake Bluff Rd/Owens Shore Rd
216,43.039508,-77.087189,E Maple Ave/Hoffman St
305,43.042255,-77.080035,Vienna St/Godfrey St
216,43.276111,-77.184528,Salmon Creek Rd/Hamilton St
185,43.051008,-77.090405,Cooper St
276,43.098173,-77.024143,McClelland Rd/Layton Street Rd
160,43.060957,-77.242920,W Jackson St Exd/Aldrich Dr
185,43.089250,-76.869758,Washington St/Wayne Ave
185,43.145675,-77.281167,Orchard St/Mykola Rd
390,43.041182,-77.100296,Washington St
185,43.277246,-77.229644,Stoney Lonesome Rd
185,43.059950,-77.320084,Victor Rd
362,43.060240,-77.229545,Fayette St/Swiss Chalet Dr
334,43.126668,-77.350803,Eagles Roost Ln/Crows Nest Ln
160,43.259895,-77.279331,Bear Creek Dr/Cherry Tree Dr
362,43.084606,-76.859439,Dezeng St E
185,43.211484,-76.800950,Auburn St
390,43.240970,-77.280501,Brookway Cres
185,43.125712,-77.303622,Wake Robin Ct
216,43.227375,-77.269211,/Baldwin Rd
216,43.122251,-77.307139,Wiedrick Rd/Waterford Rd
160,43.263029,-77.029713,Gates Dr/Lake Rd
160,43.226409,-76.822995,Conklin Ave/W Port Bay Rd
185,43.236954,-77.201460,Tuckahoe Rd
246,43.070384,-76.987652,Catherine St/Ditton St
160,43.150698,-77.145645,Skinner Rd
605,43.047654,-77.114748,/W Union St
246,43.223541,-76.738539,State Hwy 370
390,43.219974,-76.807664,Auburn St/Alport St
185,43.224691,-76.737476,/State Rte 370
499,43.226834,-77.279796,Parking Lot/Ramp
160,43.020773,-77.066453,Silver Hill Rd/Miller Rd/Marbletown Rd
216,43.082298,-76.872414,Sodus St
160,43.023316,-76.744799,State Hwy 89/State Rte 31
362,43.045995,-77.086918,E Miller St
445,43.044343,-77.099533,Scott St/High St
390,43.127985,-77.346177,Heather Brook Ln
160,43.062920,-77.337792,Beebe Rd
305,43.066042,-77.028513,State Hwy 31/Nye Rd
160,43.293988,-76.823776,Starling Rd
216,43.051353,-77.126970,State Hwy 31 W
246,43.036175,-77.096481,Rose Dr/S Main St
160,43.113705,-76.839984,Kelsey Rd/Shepard Rd
216,43.069466,-77.361117,E Park Dr/Wayneport Rd
216,43.230605,-77.197307,Pebblebrook Ln
160,43.247154,-76.875862,/Chapin Rd
631,43.220123,-76.813327,E Main St
185,43.115908,-77.080129,Fairville Maple Ridge Rd
334,43.266188,-76.992059,State Rte 14
246,43.227218,-77.030964,Burlee Rd/Trailer Park
216,43.224164,-77.020086,Creekside Cir/Ridge Rd
160,43.202875,-77.314126,Whitney Rd
160,43.049656,-77.122672,/State Hwy 31 W
185,43.273218,-76.978586,4th St
216,43.075392,-77.082999,State Hwy 88 N
1719,43.044647,-77.095218,Church St/S Main St
160,43.227434,-77.295565,State Rte 104
160,43.041702,-77.165284,Old Rte 31/Palmyra-Newark Rd
185,43.068894,-76.764327,/Grand Ave
1071,43.044074,-77.093291,Maple Ct
390,43.227287,-77.280664,104/State Rte 104/Ramp
185,43.038907,-77.081526,Drumlin Ct
160,43.278855,-77.345408,Ontario Dr
390,43.236143,-77.068010,Carlton St/W Main St
160,43.255533,-77.143469,Brasser Rd/E Townline Rd
788,43.065507,-76.990333,Geneva St/Lawrence St
185,43.069577,-76.984404,Jackson St/N Joy St
246,43.234563,-76.835704,Hope Cir - Lane 5/Hope Cir
185,43.237051,-77.134820,State Rte 104
216,43.131907,-77.360987,Highfield Dr/View Pointe Dr
246,43.037074,-77.106506,/Peirson Ave/Blossom Rd
216,43.133978,-77.272493,Walworth Palmyra Rd
276,43.226906,-77.030397,Trailer Park
160,43.275374,-77.278279,Second Ave Bear Harbor/Lake Rd
418,43.041174,-77.098722,Washington St/Madison St
185,43.073979,-77.361233,Canal Dr E/Wayneport Rd
185,43.234113,-77.186847,Lake Ave
160,43.219254,-77.005363,Ridge Rd/Trailer Park
445,43.086850,-76.881552,W Genesee St
684,43.219899,-76.813907,Park Ln/Parking Lot
160,43.066991,-77.291766,Crest Ave
185,43.039597,-77.101474,W Maple Ave/Blakely Ct
160,43.024761,-77.115617,Botcher Rd
276,43.223570,-77.317834,Patriot Dr/Ridge Rd
160,43.039482,-77.085158,E Maple Ave
160,43.047446,-77.072192,/E Union St
276,43.032312,-77.079719,Vienna St/Marie Ave
160,43.226322,-77.267613,Crabapple Cir/Macintosh Rd
305,43.064364,-77.361015,Pittsford-Palmyra Rd/Wayneport Rd
185,43.059227,-76.986517,Forgham St
160,43.048015,-77.092604,Old Lyons Rd/East Ave
185,43.229022,-76.821080,Lake Ave/W Port Bay Rd
185,43.072812,-77.235560,Arthurton Dr/Maple Ave
160,43.071049,-77.185066,Hogback Hill Rd
246,43.224752,-76.809263,E Port Bay Rd
185,43.038068,-77.079964,Vienna St
160,43.220491,-77.317073,Independence Way/Patriot Dr
160,43.212237,-76.869402,Brown Rd/Wilson Street Rd
246,43.121251,-77.297955,Woodfield Dr/Pine View Dr
160,43.071728,-77.301411,Railroad Ave
160,43.175150,-77.255186,Smith Hill Rd
276,43.123766,-77.319645,Fairway 7
185,43.053782,-77.099553,Driving Park Cir
246,43.090854,-77.022764,Layton Street Rd
185,43.095049,-77.350138,Arrowhead Trailer Park
185,43.055942,-76.993001,Geneva St Exd
246,43.123043,-77.298837,Beech Dr
160,43.219062,-77.251967,/Arbor Rd
472,43.067111,-76.989302,Holley St/Phelps St
185,43.142152,-77.189852,Mill St/S Main St
1226,43.085051,-76.868983,Glasgow St/Caroline St
418,43.220784,-76.807657,Alport St
390,43.237648,-77.062857,Union St/Smith St
185,43.163687,-77.338829,W Walworth Rd/Atlantic Ave/Lincoln Rd
160,43.123630,-77.334804,Gananda Pkwy
216,43.127745,-77.350125,Gananda Pkwy
160,43.196489,-76.896531,Van Sicklen Rd/State Rte 414
160,43.206191,-76.847677,State Rte 104
160,43.039865,-77.147036,State Hwy 31 W
160,43.020267,-77.070883,Silver Hill Rd
362,43.058740,-77.095444,Frey St/N Main St/Dell St
160,43.175172,-77.263408,Smith Hill Rd
185,43.121958,-77.293628,Locust Cir/Pine View Dr
160,43.218413,-76.817675,Washington St/Draper St
185,43.225976,-77.067254,Newark St/State Hwy 88
185,43.080380,-76.871666,/Water St
216,43.232412,-77.190957,Ridgeway St/Bennett St Exd
276,43.192055,-76.833898,Salter-Colvin Rd
160,43.197404,-77.305856,Fosdick Rd
185,43.040460,-77.237177,Parking Lot
160,43.064313,-76.774177,Hogback Rd
160,43.227463,-77.278834,State Rte 104/Ramp
185,43.060905,-77.305201,Denise Cir
160,43.063481,-77.318146,Westview Cir
216,43.070334,-76.989377,Phelps St/Ditton St
160,43.061055,-77.231158,E Jackson St/Cuyler St
276,43.064151,-76.999958,Water St/Layton St
216,43.223753,-77.019076,Ridge Rd
185,43.079851,-76.872096,Redfield St
185,43.175060,-77.249582,Smith Hill Rd/Hall Center Rd
160,43.126895,-76.918991,Lakes Corners-Rose Valley Rd
160,43.212623,-76.977792,Shaker Rd
160,43.019278,-76.878995,Jenkins Rd/Wheeler Rd
160,43.020956,-77.100164,Daniel Way
579,43.044335,-77.098685,Madison St/High St
216,43.023590,-77.100292,Allandale Dr/Lincoln Rd/Daniel Way
246,43.061169,-77.104253,/Verizon Whse Driveway
891,43.046394,-77.099652,Scott St/W Union St
160,43.334359,-76.734210,/Blind Sodus Bay Rd
160,43.184034,-77.288906,Ontario Center Rd/Plank Rd
185,43.068667,-76.985067,Mirick Pl/Joy St
216,43.035210,-77.079844,Vienna St
160,43.208063,-77.250594,Arbor Rd Exd
276,43.057375,-77.095432,Stuerwald Ave/N Main St
390,43.038683,-77.089085,Colton Ave/Bailey Ln
276,43.057683,-77.236179,Birdsall Pkwy/Sunset Dr
160,43.154073,-77.369339,Sweets Corners Rd/County Line Rd
160,43.044905,-76.900473,Clyde Marengo Rd/Watson Rd/Clyde-Marengo Rd
160,43.091738,-76.875054,/Elm St
276,43.062181,-77.020311,/State Hwy 31
276,43.049134,-77.090468,Cooper St/Siegrist St
185,43.056560,-77.229472,E Foster St/Fayette St
185,43.232487,-77.217416,104
684,43.042032,-77.095644,Jefferson St/S Main St
160,43.055405,-77.100194,Driving Park Ave/Bryant Ave
334,43.042297,-77.080055,Vienna St/Godfrey St
334,43.058309,-77.241952,Stafford St
160,43.235669,-77.160692,State Rte 104
418,43.032281,-77.077652,Marie Ave
362,43.224054,-77.375294,County Line Rd
160,43.237343,-76.728226,Manley Dr/Otis Dr
160,43.217565,-76.821311,Pinewood Dr/Jessica Dr
185,43.061865,-77.307221,Brooktree Cir
160,43.060490,-77.045743,Cole Rd
185,43.021275,-77.090167,Silver Hill Rd
216,43.065089,-77.235225,Liberty St
160,43.078978,-77.016042,Bauer Van Wickle Rd
185,43.023522,-77.101516,Lincoln Rd
160,43.229715,-77.184220,/Arrowbend Dr
334,43.221975,-76.809259,Lake St/Oswego St/E Port Bay Rd
246,43.076966,-76.868040,Burrell St
160,43.042730,-77.166238,Palmyra-Newark Rd
216,43.035508,-77.090915,Linden Ave/Oak Dr
445,43.047146,-77.092574,East Ave
362,43.246769,-76.722488,Water St/Main St/South St
276,43.059972,-77.098517,Driving Park Ave/Peirson St
390,43.042844,-77.089202,Colton Ave
185,43.040194,-77.237189,Parking Lot
160,43.273173,-76.979443,5th St
160,43.060096,-77.045488,Cole Rd/State Rte 31 E
216,43.124568,-77.318472,Fairway 6/Fairway 7
579,43.221485,-76.817658,W Main St/Draper St
246,43.063308,-77.247877,/State Rte 31
246,43.209114,-77.279615,Paddy Ln/Walworth Rd
160,43.125600,-77.310773,Sunrise Dr/Sunset Dr
305,43.056903,-77.095431,Mc Dermott St/N Main St
445,43.230780,-76.730661,Simmons Dr/State Rte 370
276,43.205704,-76.982380,/State Rte 14
418,43.044817,-77.089267,Church St/Colton Ave
305,43.027441,-77.097775,Stevens St/Summit Dr
216,43.061371,-77.018573,State Hwy 31/Dry Dock Rd
390,43.223947,-77.186123,Lake Ave/Main St/South Ave
305,43.051425,-77.095361,Stuart Ave/N Main St
185,43.076155,-77.361317,Canal Dr W/Wayneport Rd
185,43.073115,-77.300434,/Ontario Center Rd
160,43.073199,-77.301152,Railroad Ave
216,43.225581,-76.809243,Cemetery St/E Port Bay Rd
185,43.055930,-77.001895,Madison St/Leach Rd/Ashley St
390,43.058510,-76.987241,Shuler St
160,43.223660,-76.925512,Ridge Rd/Resort Rd
445,43.042525,-77.075841,Godfrey St
160,43.316542,-76.720370,King Rd/W Bay Rd
160,43.256050,-77.275934,Salmon Run Cir/Orchard Creek Dr
160,43.113372,-77.218775,Leroy Rd/Parker Rd
160,43.234169,-77.188524,Cole St/Railroad Ave
185,43.072785,-77.301111,/Railroad Ave
216,43.064337,-77.364250,Pittsford-Palmyra Rd
160,43.287865,-77.144502,/Hollands Cove
418,43.062888,-76.992699,Pearl St/William St
185,43.087954,-77.136577,Hydesville Rd
185,43.083308,-76.873787,Lock St
185,43.069978,-77.301614,Bickford St/Center St
390,43.232806,-77.188505,State Rte 104/Cole St
185,43.071854,-76.758545,Elsie -Renee Dr/Elise-Renee Dr
276,43.071167,-76.789566,/W Church St
160,43.093864,-77.098795,Minsteed Rd/Ford Rd
185,43.234112,-76.836632,Hope Cir - Lane 3
216,43.059743,-77.204096,Vienna Rd/Palmyra-Newark Rd
160,43.070292,-77.107564,Parker Rd/Hydesville Rd
246,43.124132,-77.305574,/Waterford Rd
216,43.062523,-77.095302,N Main St
185,43.040303,-77.236824,Parking Lot
160,43.068678,-77.229172,Division St/Quaker Rd
185,43.079268,-76.872719,Mill St
160,43.233848,-77.060633,School St/Gaylord St
160,43.058867,-76.970310,/Hill Rd
216,43.067703,-77.032747,/State Hwy 31
185,43.039852,-77.162286,/Palmyra-Newark Rd
160,43.267433,-77.229568,Stoney Lonesome Rd/Shepherd Rd
185,43.239937,-76.794580,Lash Dr/Wadsworth Street Rd
160,43.070374,-76.793028,W Church St
305,43.071804,-76.989442,Foster St/Phelps St
216,43.126994,-77.358893,Parkside Trl/Everwild Ln
160,43.235352,-77.119237,Airport Driveway
185,43.039862,-77.236770,Parking Lot
160,43.089033,-77.042978,Bauer Van Wickle Rd
160,43.269691,-76.944549,Park Ave/Phelps Ave
334,43.214696,-76.814615,Wilson St/New Hartford St
160,43.296812,-76.769053,Younglove Rd
160,43.236120,-77.096382,Greenview Ln
216,43.039621,-77.106664,Peirson Ave/W Maple Ave
160,43.039850,-77.163733,Old Rte 31
160,43.240371,-76.720589,South St
160,43.280193,-77.173926,Maken Rd/Lake Rd
160,43.057547,-77.086464,/O Brien Rd
472,43.046498,-77.108468,W Union St/Edgett St
390,43.063459,-77.238216,Gates St/W Main St
160,43.281428,-76.725580,State Hwy 104A/State Rte 104A/Cramer Rd/Chapman Corners Rd
246,43.079113,-76.868731,Cayuga St/Water St/Meadow St
305,43.060917,-77.099709,Driving Park Ave/
185,43.253226,-77.013443,/N Geneva Rd
160,43.240321,-77.078116,State Rte 104
216,43.058295,-76.995352,Depew Ave
334,43.057982,-76.986880,Elmer St
445,43.085881,-76.875966,Reese St/W Genesee St
185,43.222669,-77.217824,Salmon Creek Rd/Ridge Rd
362,43.227390,-77.291734,/104/State Rte 104
216,43.034355,-77.107449,Wood Ln
160,43.265220,-77.182668,New Rd
246,43.084610,-76.867547,Caroline St
160,43.255865,-77.274099,Orchard Creek Dr/Furnace Rd
160,43.055001,-77.069458,Old Lyons Rd/Sleight Rd
160,43.048768,-76.984449,/San-Bar Ln/Dunn Rd
160,43.041116,-77.324093,/Farmington Rd
160,43.230743,-76.744265,Waters Rd/State Rte 104
185,43.258221,-77.286829,Brick Church Rd/Knickerbocker Rd
160,43.246358,-76.720278,Canada St
185,43.056572,-77.231849,E Foster St/Hathaway Pl
160,43.067976,-77.217029,State Rte 21
185,43.068285,-77.094457,Hydesville Rd
160,43.124183,-77.306498,Aster Ter
160,43.215453,-76.800534,Countryman Rd
418,43.087283,-76.866180,Wayne Ave
185,43.088609,-76.871651,/Frederick St
185,43.060327,-76.963524,Old Rte 31/Sunderville Rd
390,43.270462,-76.981233,Greig St/Village Parking Lot
160,43.278216,-77.348195,Ontario Dr/Roder Pkwy
185,43.127330,-77.303651,Starflower Ct
658,43.045469,-77.112119,Finch St/W Miller St
160,43.087804,-77.136199,E Town Line Rd/Hydesville Rd
418,43.044853,-77.081361,E Union St/Cuyler St
305,43.039579,-77.097778,W Maple Ave/Bartle Ave
362,43.226095,-77.281585,Parking Lot
216,43.069257,-76.849366,Old Rte 31/State Hwy 31
216,43.125938,-77.300368,Woods Edge Rd/Woods Edge
160,43.273147,-76.943894,Crescent Bch
160,43.044914,-76.900274,Watson Rd
216,43.082482,-76.866838,E Genesee St
160,43.222814,-77.370674,Ridge Rd
160,43.155458,-77.291923,/Ontario Center Rd
216,43.078697,-76.939034,Gannett Rd/State Hwy 31
362,43.126797,-77.352320,Crows Nest Ln
160,43.135719,-76.767146,State Rte 89
160,43.078644,-77.329718,Canal Dr W
160,43.252530,-77.286689,Bailey Rd/Knickerbocker Rd
160,43.231544,-77.132174,Richardson Rd/Ridge Rd
1824,43.044678,-77.093997,Church St/Maple Ct
276,43.029914,-77.079638,/Vienna Rd
160,43.059249,-77.012398,State Hwy 31/Forgham St
276,43.225440,-77.360094,State Rte 104
362,43.270555,-76.981677,Greig St/Bay St Exd/Bay St
390,43.071114,-76.992089,Maple Street Ter/Maple St
246,43.124235,-77.304469,/Waterford Rd
185,43.094230,-77.320536,Macedon Center Rd/Canandaigua Rd
185,43.230101,-77.032849,Harvest Dr
160,43.190677,-76.866156,Salter Rd
185,43.084140,-76.878851,Sibley St
160,43.231733,-77.031343,Harvest Dr/Kelly Rd
185,43.269806,-76.984044,Lummis St
246,43.240881,-77.201464,Tuckahoe Rd/Woods Rd
246,43.055414,-77.238088,Salzburg Village
185,43.055807,-77.352478,Mary Dr/Marvin Dr
246,43.064309,-77.369041,Pittsford-Palmyra Rd
185,43.093122,-77.300477,Meadowview Trailer Park/Meadowview Trl
160,43.081037,-76.828595,Noble Rd/Daboll Rd
216,43.082499,-76.868572,William St/Galen St
160,43.207427,-77.249843,/Arbor Rd Exd
160,43.061231,-77.111577,Sunset Dr
160,43.041931,-77.232186,Temple Rd/Canandaigua Rd
276,43.223652,-77.317587,Ridge Rd
246,43.088849,-76.872405,Frederick St/Elm St
160,43.217364,-76.825200,Pinewood Dr/Cedarwood Dr/Maplewood Dr
185,43.066404,-76.754415,Seneca St/Prospect St
160,43.184766,-77.184801,Farnsworth Rd/Williamson Rd
185,43.295985,-76.839059,Dogwood Rd
160,43.253757,-76.865268,Chapin Rd/Dutch Street Rd
246,43.231336,-76.835363,Eddie Rd
362,43.067220,-76.760183,E Church St/W Church St/N Main St
160,43.106255,-77.353063,Kittering Rd
216,43.039451,-77.082702,/E Maple Ave
246,43.221691,-76.810676,Cemetery St/Oswego St/Mill St/Auburn St
246,43.236413,-77.138898,/State Rte 104
216,43.084662,-76.863458,North St/Dezeng St E
246,43.237427,-77.127986,Redman Rd/State Rte 104
160,43.239558,-77.306366,Ontario Center Rd/Kenyon Rd
160,43.174049,-77.180494,Witherden Rd
334,43.046010,-76.993889,Sohn Alloway Rd/State Rte 14
160,43.149188,-77.352084,/Bills Rd
160,43.261220,-77.053369,Lake Ave/Sodus Fruit Farm
216,43.127925,-77.295456,Waterford Rd/Evergreen Cir
160,43.073534,-77.301059,/Railroad Ave
246,43.154497,-76.878424,Wayne Center-Rose Rd/State Rte 414
813,43.059409,-76.992481,Geneva St
185,43.242639,-77.066204,Danford St/Belden Ave
216,43.227054,-77.328373,/State Rte 104
246,43.126406,-77.314856,/Fairway 7
246,43.234391,-76.836142,Hope Cir - Lane 4/Hope Cir
160,43.080703,-77.237736,Meadow Dr/Meadow Dr Spr/Clover St
160,43.021842,-77.059093,/Miller Rd
579,43.227256,-77.282511,104/Ramp
185,43.047393,-77.061407,/Blue Cut Rd
160,43.061357,-77.305624,Brooktree Cir/Denise Dr/Trapbrook Dr
160,43.276280,-77.267182,/Lake Rd
160,43.027645,-77.099841,Stevens St
160,43.222951,-76.822302,W Main St
185,43.018402,-76.859518,State Hwy 414
216,43.060968,-77.216318,Bucknam Pl/E Main St
185,43.203154,-77.251887,Arbor Rd
216,43.068612,-77.314704,Burwell Dr/Kemp Dr
160,43.115957,-77.080523,/Fairville Maple Ridge Rd
216,43.016291,-77.079126,/Vienna Rd
160,43.038257,-77.015691,Old Preemption Rd
160,43.039483,-77.085221,/E Maple Ave
334,43.058025,-77.236184,Birdsall Pkwy
160,43.187444,-76.890112,N Huron St/Caroline Ave
185,43.186287,-77.290485,Ontario Center Rd/Finley Rd
334,43.126047,-77.315914,Fairway 7
216,43.060117,-77.213425,/Vienna St
216,43.051748,-77.063054,State Rte 31 E
185,43.138544,-77.348391,Walworth Penfield Rd/W Walworth Rd
305,43.134595,-77.272498,Walworth Palmyra Rd/Main St/High St
305,43.219157,-76.812484,Jefferson St/South St
216,43.075397,-77.075512,Mud Mills Rd/Ressue Rd
334,43.087677,-76.873087,Dezeng St W/Elm St
160,43.057195,-77.100325,Driving Park Ave/Stuerwald Ave
276,43.214161,-76.825185,Wilson St
160,43.224288,-77.182891,Main St/Ridge Rd/Maple Ave
185,43.239278,-77.081204,Service Rd/Sanford Ln
160,43.178797,-76.808117,Whiskey Hill Rd/Lasher Rd/Livingston Rd
185,43.270418,-77.007189,Trailer Park
185,43.040430,-77.108181,Colonial Dr
185,43.205215,-77.289367,Surrey Xing
160,43.286865,-76.894228,Oklahoma Ave/Hampton Ave
160,43.061206,-76.985450,Riverside Rd
418,43.067176,-76.984063,Holley St/Manhattan St/Canal St
185,43.270202,-77.356211,/Lake Rd
160,43.229205,-76.820991,W Port Bay Rd
160,43.160358,-77.374573,Atlantic Ave
472,43.046837,-77.113115,W Miller St/W Union St
216,43.211896,-77.325677,/Clevenger Rd
246,43.063593,-76.982832,/Clyde Rd
160,43.236198,-77.217981,Salmon Creek Rd
160,43.252055,-77.060789,Sewer Plant/Mud Ln
216,43.134954,-77.360675,Walworth Penfield Rd
526,43.042809,-77.090562,W Myrtle Ave/Prospect St
216,43.239845,-77.013046,Glover Rd/N Geneva Rd
305,43.044378,-77.105300,Moore St/West Ave
160,43.236081,-77.097026,Greenview Ln
305,43.013430,-77.077140,/Sweed Rd
160,43.237285,-76.712503,Coolican Rd
185,43.143897,-77.191003,Buffalo St
185,43.111372,-76.985122,Schleede Rd/Armitage Rd/State Rte 14
185,43.126393,-77.079488,State Hwy 88 N
160,43.237844,-77.071442,Orchard Park/Sodus Garden Apartment
445,43.086741,-76.880669,W Genesee St
185,43.034105,-77.099402,Lucia St/Grace Ave
185,43.166289,-76.987148,State Rte 14
185,43.224978,-76.817586,Lake Ave/Wright St
185,43.204715,-77.276500,/Walworth Rd
160,43.065345,-77.292370,Apollo Pl/Southview Dr
968,43.232853,-77.186972,Lake Ave/State Rte 104
160,43.198269,-77.297021,Hennessey Rd
216,43.080923,-76.873265,/Waterloo St/Water St
160,43.026930,-77.031607,/Pleasant Valley Rd
160,43.273410,-77.107245,Lake Rd
1641,43.044079,-77.093993,Maple Ct
216,43.063477,-77.241680,Stafford St/W Main St
185,43.238813,-77.081219,State Rte 104/Sanford Ln
216,43.127608,-77.350295,Eagles Roost Ln
185,43.126779,-77.302578,Wildflower Dr/Thornberry Cres
334,43.232637,-77.194888,State Rte 104
160,43.042782,-77.087279,E Myrtle Ave/Hoffman St
216,43.153359,-77.182543,Marion East Williamson Rd/N Main St
160,43.028963,-77.106001,/Peirson Ave
334,43.057040,-76.992822,Franklin St
160,43.208496,-76.992043,Bond Rd
334,43.045384,-77.107033,W Miller St/Peirson Ave
246,43.225201,-77.364649,Dean Beh Pkwy/Dean Pkwy/State Rte 104
160,43.177381,-77.010945,S Geneva Rd/Champlin Rd
216,43.182820,-76.891019,Dagel Ave/S Main St
305,43.067087,-76.758073,/E Church St
246,43.242759,-77.281058,Deerfield Cir
160,43.280908,-77.175578,Lake Rd
160,43.127998,-77.351254,/Gananda Pkwy
185,43.060959,-77.241791,Stafford St/W Jackson St Exd/W Jackson St
472,43.217289,-76.812332,Jefferson St/Willow Ln
160,43.116110,-76.758010,State Rte 89/Cotten Rd
246,43.223970,-77.021470,Creekside Cir
216,43.030917,-77.080414,Cobblestone Ter
362,43.224517,-77.370423,State Rte 104
160,43.079513,-76.937435,Old Rte 31/State Hwy 31
160,43.237748,-77.121934,State Rte 104/Trailer Park
246,43.063826,-77.360997,Murphy Trailer Park/Wayneport Rd
160,43.063087,-77.103403,Sunset Dr/W Pearl St
390,43.044861,-77.087327,Church St/Hoffman St
246,43.229933,-77.268123,104
216,43.126272,-77.345459,Gananda Pkwy
185,43.068418,-77.316659,Burwell Dr/Kemp Dr
305,43.031685,-77.079694,Vienna St
334,43.084137,-76.871391,Sodus St/S Park St
865,43.046820,-77.089322,E Union St/Colton Ave
445,43.032009,-77.077982,Marie Ave
160,43.246578,-76.724142,/Water St/Church/Church St
185,43.121957,-77.331456,Evergreen Hill
185,43.147957,-76.971493,Ackerman Rd
305,43.042198,-77.103687,Davis Dr/Elmwood Ave
334,43.061226,-77.095469,E Pearl St/W Pearl St/N Main St
160,43.088667,-77.087840,Ryder Rd
185,43.074097,-77.076278,Ressue Rd/Sleight Rd
334,43.226842,-77.337809,Lakeside Rd
160,43.242276,-77.071281,Rotterdam Rd
160,43.039613,-77.107937,W Maple Ave
216,43.069623,-77.088685,/State Hwy 88 N
160,43.137936,-77.349208,Walworth Penfield Rd/W Walworth Rd
246,43.131041,-77.373577,Walworth Penfield Rd
334,43.052308,-77.095371,Emmons St/N Main St
334,43.063348,-76.987093,Scott St
276,43.125850,-77.354801,Parkside Trl
160,43.231077,-77.060527,Robinson Rd/Gaylord St/Mill St
185,43.066577,-77.181252,Galloway Rd
216,43.221651,-77.012356,S Geneva Rd/Ridge Rd
276,43.123442,-77.320963,Canandaigua Rd
160,43.294404,-76.824098,Starling Rd
160,43.226722,-76.834057,/Lummisville Rd
246,43.122582,-77.312859,Sunrise Dr/Valley Dr
246,43.062795,-77.225830,Mill St
160,43.220039,-76.733709,Hogback Rd/State Rte 370
362,43.225969,-77.346649,104/Lincoln Rd
160,43.301992,-76.723295,State Rte 104A
160,43.069248,-76.764353,/Grand Ave
160,43.237833,-77.072228,Orchard Park
185,43.223176,-76.910092,Lake Bluff Rd/Ridge Rd
160,43.107367,-77.372926,County Line Rd
579,43.232111,-77.185285,/Pearsall St
160,43.068098,-77.127368,Eckert Rd
185,43.076790,-77.361327,Wayneport Rd
216,43.061188,-77.092846,Railroad Ave
216,43.044533,-77.084799,Church St/S Clinton St
160,43.231476,-77.239792,104
160,43.017425,-77.071184,Sweed Rd
185,43.214322,-77.190785,/South Ave
185,43.245653,-76.725003,Church/Wolcott St
445,43.045569,-77.084572,S Clinton St
185,43.098388,-77.024157,Layton Street Rd
710,43.042991,-77.095492,Franklin St/S Main St
160,43.249689,-77.324460,Slocum Rd/North Rd
160,43.070540,-76.959004,/Old Rte 31
334,43.130066,-77.355470,Scenic Way/Highfield Dr
216,43.059683,-77.305341,Paddy Ln
185,43.128232,-77.303946,Snowberry Cres/Wildflower Dr
305,43.122849,-77.293879,Locust Cir
305,43.042644,-77.101191,Perkins Park Rd
185,43.189609,-76.890330,N Huron St/Clinton Ave/Salter Rd/5th Rd
276,43.063707,-77.008947,Water St/Perrine Ln
185,43.058239,-77.360938,Wayneport Rd
160,43.225067,-76.810722,Cemetery St
160,43.243900,-76.940608,Sunset Ln
334,43.243563,-77.062129,Maple Ave
305,43.069779,-77.296583,W Main St
185,43.153489,-76.878296,Wolcott Rd/Main St/State Rte 414
185,43.141854,-77.190167,S Main St
334,43.059672,-77.246722,Burnham Hts
246,43.060658,-77.093016,E Pearl St/Murray St
160,43.081522,-77.361498,Pinewood Mobile Park/Wayneport Rd
160,43.285340,-76.821205,Jay Rd
160,43.044080,-77.082670,Church St
160,43.225203,-77.305919,Ontario Center Rd
276,43.061227,-76.997034,Leach Rd
160,43.230961,-77.070560,Ridge Rd
276,43.032521,-77.079727,Vienna St
246,43.063227,-76.997106,Water St/Butternut St
185,43.085913,-76.862728,North St
216,43.034675,-77.079821,Vienna St
185,43.139193,-77.275010,/Walworth Penfield Rd
160,43.119927,-77.314069,Gananda Pkwy/Waterford Rd
445,43.055555,-77.095415,Bryant Ave/N Main St
472,43.031679,-77.105080,Woodhill
216,43.124642,-77.305840,Aster Ter/
390,43.031803,-77.077503,Marie Ave
216,43.067158,-76.762468,Wellington Ave/W Church St
185,43.235343,-77.166678,State Rte 104
579,43.063705,-76.990374,Geneva St/Clyde Rd
246,43.134943,-77.360995,/Walworth Penfield Rd
160,43.224569,-77.346059,/Ridge Rd
160,43.066525,-76.750362,Seneca St
185,43.055759,-76.975413,Cole Rd
160,43.073570,-77.037315,Ross Rd Exn/
216,43.115769,-77.079030,Fairville Station Rd/Fairville Maple Ridge Rd/State Hwy 88 N
276,43.055260,-77.233508,Canandaigua Rd
246,43.049681,-77.087744,Murray St
160,43.230250,-77.152881,Ridge Rd
305,43.187801,-76.893611,Aldrich Ave/N Main St
185,43.077981,-76.995387,Maple St
160,43.139701,-77.188754,Union St/Mill St
160,43.202501,-76.914071,Briggs Rd Exd
160,43.060431,-76.974615,Hill Rd
185,43.262801,-76.817531,Wheeler Rd/E Port Bay Rd
216,43.153327,-77.181160,Marion East Williamson Rd
160,43.263060,-77.005286,/Trailer Park
160,43.161828,-77.101500,Maple Ridge Rd/Fairville Maple Ridge Rd
891,43.232256,-77.187031,Lake Ave/Pearsall St
160,43.160329,-76.775983,State Rte 89/
362,43.128946,-77.348872,Dewberry Ln/Bayberry Ln
160,43.058383,-76.969200,/Hill Rd
216,43.227500,-77.286211,State Rte 104/Knickerbocker Rd
185,43.270204,-77.356107,/Lake Rd
160,43.090738,-77.311037,Centerview Trl
185,43.224896,-77.270264,Jonathan Ln/Macintosh Rd
160,43.050449,-77.080341,Country Club Rd
684,43.044785,-77.090596,Church St/Prospect St
710,43.065527,-76.985612,Spencer St/Canal St/Lawrence St
185,43.031624,-77.080621,Cobblestone Ter
185,43.027722,-77.096210,/S Main St
216,43.235565,-77.172134,/Pound Rd
246,43.130167,-77.347273,Dewberry Ln
185,43.094227,-77.319014,Macedon Center Rd
305,43.230964,-77.065986,Benton Pl/Central Ave
160,43.224282,-77.316116,Ridge Rd
185,43.222207,-76.807657,Oswego St/Alport St
160,43.250745,-77.127380,Redman Rd/Middle Rd
246,43.061449,-76.976453,Cole Rd/Clyde Rd/Forgham St
185,43.039611,-77.103823,W Maple Ave/Elmwood Ave
185,43.128885,-77.305084,Penny Royal Ct/Wildflower Dr
418,43.031767,-77.104972,/Woodhill
185,43.222303,-76.806990,Oswego St/Wadsworth Street Rd
160,43.080252,-76.871286,Water St
305,43.227153,-77.030293,Trailer Park
305,43.272702,-76.975941,1st St/Wickham Blvd
160,43.077390,-77.177856,Vault Rd/S Creek Rd
499,43.064334,-77.371384,/Pittsford-Palmyra Rd
246,43.031495,-77.079687,Vienna Rd/Vienna St
216,43.047978,-76.993879,Gristmill Dr/State Rte 14
160,43.250384,-76.977447,Emerald Point Rd
305,43.084703,-76.857324,Dezeng St E
305,43.058800,-77.241926,Clairmont Park/Stafford St
160,43.089785,-76.873467,Elm St
305,43.061777,-77.257329,State Rte 31/Yellow Mills Rd/Walworth Rd
185,43.023339,-77.105664,Peirson Ave/Lincoln Rd/Budd Rd
216,43.237826,-77.120471,State Rte 104/Airport Driveway
160,43.068174,-77.146070,Ramp/Palmer Rd
160,43.116463,-77.106486,Minsteed Rd/Desmith Rd
246,43.225692,-77.364700,Dean Pkwy
185,43.083281,-76.874032,Lock St
216,43.066904,-77.293574,Southview Dr/Crest Ave
216,43.064759,-77.313937,Pittsford-Palmyra Rd/Kemp Dr
185,43.056033,-76.993414,Geneva St
185,43.050586,-77.093159,E Sherman Ave/S Orchard St
216,43.273756,-76.989329,Lake St/Lake St Exd/N Fitzhugh St
185,43.070639,-77.234569,/Maple Ave
216,43.292807,-76.836525,Loon Point Rd
160,43.084970,-76.997497,Maple Street Rd/Debusse Rd
334,43.235739,-77.136977,King St
1252,43.046541,-77.109267,/W Union St
160,43.123514,-77.316582,Fairway 6
185,43.210177,-77.286846,Coppersmith Trl
216,43.241093,-77.013078,/N Geneva Rd
160,43.067409,-76.841316,Benning Rd/State Hwy 31
185,43.205216,-76.868479,Brown Rd/State Rte 104
246,43.027436,-77.096154,Stevens St/S Main St
216,43.226601,-77.188563,Vick St/Stanford St
216,43.037161,-77.079928,/Vienna St
276,43.233818,-77.201459,Tuckahoe Rd
160,43.239635,-76.883939,Lummisville Rd
160,43.059311,-77.244345,/Hyde Pkwy
445,43.227175,-77.322091,104/John Cox Rd
160,43.027310,-77.120656,Pardy Smith Rd
160,43.044079,-77.351545,Wilkinson Rd
246,43.067248,-76.985771,Spencer St/Holley St
216,43.222808,-77.182566,Miller St/Maple Ave/Prospect St
160,43.065492,-76.758441,State Hwy 31
246,43.062346,-76.983326,Canal View Dr/Montezuma St
160,43.134178,-77.196439,Countryside Ln/Palmyra Rd
160,43.056237,-77.131444,/Whitbeck Rd
334,43.063558,-77.226112,E Main St/Holmes St
160,43.230464,-77.323938,North Rd
160,43.236081,-76.795929,Wadsworth Street Rd/Stevens Dr
185,43.150708,-77.145334,White Rd/Skinner Rd
185,43.066386,-76.980624,Manhattan St
160,43.194408,-77.347202,/Lincoln Rd
445,43.086691,-76.880290,Duncan St/W Genesee St
276,43.235773,-77.053919,Ridge Rd
160,43.089449,-76.868374,Sodus St
305,43.068580,-76.991423,Broad St/William St/Rice St
160,43.211857,-77.192135,Palmyra Rd
160,43.265188,-76.944076,Wolcott Ave/Rose Ave
1123,43.064807,-76.987347,Canal St/Catherine St
445,43.086057,-76.872179,Lock St/Caroline St
276,43.246661,-76.722987,Water St/Cross St
216,43.062208,-76.977493,Montezuma St
160,43.068592,-77.242481,Quaker Rd
160,43.060089,-76.966510,State Hwy 31
160,43.280177,-77.169173,Foreman Park/Lake Rd
418,43.065527,-76.991215,William St/Queen St/Lawrence St
246,43.051749,-77.127511,/Whitbeck Rd
185,43.036015,-76.906025,Clyde-Marengo Rd
216,43.225061,-77.296159,Ridge Rd
246,43.054815,-77.233532,Dar-Lind Ln/Canandaigua Rd
160,43.048472,-76.978919,Dunn Rd
185,43.234516,-77.186801,Lake Ave
160,43.145395,-77.374135,Hulburt Rd/Bills Rd
216,43.089552,-76.870417,Burton St
216,43.064002,-77.002117,/Water St
185,43.134155,-77.358482,View Pointe Dr
160,43.030323,-76.991527,State Rte 14
472,43.069321,-76.991081,Broad St/Jackson St/Maple St
160,43.126808,-76.761644,State Rte 89
160,43.226727,-77.067319,State Hwy 88
216,43.214213,-76.800990,/Delf Dr
499,43.224162,-77.371491,104/
579,43.219323,-76.813915,Park Ln/South St
185,43.224337,-76.738339,State Rte 370
160,43.195939,-77.066300,State Hwy 88
160,43.043519,-77.371420,Wilkinson Rd
160,43.326162,-76.729544,Metzger Rd/Blind Sodus Bay Rd
216,43.065710,-77.095182,State Hwy 88 N
160,43.131232,-77.361090,Highfield Dr/View Pointe Dr
185,43.062166,-76.961160,Old Rte 31/State Hwy 31
160,43.209549,-76.804538,State Rte 104
216,43.050518,-77.098835,W Sherman Ave/Bostwick St
445,43.094006,-77.074744,Pulver Rd/State Hwy 88 N
160,43.160836,-76.775506,Butler Center Rd/
246,43.224079,-76.738504,State Rte 370
246,43.069156,-77.299163,Erie St N/Erie St S/Main St/W Main St
552,43.232578,-77.185080,Pearsall St
160,43.063121,-76.759493,State Rte 31/State Hwy 31/S Main St
362,43.127836,-77.347839,Bayberry Ln
160,43.203785,-76.931470,State Rte 104
160,43.161578,-77.101500,Fairville Maple Ridge Rd
185,43.063281,-76.981441,/Clyde Rd
216,43.255546,-77.144947,Brasser Rd/
499,43.042876,-77.090564,Prospect St
362,43.084984,-77.150295,/Tellier Rd
216,43.094228,-77.322963,Osband Ave/Macedon Center Rd
445,43.220933,-77.283368,Ridge Rd/Furnace Rd/Walworth Rd
185,43.229430,-77.185279,Arrowbend Dr
246,43.035119,-77.097138,Garden Ln
160,43.262445,-77.268118,/Furnace Rd
246,43.065107,-77.313775,Kemp Dr
276,43.246215,-76.721577,Blue Bell Dr/Canada St
160,43.268437,-76.945679,Park Ave/Phelps Ave
160,43.243036,-77.060847,State Rte 104
185,43.286835,-76.892854,Carolina Ave
216,43.227306,-77.286207,104/Knickerbocker Rd
216,43.025972,-77.031011,Sapp Rd/Pleasant Valley Rd
445,43.086546,-76.873747,Caroline St/Elm St
160,43.059688,-77.304439,Paddy Ln
160,43.094467,-77.350110,Arrowhead Trailer Park
160,43.054464,-77.353984,Mary Dr/Marvin Dr
216,43.023702,-77.095598,Lincoln Rd
185,43.248678,-77.276929,Evergreen Ln/Evergreen Cir
160,43.068592,-77.192244,Schilling Rd/N Creek Rd
160,43.161666,-77.085031,State Hwy 88 N/State Hwy 88
418,43.064634,-77.235209,Liberty St/Hansen St
160,43.221710,-77.286541,Ridge Rd/Knickerbocker Rd
160,43.093201,-77.157449,Lyon Rd/O'Meal Rd
160,43.020492,-77.068484,Silver Hill Rd
185,43.042954,-77.082935,S Clinton St
160,43.039471,-77.084483,E Maple Ave
160,43.087145,-76.855946,Dezeng St E/Welch Rd
305,43.063552,-77.225890,Mill St/E Main St
305,43.143441,-77.186696,Evergreen Dr/Union St
160,43.102304,-77.100994,Jungle Rd/Minsteed Rd/Lee Rd
185,43.197343,-76.897057,State Rte 414
362,43.065209,-77.312252,State Hwy 31/W Main St
246,43.216649,-76.814762,New Hartford St
160,43.056572,-77.237427,W Foster St/Laurentian Dr
185,43.185353,-76.892647,Railroad Ave/N Main St
160,43.067619,-77.045889,Old Lyons Rd/County House Rd
160,43.092756,-77.302172,Ontario Center Rd
160,43.049138,-76.845695,/Tyre Rd
185,43.218245,-76.821388,Pinewood Dr/Washington St/Leavenworth Ave/Maplewood Dr
160,43.258785,-76.721409,State Rte 104A
305,43.057113,-76.993218,/Franklin St/Geneva St
160,43.253585,-76.989337,Bay View Dr
1459,43.065523,-76.989211,Phelps St/Lawrence St
943,43.042621,-77.092418,Williams St/East Ave
160,43.113571,-76.929064,High St/Travell Knapps Corner Rd
1563,43.046511,-77.095261,S Main St
216,43.297949,-76.854818,Dutch Street Rd
216,43.064594,-77.237165,Hansen St
160,43.298062,-76.727096,State Rte 104A/State Hwy 104A/Caywood Rd
418,43.235184,-77.070615,Newark St
390,43.045324,-77.072899,Adams St/Garfield St
160,43.222278,-77.132623,Tripp Rd
276,43.035908,-77.280911,Spruce Run
160,43.236360,-77.097107,Hemlock Ln/
160,43.254800,-76.994126,State Rte 14/Morley Rd
160,43.229723,-77.270281,State Rte 104
552,43.038848,-77.096101,Heath St/S Main St
160,43.125872,-77.272445,Walworth Palmyra Rd
185,43.136090,-77.270619,Center St/High St
160,43.258043,-77.274059,Furnace Rd
160,43.064251,-77.094956,/Welcher Rd
334,43.062658,-77.269138,/Quaker Rd
216,43.234230,-76.836152,Hope Cir/Hope Cir - Lane 3
160,43.034680,-77.344934,Victor Rd
160,43.139204,-77.270631,Marion Rd/High St
185,43.060953,-77.244419,W Jackson St Exd/Hyde Pkwy
160,43.123515,-77.316359,Fairway 6
160,43.065357,-76.999236,Pearl St
160,43.230973,-77.070218,Newark St
216,43.058720,-77.097925,/Frey St
160,43.215425,-76.801090,Delf Dr/Countryman Rd
185,43.233918,-76.835721,Hope Cir - Lane 2/Hope Cir
160,43.080201,-76.923727,Old Rte 31/High St
185,43.055254,-77.055625,State Rte 31 E
160,43.061319,-77.099420,Candy Apple Ln
185,43.088154,-76.874631,Reese St/Dezeng St W
160,43.272759,-77.297275,Lake Rd
185,43.066336,-76.756822,Seneca St/Prospect St
160,43.210026,-77.286647,Coppersmith Trl
160,43.047466,-77.072130,E Union St/State Rte 31 E
185,43.219513,-77.003924,Trailer Park
160,43.209461,-76.805115,State Rte 104
246,43.061972,-76.976506,Clyde Rd
160,43.206475,-77.193463,Eddy Rd/Palmyra Rd
185,43.173070,-77.061428,/Fish Farm Rd
305,43.032331,-77.076565,Marie Ave
305,43.218480,-76.816329,Washington St/Northup Ave
216,43.125334,-77.354814,Parkside Trl/Everwild Ln
160,43.031456,-76.862271,/State Hwy 414
160,43.121953,-77.292842,Ontario Center Rd/Pine View Dr
160,43.069076,-77.181156,Galloway Rd/Hogback Hill Rd
579,43.226927,-77.282332,Ramp/Furnace Rd
185,43.080811,-76.876503,Geneva St
216,43.184765,-76.892253,S Main St/Storage Ave/N Main St
185,43.074136,-77.236185,Bonnie Ln/Maple Ave
305,43.123447,-77.307898,Day Spring Ridge
160,43.199248,-77.145563,E Townline Rd/Podger Rd/E Williamson Rd
216,43.227593,-77.188590,Vick St/Ridgewood Cir
185,43.039499,-77.086854,Pine Blvd/E Maple Ave
472,43.226838,-77.279548,Parking Lot
276,43.060981,-76.992040,Geneva St
276,43.061010,-77.235982,Washington St/W Jackson St
160,43.068462,-77.298791,Erie St S
160,43.141788,-77.189661,Mill St/Firehouse Rd
216,43.087445,-76.885819,W Genesee St/State Hwy 31
160,43.198918,-76.921742,York Settlement Rd
185,43.024624,-76.989171,State Rte 14/Hale St
276,43.073012,-76.993000,Culver St/Maple Street Ter/Maple St
185,43.217228,-77.323673,Slocum Rd
160,43.164197,-76.879145,State Rte 414
362,43.236099,-77.060450,State St/E Main St
185,43.261289,-77.281425,Pear Tree Meadow
160,43.240698,-77.003038,Sergeant Rd
362,43.226571,-77.337806,Lakeside Rd/State Rte 104
185,43.218970,-76.821462,Cedar Wood Dr/Leavenworth Ave
216,43.063621,-76.998275,Water St/Upper Water St
160,43.205707,-76.858130,Lasher Rd/State Rte 104
1278,43.065572,-76.987407,Catherine St/Lawrence St
185,43.138902,-77.363239,Stalker Rd
160,43.123642,-77.337439,Hance Rd
605,43.227449,-77.281774,State Rte 104/Furnace Rd
185,43.067496,-77.211125,N Creek Rd
160,43.223833,-77.132033,Richardson Rd/Tripp Rd
160,43.223766,-76.739605,Co Rte 163
216,43.054622,-77.352817,Golfview Dr/Marvin Dr
631,43.227252,-77.281974,104/Furnace Rd
160,43.169696,-77.184184,Williamson Rd/Daniel Dr
418,43.071063,-76.992060,Shaw St/Maple St
305,43.043776,-77.080059,Church St/Vienna St
185,43.258136,-77.294767,Brick Church Rd
334,43.038072,-77.107332,Martin St
246,43.032994,-77.096902,S Main St/Caboor Ct
160,43.152383,-77.338297,Kuttruff Rd/W Walworth Rd
185,43.064811,-76.997166,Prospect St
185,43.227577,-77.295483,State Rte 104
276,43.048256,-77.115501,W Union St/State Hwy 31 W
305,43.032214,-77.079713,Vienna St/Marie Ave
445,43.046362,-77.113311,Plaza Rd
472,43.227701,-77.306175,Ontario Center Rd/State Rte 104
1641,43.044378,-77.095262,S Main St/High St
185,43.044720,-77.086244,Church St
305,43.081635,-76.871206,Glasgow St
526,43.085923,-76.867507,Dezeng St E
160,43.149582,-77.110590,Martin Rd
160,43.273810,-76.986851,Lake St/N Ontario St
160,43.023494,-77.102290,Lincoln Rd
276,43.246249,-76.721824,South St/Main St/Canada St
160,43.198141,-77.305876,Fosdick Rd/Hennessey Rd
160,43.047622,-77.060581,Blue Cut Rd/Hartnagle Rd
160,43.233823,-77.196964,Railroad Ave
160,43.207453,-77.024231,Indian Summer/Barclay Rd
185,43.232080,-77.171399,/Ridge Rd
216,43.227060,-77.328255,State Rte 104
185,43.124775,-77.303912,Winterberry Ct
362,43.231669,-76.730689,State Rte 104A/State Rte 370/State Rte 104
185,43.219123,-77.012408,S Geneva Rd
160,43.170246,-76.810590,Fish Rd/Whiskey Hill Rd
276,43.129436,-77.355587,Scenic Way
390,43.044608,-77.078491,Blue Cut Rd/E Union St
160,43.236866,-76.809151,/E Port Bay Rd
216,43.035800,-77.002325,/Leach Rd
185,43.234588,-77.098197,Birch Cir/Laurel Dr
160,43.151233,-77.083203,/State Hwy 88 N
160,43.202209,-77.313915,Bushwood Rd/Whitney Rd
276,43.031731,-77.076796,Marie Ave
246,43.211296,-76.814295,New Hartford St
160,43.183012,-77.359672,Plank Rd
418,43.084792,-76.874775,Mann Aly/Elm St
216,43.235504,-77.163712,/State Rte 104
185,43.127303,-77.311918,Hidden Pond Ln
216,43.066305,-76.757812,High St Exd/Seneca St/High St
185,43.225239,-77.363845,/State Rte 104
305,43.085686,-76.866746,Dezeng St E/Galen St
160,43.235740,-77.119143,Airport Driveway
276,43.066418,-76.994483,Bear St/Queen St
185,43.126516,-77.302574,Trefoil Ct/Wildflower Dr
305,43.141270,-77.190781,S Main St
185,43.291116,-76.903144,Briggs Ave/E Bay Rd
160,43.031019,-76.862249,State Hwy 414
160,43.231782,-76.917279,Lake Bluff Rd
216,43.247159,-76.723576,Church St/Cross St
160,43.069414,-77.234253,Maple Ave
334,43.237673,-77.061602,Shaver St/Maple Ave
160,43.124010,-77.353205,W Walworth Rd/Parkside Trl
160,43.029228,-77.106020,Peirson Ave
160,43.025090,-76.920105,River Rd/Desmond Rd/Lyons-Marengo Rd
185,43.043594,-77.269595,Vandy Dr/Turner Rd
334,43.045371,-77.110222,/W Miller St
185,43.026889,-77.030841,/Sapp Rd
185,43.209968,-76.993421,State Rte 104
160,43.065474,-76.832381,Brown Rd/Lockpit Rd
185,43.232460,-77.217951,104/Salmon Creek Rd
160,43.059721,-76.962724,Sunderville Rd
246,43.049864,-77.087633,Country Club Dr/Murray St
246,43.122674,-77.300072,Beech Dr/Pine View Dr
276,43.069607,-77.302643,Bickford St/Lapham St
160,43.248972,-76.723272,State St/Church St
418,43.063385,-76.994326,Pearl St/Broad St
160,43.060346,-77.315294,Harwood Ln/Woodsview Way
390,43.226370,-77.337804,104/Lakeside Rd/State Rte 104
216,43.204003,-76.934335,State Rte 104/Norris Rd
185,43.088702,-77.040839,Lembke Rd/Bauer Van Wickle Rd
185,43.050482,-77.104724,W Sherman Ave
160,43.281100,-77.176818,Lake Rd
160,43.226337,-77.266777,Cortland Dr/Macintosh Rd
418,43.059457,-77.098516,Frey St/Peirson St
160,43.091300,-77.053544,Arcadia Zurich Norris Rd/Pulver Rd/Bauer Van Wickle Rd
710,43.045590,-77.100425,W Miller St
185,43.225994,-77.067562,Newark St
160,43.121480,-77.146695,Dey Rd/Cambier Rd
160,43.046569,-77.078040,/Stansell St
445,43.045537,-77.102014,W Miller St/Lillie St
185,43.223137,-76.822963,W Main St
160,43.273344,-77.285181,/Lake Rd
160,43.127405,-77.302620,/Wildflower Dr
185,43.060163,-77.326964,Camborn Dr
362,43.084549,-76.860496,Dezeng St E
390,43.048979,-77.092641,Siegrist St/Harrison St/East Ave
160,43.120494,-77.203551,Cole Rd/Palmyra Rd
185,43.057213,-77.001588,Leach Rd
160,43.231547,-77.134997,Ridge Rd
499,43.269395,-76.979001,Greig St/Field St
160,43.118203,-77.107703,Minsteed Rd/Ressue Rd
160,43.280983,-77.169677,Foreman Park
658,43.082667,-76.870399,Glasgow St/
246,43.052551,-77.098766,Mobile Dr/Emmons St/Mobile Pkwy
216,43.090352,-77.076201,State Hwy 88 N
418,43.044673,-77.078254,Blue Cut Rd/E Union St/Stansell St
276,43.033868,-77.106283,Peirson Ave
216,43.128975,-77.357133,Gananda Pkwy
160,43.143038,-77.242266,Hall Center Spur Rd/Walworth Rd
160,43.146539,-77.370071,Bills Rd
246,43.038749,-77.079978,Vienna St
160,43.105872,-77.352249,W Walworth Rd/Kittering Rd
160,43.069159,-77.234216,Quaker Rd/Maple Ave
160,43.055833,-77.101367,Plain St
276,43.224694,-76.824125,Orchard St/W Port Bay Rd
362,43.233617,-77.201458,Tuckahoe Rd/Railroad Ave
160,43.072814,-77.036155,Ross Rd
160,43.285579,-77.138195,Williamson on the Lake
216,43.148307,-77.292650,Ontario Center Rd/Greenview Dr
216,43.243695,-77.067698,State Rte 104
276,43.062306,-77.224953,Johnson St/Vienna St
185,43.128528,-77.340363,Wood Hill Dr/Woodland Cir
160,43.206219,-76.981307,State Rte 104
216,43.137802,-77.272652,Church St/Walworth Palmyra Rd/Main St
276,43.156557,-77.184910,Palmyra Rd/Williamson Rd/N Main St
246,43.089222,-76.891388,State Hwy 31
160,43.228788,-77.190141,Bennett St/Wayne St
185,43.106556,-77.054823,Fairville Station Rd
185,43.085409,-76.863031,North St/Wayne Ave
185,43.106648,-77.054119,Fairville Station Rd/Arcadia Zurich Norris Rd/Coleman Hill Rd
160,43.221644,-77.193168,Cottage St
185,43.057805,-77.091235,North Ave/Murray St
216,43.127770,-77.350204,Gananda Pkwy/Eagles Roost Ln/Dewberry Ln
160,43.126708,-77.302369,Thornberry Cres
160,43.203288,-76.963391,Preemption Rd/State Rte 104
362,43.039595,-77.099720,W Maple Ave/Grace Ave
390,43.246669,-76.722248,Blue Bell Dr/Main St/South St
185,43.218689,-77.323681,Slocum Rd/Centennial Dr
216,43.049138,-77.097271,Lake St Exd
160,43.126858,-77.200889,Palmyra Rd/Schilling Rd
185,43.222164,-77.225114,Ridge Chapel Rd/Ridge Rd
216,43.229758,-77.032924,Harvest Dr
160,43.081376,-76.828081,Noble Rd
658,43.270051,-76.980359,/Greig St
305,43.065471,-77.231661,Willow St/Canal St
160,43.235374,-77.119893,Airport Driveway
160,43.224570,-76.827320,Ridge Rd
216,43.060812,-77.213519,/State Rte 31/E Main St
216,43.203675,-76.950960,State Rte 104
160,43.080407,-76.878014,Griswald St
160,43.237472,-77.066074,Belden Ave/Smith St
160,43.128440,-77.268745,Hunter Cir
160,43.045095,-77.070633,Eastland Valley Rd
185,43.281061,-77.176503,Lake Rd
160,43.147451,-77.184289,/N Main St
160,43.223643,-77.189159,Bennett St/Main St
160,43.206726,-76.836301,Stone Rd/State Rte 104
334,43.090491,-76.898033,Lake Corners Rose Valley Rd/State Hwy 31/Lakes Corners-Rose Valley Rd
472,43.128447,-77.346232,Heather Brook Ln/Cranberry Ln
472,43.045702,-77.084509,E Union St/S Clinton St
216,43.232243,-77.062503,Mill St/Mill St Exd
160,43.085623,-77.029235,/Brandt Rd
160,43.031471,-77.076704,Marie Ave
276,43.212061,-76.984654,Ridge Rd
305,43.236776,-77.137025,King St/State Rte 104
246,43.121361,-77.331721,/Evergreen Hill
160,43.065659,-77.181551,/Galloway Rd
390,43.062279,-77.221423,E Main St/State Rte 21
246,43.123689,-77.320970,Fairway 7/Canandaigua Rd
185,43.066107,-76.832312,Brown Rd
160,43.114017,-76.840009,Kelsey Rd/Shepard Rd
305,43.067450,-77.093452,Hydesville Rd/State Hwy 88 N
160,43.126539,-77.309670,Sunset Dr
160,43.283988,-76.781718,Church Street Rd/Broadway Rd/Hapeman Rd
160,43.085922,-77.154793,East St/Tellier Rd
160,43.064268,-77.085994,Bloom Rd/Ressue Rd
445,43.231153,-77.064200,Curtis Ave/Benton Pl
185,43.230516,-77.144812,E Townline Rd
160,43.222850,-77.279399,Browns Sq
160,43.069040,-77.000134,Locust Hill Dr/Sunset Dr
305,43.226174,-77.268453,Macintosh Rd
185,43.131117,-77.358530,Highfield Dr
185,43.034425,-77.079809,Vienna St
1226,43.084192,-76.869473,Glasgow St/N Park St
246,43.212171,-76.978529,Shaker Rd
185,43.059780,-77.309140,Paddy Ln
160,43.210987,-76.980233,Ridge Rd/State Rte 14
160,43.270290,-76.989027,N Fitzhugh St/S Fitzhugh St/Bay St/Lake Rd
185,43.076653,-77.361327,Wayneport Rd
246,43.033705,-77.096812,S Main St/Woodside Dr
418,43.266971,-76.991755,Sentell St/State Rte 14
160,43.186424,-77.141676,Owls Nest Rd/Beam Hill Rd
362,43.038671,-77.088486,South Ave/Bailey Ln
362,43.059389,-77.095455,N Main St
390,43.071347,-76.992095,Foster St/Maple St
216,43.061340,-76.977144,Forgham St
185,43.022436,-77.054926,/Miller Rd
160,43.069258,-77.215267,State Rte 21/N Creek Rd
160,43.067118,-77.218281,/Garlock- Driveway/State Rte 21
216,43.062200,-77.018908,Dry Dock Rd
185,43.125907,-77.302580,Violet Cres/Wildflower Dr
276,43.062817,-76.987547,Scott St/Montezuma St
185,43.126411,-77.346522,Gananda Pkwy/Beaver Creek Dr/Heather Brook Ln
160,43.225341,-77.358982,104
185,43.020253,-77.071291,Silver Hill Rd/Sweed Rd
160,43.223227,-77.193277,Main St/Cottage St
499,43.063553,-77.236013,Washington St/W Main St
216,43.084557,-76.867390,Galen St/Caroline St
160,43.057437,-77.229482,Fayette St/Spring St
418,43.061776,-76.991993,Water St
246,43.219871,-76.816425,Park St/Northup Ave
160,43.224138,-77.353021,Ridge Rd/Southbrook Dr
185,43.211912,-77.323572,Slocum Rd/Clevenger Rd
185,43.060522,-76.963613,State Hwy 31
305,43.229482,-77.035798,Ridge Rd/State Rte 104
185,43.034289,-77.079806,Vienna St
185,43.039411,-77.074902,E Maple Ave
246,43.229424,-77.186718,Lake Ave/Arrowbend Dr/Wayne St
418,43.223629,-77.374716,104
334,43.061582,-77.219738,/E Main St
160,43.051641,-77.233405,/Canandaigua Rd
788,43.045826,-77.092527,W Miller St/E Miller St/East Ave
185,43.075020,-77.361274,Wayneport Rd
160,43.073743,-77.234015,O Brien Ave/Betty Brae Way
305,43.143147,-77.189045,S Main St/Buffalo St/N Main St
684,43.220982,-76.816084,W Main St/Northup Ave
216,43.098779,-76.867905,/State Rte 414
526,43.232914,-77.185014,State Rte 104
160,43.081427,-77.360969,Pinewood Mobile Park
246,43.045984,-77.087380,Hoffman St/E Miller St
185,43.068889,-77.090232,Whitings Corners Rd/State Hwy 88 N
216,43.038897,-77.081957,Drumlin Ct
334,43.063529,-77.238066,Carroll St/W Main St
185,43.162664,-76.879031,/State Rte 414
160,43.070292,-76.985959,Spencer St
891,43.232666,-77.187565,Ridgeway St
160,43.098587,-76.963450,Highland Fruit Farm Rd/Travell Knapps Corner Rd
185,43.063008,-76.996093,Water St/Upper Water St
160,43.240710,-77.071114,Rotterdam Rd
160,43.062050,-77.316537,Parkwood Dr/Woodsview Way
216,43.084138,-76.867624,Galen St
334,43.243333,-77.062109,State Rte 104/Maple Ave
334,43.127488,-77.346194,Heather Brook Ln/Bayberry Ln
185,43.223772,-76.821355,Orchard St
390,43.235512,-77.153200,State Rte 104
552,43.062619,-76.994770,Broad St/Water St
305,43.043114,-77.097660,Mason St/Franklin St
276,43.032994,-77.094029,Kent St/Charlotte St
445,43.064315,-77.370047,Pittsford-Palmyra Rd
160,43.150033,-77.145340,White Rd
362,43.227384,-77.321881,State Rte 104
160,43.027532,-77.116392,Botcher Rd/Filkins Rd/Pardy Smith Rd
160,43.062660,-77.041840,State Rte 31 E
185,43.089119,-76.874110,Reese St
160,43.139191,-77.276367,Walworth Penfield Rd/Teresa Dr
160,43.222504,-77.266954,Lodi Ct
160,43.243637,-77.064224,State Rte 104
160,43.037904,-77.092283,Burnham St/East Ave
216,43.065873,-76.757818,High St Exd
160,43.070470,-77.108507,Hydesville Rd
216,43.059710,-77.233405,Canandaigua St
160,43.072245,-77.107297,/Decann Rd
246,43.192235,-76.830209,Salter-Colvin Rd
305,43.122840,-77.297284,Woodfield Dr
185,43.265026,-77.024495,Buck Ln/Lake Rd
276,43.061068,-77.229552,Prospect Dr/Fayette St/E Jackson St
160,43.199640,-77.065545,Joy Rd/Sodus Center Rd/State Hwy 88
185,43.055132,-77.127476,Stebbins Rd/Whitbeck Rd
305,43.238573,-77.111186,N Centenary Rd
160,43.233260,-77.095710,Ridge Rd
276,43.226362,-77.342010,State Rte 104
684,43.082754,-76.870760,William St
160,43.054220,-77.100182,Driving Park Ave/Driving Park Cir
418,43.031524,-77.106139,Peirson Ave/Woodhill
160,43.294893,-76.841299,Willow Rd/W Port Bay Rd
160,43.129895,-77.113910,Minsteed Rd
246,43.064961,-77.313770,Kemp Dr
160,43.042078,-77.165652,Palmyra-Newark Rd
160,43.225499,-77.189495,Bennett St/Circle Dr
160,43.063487,-77.095366,State Hwy 88 N/N Main St
418,43.038686,-77.090307,Bailey Ln/Prospect St
246,43.053964,-77.073027,Old Lyons Rd
160,43.083400,-76.868046,E Genesee St/Galen St
305,43.056745,-77.244221,/W Foster St/Hyde Pkwy
216,43.222680,-77.373007,Ridge Rd/Vande Rd
160,43.261921,-77.036289,Sprongs Bluff/Lake Rd
185,43.078570,-77.313281,Quaker Rd
160,43.222819,-77.289610,Ridge Rd
185,43.205187,-77.290240,Surrey Xing/Carriage Ct
185,43.042771,-77.081304,/Cuyler St
185,43.211141,-76.800808,/Auburn St
216,43.252216,-77.282380,Bailey Rd
362,43.232625,-77.188494,Ridgeway St/Cole St
185,43.187472,-76.895406,Aldrich Ave/N Poplar St
160,43.070070,-77.289766,State Rte 31/W Main St
185,43.224241,-77.339085,Holly Bush Ln/Ridge Rd
185,43.287185,-76.892840,Oklahoma Ave
160,43.152508,-76.923480,Wayne Center-Rose Rd/Covell Rd
160,43.073506,-77.005546,Layton St
185,43.053154,-77.100036,Sunset Dr
276,43.066610,-76.995224,Dickerson St/Queen St/Butternut St
276,43.054205,-77.095396,N Main St
390,43.045576,-77.071641,Park Ave
246,43.219843,-76.993347,/Birchwood Ln
160,43.037899,-77.093498,Burnham St/Crosby St
185,43.094188,-77.304359,Macedon Center Rd
418,43.086313,-76.877831,W Genesee St/Hill St
160,43.231643,-77.122196,Ridge Rd
216,43.052549,-77.093227,N Orchard St/Sherman Pkwy
160,43.058407,-77.227885,Swiss Chalet Dr
160,43.250451,-77.275144,Parrini Dr/Furnace Rd
216,43.152122,-76.878036,School St/Main St
160,43.113062,-76.859695,Kelsey Rd
160,43.298622,-76.726859,State Rte 104A/State Hwy 104A
160,43.052974,-76.993508,Geneva St
160,43.031447,-77.080544,Cobblestone Ter
160,43.189381,-77.001807,Van Houte Rd/Stell Rd
160,43.031832,-77.093992,Charlotte St
160,43.303967,-76.843483,Walnut Rd/W Port Bay Rd
276,43.031484,-77.078195,Marie Ave
160,43.205327,-77.212960,Eddy Rd
160,43.274507,-77.183162,Jay St/Foxwood Dr
185,43.267442,-77.195930,Salmon Creek Rd
216,43.080908,-76.871771,Glasgow St/Mill St
160,43.101784,-76.761829,Di Santo Rd/Cotten Rd
160,43.111585,-77.055386,/Arcadia Zurich Norris Rd
216,43.107220,-76.732673,39 Rd
160,43.083840,-76.878760,Sibley St
631,43.220165,-76.813463,Mill St/E Main St
216,43.052579,-77.096782,Mobile Dr/Mobile Pkwy
334,43.236083,-77.061998,Mill St/W Main St
362,43.231633,-77.187093,Lake Ave/
579,43.041160,-77.097678,Mason St/Washington St
160,43.118383,-76.825447,Salerno Rd/Clyde-Hunts Corners Rd
160,43.336721,-76.736339,/Blind Sodus Bay Rd
216,43.230565,-77.160588,Ridge Rd
216,43.128139,-77.342830,Westwood Trl/Autumn Wood Dr
276,43.048625,-76.983794,Dunn Rd
185,43.082684,-76.868446,Ford St/Galen St
160,43.128899,-77.293362,Parking Lot
185,43.072010,-76.789656,/Wilsey Rd
185,43.235099,-77.139230,King St
276,43.061950,-77.098548,Peirson St/W Pearl St
216,43.189371,-77.149859,Owls Nest Rd/E Williamson Rd
185,43.053983,-77.101106,/Driving Park Cir
185,43.270379,-76.986906,Village Parking Lot/Bay St
276,43.245912,-76.721632,South St
334,43.042171,-77.108265,Davis Dr/Edgett St
160,43.116465,-77.106407,Minsteed Rd
160,43.222965,-76.822347,W Main St/Railroad Ave
160,43.233395,-77.085748,Peoples Rd
246,43.250053,-77.062716,Maple Ave
362,43.043721,-77.108367,Edgett St/Hope Ave
305,43.216624,-76.813266,Willow Ln
160,43.059747,-76.972717,Hill Rd
185,43.204859,-76.893400,State Rte 104
185,43.089738,-76.870984,/Burton St
185,43.161807,-76.878962,State Rte 414
185,43.215453,-77.251879,Arbor Rd/Rosemarie Ln
160,43.061407,-76.990134,Elm St
160,43.222769,-76.818249,Orchard St/Wright St
160,43.127905,-77.293777,/Evergreen Cir
185,43.197868,-77.313758,Bushwood Rd/Albright Rd/Hennessey Rd
160,43.060136,-77.314643,Woodsview Way
160,43.026812,-77.031527,Pleasant Valley Rd
160,43.107370,-76.728418,Taylor Rd/39 Rd
216,43.024080,-77.092840,/Technology Pkwy
185,43.052477,-77.127489,Whitbeck Rd
160,43.227550,-77.278399,104/State Rte 104
160,43.209230,-76.992054,Bond Rd/State Rte 104
839,43.042816,-77.092425,W Myrtle Ave/East Ave
334,43.038775,-77.093521,Heath St/Crosby St
216,43.065526,-77.024283,2nd St/Old Newark Lyons Rd
276,43.227383,-77.029989,Trailer Park
160,43.192181,-76.831217,Salter-Colvin Rd/Galen Rd
362,43.215732,-76.814696,Butler St/New Hartford St
185,43.237563,-77.121932,Trailer Park
160,43.285021,-77.114254,Sodus Shores/N Centenary Rd
160,43.246198,-76.723924,Water St
216,43.066305,-76.758036,Seneca St/E Church St/State Hwy 31
160,43.064476,-77.258517,Quaker Rd/Walworth Rd
160,43.068839,-77.229139,Division St
362,43.203830,-77.290318,Carriage Ct
362,43.064399,-77.319862,Pittsford-Palmyra Rd/Canandaigua Rd
185,43.214570,-76.817355,Wilson St/Draper St
216,43.087999,-76.909015,Old Rte 31
160,43.273285,-77.356051,Morning Star la/Shorewood Trl
160,43.229908,-77.190359,Bennett St/Rasmussen St
305,43.051668,-77.095363,Ford St/N Main St
185,43.064175,-77.226055,Canal St/Holmes St
658,43.219716,-76.813910,Park Ln/Parking Lot
246,43.239032,-77.097574,State Rte 104
160,43.046767,-77.015794,Old Preemption Rd
160,43.021321,-77.105569,Budd Rd
362,43.227326,-77.280037,State Rte 104
917,43.083637,-76.869812,Glasgow St/S Park St
216,43.063293,-77.247263,State Rte 31
472,43.227494,-77.306173,Ontario Center Rd/State Rte 104
160,43.294033,-76.823447,Robin Rd
246,43.064089,-76.996656,Pearl St/Butternut St
160,43.188633,-77.291485,/Ontario Center Rd
185,43.043348,-77.101893,/Perkins Park Rd
185,43.187043,-77.076321,Waterbury Rd/State Hwy 88
160,43.076101,-77.007753,Layton St
160,43.026949,-77.133784,Turner Rd/Pardy Smith Rd
160,43.080964,-77.359072,Pinewood Mobile Park
185,43.042929,-77.318875,Nolan Rd
276,43.241573,-77.201466,Tuckahoe Rd
160,43.152395,-77.337377,Kuttruff Rd
216,43.063214,-77.022508,/State Hwy 31
216,43.070987,-76.993010,Shaw St/Rice St
160,43.268603,-76.983207,Lummis St
246,43.237693,-77.128022,Redman Rd
160,43.059818,-77.208546,/Palmyra-Newark Rd
160,43.091067,-76.759039,Pump House Rd
246,43.131088,-77.373003,Walworth Penfield Rd
334,43.125966,-77.347912,Smugglers Cove/Crows Nest Ln
160,43.222169,-76.934843,/Ridge Rd
246,43.219739,-77.012420,S Geneva Rd/State Rte 104
160,43.284875,-76.821186,Finch Rd
185,43.067215,-76.839903,/State Hwy 31
160,43.178173,-77.186334,Williamson Rd
305,43.234032,-77.140316,King St
968,43.047270,-77.095281,N Main St
216,43.248728,-77.275468,Evergreen Ln/Furnace Rd
185,43.256431,-77.063259,Middle Rd/Maple Ave
216,43.236744,-77.072263,State Hwy 88
160,43.128057,-77.272451,Walworth Palmyra Rd
160,43.240617,-77.078136,Service Rd
1020,43.083786,-76.869582,Glasgow St/E Genesee St
160,43.262911,-77.005275,Margaretta Rd/Trailer Park
334,43.206372,-76.902685,Lake Bluff Rd/State Rte 104/State Rte 414
418,43.050016,-77.089235,Norton St/Filmore St
160,43.226947,-77.266784,Cortland Dr/Russett Ln
160,43.035379,-77.088461,Oak Dr/South Ave
160,43.116515,-77.251744,/Daansen Rd
305,43.236524,-77.138350,/State Rte 104
185,43.053846,-76.993474,Geneva St Exd/Geneva St
246,43.215614,-76.817424,Butler St/Draper St
185,43.144030,-77.191353,Buffalo St
160,43.121455,-77.337541,Grean Meadow Dr/Hance Rd/Evergreen Hills Dr
362,43.247054,-76.722450,Blue Bell/Main St
216,43.063295,-77.247347,State Rte 31/Creek Rd
390,43.031773,-77.077411,Marie Ave
160,43.287911,-76.893069,Oregon Ave
185,43.125725,-77.302608,Wake Robin Ct/Wildflower Dr
185,43.039863,-77.237205,Parking Lot
276,43.034794,-77.096542,S Main St/Lea Dr
160,43.072916,-76.781944,W Church St
160,43.151341,-76.873932,Dix St/Valley Dr
160,43.154213,-77.302755,Downs Rd
160,43.130732,-77.361167,Gananda Pkwy/Highfield Dr
362,43.062433,-77.267620,Quaker Rd
216,43.067125,-77.030854,/State Hwy 31
216,43.232713,-77.217954,Salmon Creek Rd/State Rte 104
160,43.063930,-77.003310,Water St
160,43.127789,-77.309971,Hidden Pond Ln/Iris Cres
160,43.208680,-76.808257,/State Rte 104
160,43.257269,-76.990250,Overlook Dr/Central Ave
216,43.054434,-76.899708,Clyde Marengo Rd/Kaiser Rd/Clyde-Marengo Rd
305,43.088900,-76.877968,Dezeng St W/Hill St
216,43.060982,-77.263133,State Rte 31
185,43.073455,-76.857460,E Genesee St/State Hwy 31
185,43.226372,-77.323814,Slocum Rd/Wobster Way
276,43.063422,-77.224338,E Main St
160,43.065940,-77.043825,County House Rd
276,43.066408,-77.002202,/Layton St
160,43.094747,-77.351014,Arrowhead Trailer Park
185,43.049118,-77.068617,State Rte 31 E
185,43.078107,-76.862868,E Genesee St
216,43.046476,-77.087068,E Union St
160,43.272962,-76.944033,Crescent Bch
160,43.236281,-76.719423,Westbury Rd/South St/State Rte 104
185,43.262249,-77.201502,Salmon Creek Rd/Tuckahoe Rd
276,43.039580,-77.097697,Mason St/W Maple Ave
160,43.233472,-77.171925,Old Ridge Rd/Pound Rd
334,43.069655,-77.297618,Ontario Center Rd/Main St/W Main St
160,43.225253,-77.201487,Tuckahoe Rd/Main St/Ridge Rd
160,43.125065,-77.305871,/Wildflower Dr
276,43.044760,-77.086562,Church St
276,43.123498,-77.312870,Valley Dr
445,43.063539,-77.237175,W Main St
334,43.053519,-77.095391,N Main St
526,43.089001,-76.866727,Glasgow St
160,43.146981,-77.370033,Bills Rd/County Line Rd
160,43.123523,-77.306306,Sherwood Dr/Waterford Rd
216,43.174048,-77.184828,Warner Rd/Witherden Rd/Williamson Rd
246,43.237976,-77.105753,Trailer Park
160,43.256324,-76.937238,/Lake Bluff Rd
185,43.038541,-77.302243,Magog Rd/Erie Street Rd
185,43.019911,-76.993384,Alloway Rd
216,43.223706,-77.199282,Whispering Woods Dr
160,43.092026,-77.269041,Macedon Center Rd
390,43.221779,-76.818572,Wright St/W Main St
160,43.137110,-77.047940,Arcadia Zurich Norris Rd/Wunder Rd
185,43.223866,-76.821643,Orchard St
160,43.059701,-77.303504,/Paddy Ln
160,43.263702,-77.005135,Trailer Park
276,43.063751,-77.224669,Canal St/Park Dr
246,43.063314,-76.997057,Butternut St/Upper Water St
334,43.034596,-77.106337,Peirson Ave/Wood Ln
362,43.084402,-76.871237,Sodus St/W Genesee St
160,43.127399,-77.246241,Maple Ave
160,43.041114,-77.164505,Old Rte 31/Palmyra-Newark Rd
160,43.294399,-76.840498,W Port Bay Rd
276,43.071416,-76.789600,/Old State Rte 31/Wilsey Rd
160,43.023367,-76.989339,Water St/Alloway Rd
276,43.123458,-77.309233,Sunrise Dr
160,43.144886,-77.346408,W Walworth Rd
185,43.229519,-76.758816,State Rte 104
185,43.052985,-77.127267,W Shore Blvd
160,43.172926,-77.374548,Jacobs Rd
246,43.236086,-77.061444,W Main St/Maple Ave
160,43.036101,-76.829680,/Bentley Rd
160,43.218808,-77.265888,Lanson Rd
362,43.056545,-77.095422,Landon Ave/N Main St
305,43.060572,-76.997547,Leach Rd/Forgham St
185,43.037063,-77.093929,Wilson St/Charlotte St
552,43.083195,-76.870064,Glasgow St/Ford St
362,43.087113,-76.865866,Wayne Ave/Galen St
185,43.287489,-76.892906,Utah Ave
216,43.196845,-76.896753,State Rte 414
185,43.233880,-77.171621,Pound Rd
160,43.042249,-77.289986,Magog Rd/Lawrence Rd
216,43.067281,-77.002718,/Layton St
362,43.129281,-77.348014,Cranberry Ln/Dewberry Ln
185,43.126612,-77.302576,Wildflower Dr/Thornberry Cres
160,43.075855,-76.866833,New St/Burrell St
160,43.237098,-76.712490,/Coolican Rd
216,43.236144,-77.286347,/Knickerbocker Rd
185,43.192967,-77.346848,/Haley Rd/Lincoln Rd
160,43.039986,-77.135704,Bailey Rd/Hanley Rd
185,43.062701,-77.240141,Tremont St
160,43.217642,-77.000775,Ridge Rd
160,43.060200,-77.319783,Victor Rd/Canandaigua Rd
185,43.238718,-77.103471,State Rte 104/Trailer Park
160,43.259530,-77.282449,Bear Creek Dr/Pear Tree Meadow
160,43.233626,-77.085785,Peoples Rd
160,43.209401,-77.301226,Ontario Center Rd
160,43.085352,-76.838110,Welch Rd/Welch Rd Exd
160,43.066977,-77.292053,Crest Ave
390,43.045412,-77.111009,W Miller St
216,43.021912,-77.094712,State Hwy 88 S
216,43.083854,-77.137459,Tellier Rd
362,43.086175,-76.868343,Dezeng St E/Glasgow St/Dezeng St W
216,43.061561,-77.095420,N Main St
216,43.292743,-76.831445,Tompkins Point Rd
160,43.121299,-77.334554,Pine Ter
334,43.063855,-76.994061,Broad St/Church St
160,43.084891,-76.872855,W Genesee St/Lock St
160,43.246354,-76.723617,Water St
334,43.126180,-77.315828,Fairway 7
160,43.230713,-77.252073,104/Fisher Rd
216,43.082130,-76.868950,/Galen St
160,43.182200,-77.138845,Owls Nest Rd/Quigley Rd
216,43.039444,-77.081962,E Maple Ave/Drumlin Ct
160,43.214511,-76.818442,Wilson St/Sunset Ter
276,43.121060,-77.332130,Holly Cres/Evergreen Hill
276,43.121030,-77.332202,Pine Ter/Evergreen Hill
246,43.220522,-77.225056,Ridge Chapel Rd
362,43.227085,-77.323846,104/Slocum Rd/State Rte 104
216,43.128449,-77.344105,Westwood Trl
216,43.238675,-77.104272,State Rte 104/Trailer Park
305,43.226163,-77.268967,Baldwin Rd/Macintosh Rd
160,43.227785,-77.187659,Ridgewood Cir
246,43.223802,-77.187634,/Main St
305,43.236118,-77.066014,Belden Ave/W Main St
160,43.229597,-77.286254,Knickerbocker Rd
160,43.127517,-77.302438,/Springbeauty Cres
185,43.226567,-77.030987,Burlee Rd/State Hwy 104/State Rte 104
160,43.082580,-76.858758,Trolley Rd
160,43.068472,-77.298724,Erie St S
185,43.158374,-77.120772,Minsteed Rd/Steel Point Rd
185,43.128385,-77.304136,Rosebay Ct/Wildflower Dr
160,43.224078,-76.924714,/Resort Rd
185,43.151044,-77.182547,Croucher Spr
246,43.227413,-77.321299,State Rte 104
185,43.221527,-77.012639,N Geneva Rd/Ridge Rd
579,43.082474,-76.870550,Glasgow St
185,43.065277,-77.039187,/State Rte 31 E
472,43.217289,-76.812642,Willow Ln
472,43.087546,-76.877906,Caroline St/Hill St
246,43.224378,-77.350565,Ridge Rd
305,43.113335,-76.869438,State Rte 414
305,43.231143,-77.065954,Central Ave
160,43.237730,-77.186675,/Lake Ave
160,43.227458,-77.270541,Baldwin Rd
216,43.038875,-77.107400,Newton St
160,43.229451,-77.270828,104
185,43.129109,-77.097526,/Fairville Maple Ridge Rd
185,43.094504,-77.298906,Ontario Center Rd/Macedon Center Rd
185,43.066328,-76.994134,Queen St/High St
1174,43.088845,-76.864974,Parking Lot
160,43.112667,-76.870782,/Kelsey Rd
160,43.152111,-76.931873,Wayne Center-Rose Rd/High St
216,43.023486,-77.038464,Jackson Hill Rd
185,43.091667,-76.867007,Glasgow St/Sodus St
160,43.240147,-77.066197,/Belden Ave
160,43.037122,-77.105108,Blossom Rd/West Ave
185,43.181149,-76.836222,Lasher Rd/Galen Rd
160,43.043872,-77.269735,Rider Ln/Turner Rd
276,43.058257,-77.244293,/Hyde Pkwy
216,43.046247,-76.988598,Sohn Alloway Rd/Westphal Pkwy
185,43.206957,-76.831360,State Rte 104
472,43.046870,-77.113234,W Union St
160,43.141513,-77.102180,/Fairville Maple Ridge Rd
185,43.220163,-77.003186,Trailer Park
160,43.154599,-77.186678,Palmyra Rd
160,43.128472,-77.308720,Laurel Ct
160,43.127680,-77.309991,Hidden Pond Ln/Goldenrod Ct
160,43.278806,-77.243020,White Birch Cove/Lake Rd
160,43.090357,-76.876410,/John St
160,43.210270,-76.992066,Bond Rd
418,43.084699,-76.876662,Reese St/Columbia St
185,43.139188,-77.281364,Orchard St/Walworth Penfield Rd
246,43.078374,-76.874614,Waterloo St
185,43.143927,-77.191081,/Buffalo St
185,43.063562,-77.319851,Westview Cir/Canandaigua Rd
216,43.041103,-77.101003,/Perkins Park Rd/Washington St
185,43.069107,-77.095572,Minsteed Rd/Whitings Corners Rd/Hydesville Rd
216,43.218691,-77.323380,Centennial Dr
605,43.228912,-77.062130,Mill St Exd
526,43.226832,-77.279909,Parking Lot/Ramp
185,43.234264,-77.186828,Lake Ave/Railroad Ave
160,43.273043,-76.980298,6th St
185,43.124697,-77.303265,Winterberry Ct/Wildflower Dr/Wood Sage Ter
185,43.031366,-77.078212,Marie Ave
305,43.045339,-77.108435,W Miller St/Edgett St
185,43.281495,-77.183612,Lake Rd
305,43.065451,-77.231236,Canal St/William St
160,43.076462,-77.324056,Marina Dr
185,43.233886,-77.059428,School St/High St
160,43.023514,-77.101845,Lincoln Rd
160,43.185300,-76.895808,Railroad Ave
160,43.234034,-77.184677,Pearsall St
160,43.096743,-77.294766,Ontario Center Rd/Scott Rd
160,43.076844,-76.865350,New St/Meadow St
185,43.137650,-77.272505,Walworth Palmyra Rd/Main St/Academy St
160,43.246160,-76.723605,Water St
185,43.230803,-77.196393,Whispering Woods Dr/Stillmeadow Way
160,43.237834,-77.071841,Orchard Park
579,43.221010,-76.815134,North St/Lake Ave
185,43.041992,-76.958668,Lyons-Marengo Rd/Stell Rd
160,43.044622,-77.069213,Eastland Valley Rd/Blue Cut Rd
390,43.044648,-77.079486,E Union St/Lyons St
160,43.234006,-76.728810,Manley Dr/Thompson Dr
246,43.084511,-76.861250,Davis Pkwy/Dezeng St E/Wayne Ave
185,43.293004,-76.858466,Dutch Street Rd
246,43.067884,-77.092538,State Hwy 88 N
160,43.025292,-76.914552,Lyons-Marengo Rd/Clyde-Marengo Rd
305,43.238313,-77.111177,State Rte 104/N Centenary Rd
185,43.043823,-77.087307,Hoffman St/Elm St
216,43.221379,-76.811412,Mill St
216,43.232742,-77.190985,State Rte 104/Bennett St Exd
160,43.059346,-77.274829,/Creek Rd
160,43.071825,-77.361167,East Ave/Wayneport Rd
305,43.129281,-77.342190,Autumn Wood Dr/Wood Hill Dr
499,43.232085,-77.187935,Cole St
246,43.225158,-77.314221,Ridge Rd/Alyssum Ln
185,43.232989,-77.096427,Ridge Rd/Trailer Park
160,43.068009,-77.214209,Walker Rd/N Creek Rd
216,43.270671,-77.006400,Trailer Park
160,43.229405,-76.922686,Bayshore Rd
160,43.263385,-76.993944,State Rte 14/Margaretta Rd
160,43.048018,-76.992506,/Gristmill Dr
185,43.215823,-76.812192,Butler St/Jefferson St
185,43.131667,-76.763076,S Butler Conquest Rd/Reed Dr
160,43.015554,-76.919270,Desmond Rd
362,43.226125,-77.346657,Lincoln Rd/State Rte 104
185,43.126869,-77.298537,Leeward Cir/Waterford Rd
216,43.056284,-76.993383,/Geneva St
160,43.101147,-76.761698,State Rte 89/Cotten Rd
526,43.226505,-77.282493,Stevens St/Furnace Rd
160,43.080659,-76.871960,/Mill St
216,43.151478,-76.877818,Main St/State Rte 414/Lakes Corners-Rose Valley Rd
216,43.036158,-77.079887,/Vienna St
216,43.126266,-77.345356,Gananda Pkwy
160,43.129289,-77.304942,Penny Royal Ct
160,43.269332,-76.832524,Clapper Rd/W Port Bay Rd
160,43.203150,-76.983180,State Rte 14
185,43.084983,-77.347372,Quaker Rd
968,43.065114,-76.986609,Canal St/Moran St
185,43.048595,-76.963728,Lyons-Marengo Rd
390,43.058597,-76.987683,Cross St/Shuler St
185,43.232408,-77.252095,Fisher Rd
216,43.222734,-76.821627,W Main St/West Ave
216,43.066555,-76.749460,Seneca St
160,43.095738,-77.372573,Macedon Center Rd/County Line Rd
160,43.212183,-76.871611,Wilson St/Wilson Street Rd
499,43.069462,-76.987620,Jackson St/Catherine St
160,43.064806,-77.228203,Canal St/Clinton St
216,43.030660,-77.079658,/Vienna Rd
216,43.066935,-77.037474,State Rte 31 E
160,43.123566,-77.306279,Waterford Rd
334,43.225415,-77.360533,State Rte 104
246,43.042182,-77.106831,Peirson Ave/Davis Dr
185,43.031488,-77.075561,/Marie Ave
216,43.039615,-77.105086,W Maple Ave/West Ave
246,43.052074,-77.101298,Driving Park Cir/Sunset Dr
216,43.222777,-77.186452,South Ave/Prospect St
160,43.219137,-77.003193,Trailer Park
160,43.225995,-77.208847,Fernaays St/Ridge Rd
160,43.284840,-76.821682,Finch Rd
362,43.059717,-76.991368,/Forgham St
160,43.112959,-76.756034,State Rte 89/Wilson Rd
160,43.185301,-76.894665,N Poplar St/Railroad Ave
216,43.054574,-77.072180,Old Lyons Rd
216,43.068640,-77.312986,Burwell Dr/Drumlin Dr
185,43.235442,-77.148063,State Rte 104
216,43.082262,-76.882008,Geneva St
185,43.061796,-76.996624,Leach Rd
276,43.062152,-77.227635,Prospect Dr
160,43.228999,-77.057697,Robinson Rd
160,43.280615,-77.174846,/Lake Rd
305,43.270021,-76.981682,Village Parking Lot
185,43.071386,-77.113360,/Hydesville Rd
216,43.032429,-77.094942,Caboor Ct/Woodside Dr
362,43.058114,-76.987836,Cross St/Elmer St
305,43.122829,-77.297224,Woodfield Dr
185,43.066652,-76.832259,Brown Rd/State Hwy 31
185,43.231269,-77.144796,E Townline Rd
216,43.076581,-77.081581,State Hwy 88 N
160,43.271149,-77.006777,Trailer Park
160,43.164078,-76.987684,State Rte 14/Limekiln Rd
160,43.059320,-77.277882,Alderman Rd/Creek Rd
160,43.263720,-77.112642,Van Lare Rd/N Centenary Rd
185,43.270785,-77.006570,Trailer Park
418,43.045565,-77.071929,Garfield St/Park Ave
246,43.066002,-76.992866,Broad St/Queen St
185,43.078284,-76.995471,Maple Street Rd/Maple St
160,43.127289,-77.233770,Sherwood Rd
216,43.035708,-77.099506,Grace Ave/Garden Ln
160,43.253578,-76.721393,Main St
246,43.127972,-77.030554,Mount Pleasant Rd/Layton Street Rd
246,43.131101,-77.372909,Gananda Pkwy/Walworth Penfield Rd
276,43.094855,-76.867389,Glasgow St/State Rte 414
185,43.074273,-77.234124,O Brien Ave/Bonnie Ln
334,43.063603,-77.231199,E Main St/William St/Cuyler St
160,43.221663,-77.286374,Ridge Rd
305,43.219862,-76.812539,Jefferson St/E Main St
418,43.063258,-76.991582,/Montezuma St
185,43.223698,-76.821131,Orchard St/Smith St
185,43.060304,-76.963626,Old Rte 31
216,43.063080,-77.020627,Dry Dock Rd
160,43.067729,-76.999923,Locust Hill Dr
185,43.183118,-77.354956,Plank Rd/Delfa Ln
631,43.219923,-76.815052,Park St/New Hartford St
216,43.217087,-76.805083,Auburn St
216,43.219553,-76.811603,Williams St/E Main St
216,43.047649,-77.259785,Magog Rd/Jordan Dr
160,43.181863,-77.081135,/State Hwy 88
216,43.271911,-76.981851,Bay St Exd/Wickham Blvd
305,43.125243,-77.349187,Smugglers Cove/Smugglers Cv
185,43.077830,-76.862449,Davis Pkwy/E Genesee St
445,43.045473,-77.104273,W Miller St/Nicholdy St
185,43.055812,-76.993020,/Geneva St Exd
246,43.030976,-77.079666,/Vienna Rd
185,43.068456,-76.991788,Bear St/Rice St
160,43.225495,-77.358956,State Rte 104
160,43.059207,-77.267693,/Creek Rd
185,43.268734,-76.979633,Field St
160,43.127372,-77.309960,Goldenrod Ct
334,43.130981,-77.355499,Scenic Way
160,43.064431,-77.341355,Pittsford-Palmyra Rd
160,43.224859,-76.828207,Ridge Rd
160,43.079895,-76.872464,Redfield St/Mill St/Geneva St
160,43.061279,-76.975799,Old Rte 31/Hill Rd
185,43.013128,-77.079059,Vienna Rd/Sweed Rd
276,43.122172,-77.309878,Vesper Ridge/Waterford Rd
246,43.292603,-76.836661,Loon Point Rd/W Port Bay Rd
160,43.127739,-77.307486,Hidden Pond Ln/Wildflower Dr
552,43.041140,-77.095774,Washington St/S Main St
160,43.061718,-76.773912,/Hogback Rd
185,43.033825,-77.104028,Woodhill
390,43.223406,-77.375298,County Line Rd
160,43.060609,-77.175363,Palmyra-Newark Rd
185,43.238924,-77.074335,Foley Dr
185,43.140389,-77.188951,Erotus Ave/Mill St
1537,43.046631,-77.095268,E Union St/S Main St/W Union St/N Main St
216,43.059697,-77.305899,Denise Dr/Paddy Ln
631,43.220005,-76.815058,Parking Lot/New Hartford St
216,43.064601,-76.996374,Church St/Butternut St
160,43.027235,-76.862044,Turnpike Rd/State Hwy 414
160,43.262795,-77.007988,Margaretta Rd
185,43.068613,-77.300700,W Main St/Center St
160,43.064758,-76.758798,State Hwy 31
216,43.216525,-76.817502,Draper St
216,43.248129,-76.723403,Church St
160,43.050974,-77.128800,State Hwy 31 W
185,43.064192,-76.760015,S Main St
216,43.079263,-76.868679,Meadow St
334,43.059965,-77.099709,Driving Park Ave
160,43.145868,-77.196338,Palmyra Rd/Buffalo St/Walworth Rd
246,43.128444,-77.344444,Westwood Trl
276,43.267503,-77.197532,Mystic Meadows Ln
526,43.063779,-76.983974,/Clyde Rd
160,43.181997,-76.762781,Spring Lake Rd
216,43.224181,-76.738270,State Rte 370
160,43.233359,-77.070457,Newark St/Elmwood Ave
160,43.041393,-76.862856,Malchoff Rd/State Hwy 414
160,43.056661,-76.764544,Wiley Rd
160,43.141415,-77.120384,Minsteed Rd
334,43.127675,-77.297384,Creekside Cir/Waterford Rd
160,43.269806,-76.986869,Village Parking Lot
160,43.215261,-77.247260,Rosemarie Ln
160,43.198305,-77.296270,Ontario Center Rd/Hennessey Rd
216,43.059835,-77.319768,Victor Rd/Canandaigua Rd
160,43.230948,-77.162959,Ridge Rd
160,43.295070,-76.841224,Willow Rd
362,43.082766,-76.872522,William St
185,43.203452,-76.900814,/Briggs Rd/State Rte 414
216,43.090858,-77.241252,/Macedon Center Rd
185,43.063423,-77.013187,Old Newark Lyons Rd
160,43.239706,-77.287724,Kenyon Rd
246,43.223252,-76.738173,State Rte 370/State Hwy 370
216,43.292809,-76.838254,W Port Bay Rd/Graves Point Rd
160,43.235967,-77.097015,/Fir Ln
160,43.175672,-77.274386,Walworth-Ontario Rd/Smith Hill Rd
185,43.142222,-77.186658,Union St/Maple Ave
334,43.067603,-76.757887,High St
185,43.034673,-77.356092,Wayneport Rd
1149,43.047036,-77.095277,/N Main St
185,43.060985,-77.238247,W Jackson St
160,43.257250,-76.865331,Richardson Rd/Dutch Street Rd
160,43.223615,-76.817988,Wright St/Smith St
160,43.235259,-77.097616,Dogwood Ln
185,43.062463,-77.317234,Parkwood Dr/Victor Rd
160,43.046416,-76.984874,Sohn Alloway Rd/San-Bar Ln
160,43.085966,-76.923334,State Hwy 31/High St
160,43.230165,-77.157322,Ridge Rd
160,43.128543,-77.305764,Nonesuch Ct
160,43.034078,-77.100463,Lucia St
160,43.226096,-77.344171,104/
160,43.188031,-76.913658,/Covell Rd
216,43.062308,-77.229596,Fayette St
276,43.044468,-77.101979,Moore St/Perkins Park Rd/Lillie St
305,43.057862,-76.993005,/Depew Ave/Geneva St
631,43.232888,-77.185859,State Rte 104
445,43.232925,-77.184747,Pearsall St/State Rte 104
305,43.067178,-76.987495,Holley St/Catherine St
160,43.191760,-76.894632,State Rte 414/N Main St
246,43.230631,-77.145880,Pearl St/Ridge Rd
160,43.031811,-77.076342,Marie Ave
160,43.067228,-77.218121,State Rte 21
472,43.087533,-76.865985,Parking Lot
160,43.218662,-77.321742,Centennial Dr
216,43.044245,-77.076102,Blue Cut Rd/Mill St
160,43.077774,-77.235432,Wheel-In-Circle Dr/Meadow Dr
216,43.275819,-77.276716,Park Ave Bear Harbor/Lake Rd
185,43.233153,-77.217960,Salmon Creek Rd
185,43.049645,-77.098806,Willow Ave/Bostwick St
499,43.039528,-77.089104,E Maple Ave/Colton Ave
160,43.237219,-77.324117,North Rd
276,43.064292,-77.315209,Victor Rd
160,43.061104,-76.978602,Forgham St
160,43.037940,-76.772482,Wiley Rd
246,43.123004,-77.320956,Gananda Pkwy/Canandaigua Rd
160,43.163020,-77.220474,Ridge Chapel Rd/Goosen Rd
160,43.294331,-76.823956,Starling Rd
185,43.234935,-76.835265,Hope Cir - Lane 5
160,43.241842,-77.066270,Belden Ave/Spring St
160,43.040859,-77.081224,Cuyler St
185,43.054302,-77.218414,Howell St
160,43.017729,-77.071188,Sweed Rd
216,43.226904,-77.328250,State Rte 104
160,43.067799,-77.217288,State Rte 21
160,43.215897,-76.810845,Butler St/Williams St
160,43.065286,-77.181661,Galloway Rd//Palmyra-Newark Rd
276,43.258787,-76.991554,Hillside Dr/Overlook Dr
246,43.234671,-76.836576,Hope Cir - Lane 4
216,43.087752,-77.029420,/Brandt Rd
160,43.237351,-76.712508,Coolican Rd
160,43.128061,-77.353373,Gananda Pkwy/W Walworth Rd
185,43.064387,-77.095483,Welcher Rd/State Hwy 88 N
216,43.235308,-77.172003,Pound Rd
160,43.257461,-76.989586,Bay View Dr/Central Ave
160,43.020928,-77.086089,Silver Hill Rd
185,43.228066,-77.029546,Ridge Rd/Trailer Park
160,43.253350,-76.947760,Sunrise Dr/Eagle 15 Bayview Dr
276,43.084818,-76.856120,Dezeng St E/
185,43.047138,-77.080603,Old Lyons Rd/O Brien Rd
334,43.038503,-77.071881,Marbletown Rd
246,43.123113,-77.297205,Woodfield Dr
445,43.063417,-76.987399,Scott St
160,43.127564,-77.302718,Wildflower Dr/Springbeauty Cres
305,43.037062,-77.092244,Wilson St/East Ave
216,43.065268,-77.366574,Macedon Pkwy
160,43.040955,-77.164647,Old Rte 31
160,43.224514,-77.344909,/Ridge Rd
160,43.070840,-77.184699,Hogback Hill Rd
160,43.083486,-76.932622,State Hwy 31
185,43.067152,-76.827522,State Hwy 31/Daboll Rd
160,43.259618,-77.276849,Byron Cir
445,43.064337,-77.371734,Pittsford-Palmyra Rd
160,43.231241,-77.252080,Fisher Rd
160,43.027056,-77.129466,/Pardy Smith Rd
160,43.214278,-76.957944,Ridge Rd
334,43.033414,-77.094971,/Woodside Dr
216,43.140630,-77.186779,Erotus Ave/Union St
445,43.086677,-76.869932,Dezeng St W/Sodus St
246,43.208726,-77.300971,Ontario Center Rd/Paddy Ln
160,43.224327,-76.874767,/Ridge Rd
160,43.113289,-77.131899,Hyman Rd/Sand Hill Rd
185,43.235132,-77.059337,Orchard Ter/High St
246,43.129487,-77.300014,Leeward Cir
160,43.130136,-76.985267,State Rte 14
185,43.127286,-77.312218,Hiddenpond Ln
276,43.272425,-76.976776,Wickham Blvd/2nd St
160,43.240938,-77.283817,/Brookway Cres/Stonehedge Dr
160,43.249668,-77.000610,Sergeant Rd
216,43.060872,-77.098531,/Peirson St
305,43.013238,-77.078087,/Sweed Rd
276,43.059990,-77.238079,Wayne County Fairgrounds
185,43.224769,-77.187630,Circle Dr
185,43.071447,-76.993464,Orchard St/Rice St
185,43.038877,-77.106614,Peirson Ave/Newton St
418,43.062079,-77.224265,Throop St/Vienna St
160,43.110378,-76.985602,State Rte 14
185,43.104928,-76.762566,Cotten Rd
185,43.059778,-77.309326,Paddy Ln
185,43.068754,-77.304133,Bickford St/West St
216,43.231298,-77.110951,Ridge Rd/S Centenary Rd/N Centenary Rd
160,43.040763,-77.143908,Gurnee Rd/State Hwy 31 W
160,43.233639,-76.836532,Hope Cir - Lane 2
185,43.032871,-76.748213,/State Rte 31
276,43.043554,-77.076157,Mill St
762,43.046492,-77.097796,Mason St/W Union St
160,43.193961,-77.305828,/Fosdick Rd
185,43.177055,-76.987199,Champlin Rd/State Rte 14
185,43.052990,-77.127481,W Shore Blvd/Whitbeck Rd
216,43.054542,-77.233546,Canandaigua Rd
305,43.043500,-77.111329,Plaza Rd
185,43.074915,-77.361268,Wayneport Rd
276,43.021230,-77.079278,Vienna Rd/Silver Hill Rd
216,43.064313,-77.366597,Pittsford-Palmyra Rd/Macedon Pkwy
160,43.146420,-77.362979,Stalker Rd
185,43.239719,-77.286367,Kenyon Rd/Knickerbocker Rd
160,43.153878,-76.878363,/State Rte 414
160,43.140699,-77.248133,Hall Center Rd/Maple Ave/Walworth Rd
276,43.064447,-77.325282,Pittsford-Palmyra Rd/Commons Pkwy
246,43.013751,-77.076206,Sweed Rd
185,43.224983,-77.022055,Ridge Rd/Barclay Rd
160,43.023499,-77.101739,Lincoln Rd
472,43.038686,-77.089755,Bailey Ln/Highland Ave
246,43.072563,-77.315293,/Kemp Dr
185,43.219818,-77.006966,Ridge Rd/Sady Ln
246,43.089609,-76.870136,Lock St
160,43.262683,-77.059592,/Lake Ave
160,43.278982,-76.834424,/W Port Bay Rd
305,43.064454,-77.329192,Brixton Dr/Pittsford-Palmyra Rd
216,43.275831,-77.184421,Hamilton St
160,43.023511,-77.101920,Lincoln Rd
216,43.038684,-77.092297,Bailey Ln/East Ave
185,43.060976,-77.240121,W Jackson St/Tremont St
160,43.090855,-77.242048,Macedon Center Rd
445,43.045517,-77.084039,/E Union St
160,43.308756,-76.740290,Livingston Rd/Kakat Rd
185,43.031754,-77.075713,Marie Ave
276,43.225556,-77.270253,Jonathan Ln/Macintosh Rd
305,43.280464,-77.184809,Lake Rd
216,43.057731,-77.233421,Canandaigua St
160,43.039600,-77.102591,/W Maple Ave
185,43.076457,-77.361324,Wayneport Rd
185,43.157234,-76.878631,State Rte 414
185,43.233111,-77.096457,Ridge Rd/Trailer Park
216,43.083729,-76.873536,Columbia St/Lock St
684,43.049799,-77.095342,Willow Ave/N Main St
216,43.069529,-76.985906,Spencer St/Jackson St
216,43.064427,-77.350987,N Wilson Rd/Pittsford-Palmyra Rd/Wilson Rd
185,43.058864,-77.242939,Aldrich Dr
362,43.222355,-76.820422,Leavenworth Ave/W Main St
305,43.094855,-76.744560,Mead Rd/Carncross Rd
305,43.122863,-77.293839,Locust Cir
276,43.227409,-77.293229,State Rte 104
160,43.280456,-76.758297,/Kyle Rd
185,43.068129,-77.214400,/N Creek Rd
216,43.217997,-76.993469,/Birchwood Ln
160,43.064852,-76.758752,State Hwy 31
160,43.161119,-77.101552,Fairville Maple Ridge Rd/Austin Rd
185,43.268776,-76.977908,Greig St/Clover St
160,43.247369,-76.941048,Passe Rd/Sunset View Rd/Sunset View Trl
334,43.060664,-76.992117,/Geneva St
160,43.225648,-77.210016,Sunset Ln/Ridge Rd
418,43.218546,-76.814929,Washington St/New Hartford St
305,43.143020,-77.189157,S Main St/Maple Ave
185,43.066033,-76.980477,Manhattan St
160,43.258074,-76.845747,Richardson Rd/Clapper Rd
185,43.144797,-77.187391,Union St/N Main St
185,43.062939,-77.304340,Brookview Dr/Trapbrook Dr
246,43.149966,-77.187384,Park Ave
246,43.239241,-77.093278,Pratt Rd/Hill Rd/State Rte 104
276,43.056036,-77.233474,Canandaigua St/Canandaigua Rd
185,43.084331,-76.878869,Sibley St
160,43.163321,-76.988026,State Rte 14
160,43.160308,-77.119988,Minsteed Rd
185,43.088597,-77.040115,Bauer Van Wickle Rd
216,43.153195,-77.182551,N Main St
216,43.060689,-77.211543,State Rte 31
160,43.126735,-76.870420,State Rte 414
160,43.123526,-77.316596,Fairway 6
390,43.063513,-77.240159,W Main St
185,43.046593,-77.346992,Lexington Dr/Wilson Rd
334,43.128215,-77.355228,Gananda Pkwy
160,43.092987,-77.208137,Marion Rd
185,43.260478,-77.286834,/Knickerbocker Rd
185,43.218335,-77.002755,Ridge Rd/Boyd Rd
246,43.203635,-76.952239,State Rte 104
160,43.080954,-76.828591,Daboll Rd
160,43.062459,-77.320171,Brixton Dr
160,43.034702,-77.314522,Canandaigua Rd
185,43.063493,-77.012845,Water St/Old Newark Lyons Rd
216,43.062864,-77.095303,N Main St
552,43.046106,-77.085622,E Union St/E Miller St
160,43.022979,-76.744173,State Rte 31
246,43.125238,-77.349530,Smugglers Cv
362,43.055646,-77.233490,Canandaigua Rd
216,43.232733,-77.217481,State Rte 104
160,43.301949,-76.843113,/W Port Bay Rd
246,43.224994,-77.364631,104/Dean Beh Pkwy
160,43.183813,-76.891643,S Main St/Maple Ave
160,43.271940,-76.981083,Wickham Blvd/7th St
160,43.042187,-77.098685,Jefferson St/Madison St
216,43.061222,-77.098537,Peirson St/Candy Apple Ln
160,43.115445,-77.105078,Minsteed Rd
160,43.161853,-76.835266,Armstrong Rd/Galen Rd
216,43.223021,-77.283035,Browns Sq/Furnace Rd
246,43.051361,-77.100967,Driving Park Cir/Stuart Ave/Osborn St
305,43.076823,-76.868551,Cayuga St
160,43.025290,-76.914641,Lyons-Marengo Rd
499,43.062427,-76.994098,Water St/Congress St
160,43.039926,-77.134335,Bailey Rd/Turner Rd
579,43.064854,-76.984654,Spencer St
160,43.046427,-77.071750,Park Ave
305,43.120989,-77.312353,Waterford Rd/Fairway 5
605,43.084334,-76.875113,Columbia St/Elm St
216,43.050706,-77.006604,Bauer Rd/Leach Rd
605,43.046297,-77.104297,W Union St/Nicholdy St
246,43.065868,-77.024688,3rd St/Old Newark Lyons Rd
185,43.068223,-76.802655,Merrigan Rd/Lane Way/W Church St
216,43.235877,-77.120582,Airport Driveway
216,43.043965,-77.081704,Church St
185,43.062452,-77.319838,Brixton Dr/Canandaigua Rd
185,43.073595,-77.235930,Betty Brae Way/Maple Ave
216,43.070906,-76.790494,W Church St
160,43.087215,-76.855357,Welch Rd
160,43.068738,-77.229614,Quaker Rd
216,43.264854,-77.024952,Lake Rd
185,43.060984,-77.238409,/W Jackson St
160,43.095962,-77.367199,Macedon Center Rd
390,43.228366,-77.062912,Mill St Exd
160,43.127886,-77.292627,Ontario Center Rd
305,43.189424,-76.894130,Glenmark Rd/Clinton Ave/N Main St
216,43.151217,-76.877659,State Rte 414/Valley Dr
160,43.221847,-76.935776,Spiegel Dr/Ridge Rd
684,43.044115,-77.092469,East Ave
362,43.067275,-76.985011,Mirick Pl/Holley St
185,43.211282,-76.800867,/Auburn St
160,43.272962,-76.981129,7th St
160,43.135062,-77.356923,Walworth Penfield Rd
246,43.239536,-77.093306,Pratt Rd
185,43.242106,-77.282692,Woodgate Dr/Stonehedge Dr
216,43.065243,-77.023902,/Old Newark Lyons Rd
276,43.066173,-77.023933,/3rd St
160,43.272267,-77.097079,Tunley Rd/Lake Rd
160,43.224007,-76.739369,/State Rte 370
185,43.058388,-77.239925,/Rv Campsites
160,43.081381,-76.828612,Noble Rd/Daboll Rd
