Estimated daily crossings,Latitude,Longitude,Name
216,43.065448,-83.759023,Dolan Dr/Chalet Ct
160,43.191838,-83.789911,Country Club Dr/W Farrand Rd
160,42.964668,-83.766924,Linden Creek Pkwy
160,43.086758,-83.557778,Irish Rd
418,42.921909,-83.637974,Schram St/E Grand Blanc Rd
305,42.943814,-83.712944,I- 75
160,43.121118,-83.665917,McGregor St/Selkirk Dr
334,43.025070,-83.496345,Chestnut Ct
305,42.963945,-83.821696,Latifee Ct/Crosscreek Dr
216,43.028343,-83.701225,Detroit St/11th Ave
185,42.943043,-83.656493,Northdale Dr/Westdale Dr
362,42.953688,-83.849116,Oakview Dr/Winston Dr/Chelmsford Dr
499,42.940342,-83.684011,Pebbleshire Cir/Pebbleshire Dr
1071,43.009708,-83.540859,Charter Oaks Dr
362,43.092114,-83.705017,/Camellia Dr
334,42.997708,-83.800983,Roslyn Ave/Roland Ave
305,43.005512,-83.717044,Reid St/Downey St
246,42.998844,-83.556551,Wicklow S Dr
362,43.065792,-83.698865,E Gracelawn Ave/Summit St
185,43.051117,-83.630741,Richfield Rd/Houser St
334,42.987390,-83.712104,Park Forest Dr
216,42.923680,-83.582404,Patricia Dr/White Tail Dr
246,43.089476,-83.701540,Harvard St/W Kurtz Ave
160,42.960469,-83.705724,Peachwood Dr/Old Carriage Rd
216,43.067094,-83.833086,Chestnut St
445,43.060973,-83.707107,W Pierson Rd/Willis St
418,42.995520,-83.677132,I- 475
185,43.026417,-83.667578,Kansas Ave/Minnesota Ave
185,43.083493,-83.686075,E Cornell Ave/I- 475
246,43.192114,-83.724273,Farr Dr
160,42.958482,-83.754574,W Maple Ave
1226,42.893197,-83.632107,Holly Rd
160,43.064865,-83.750754,Oconner Rd/Sherman Ave
579,43.013886,-83.731561,Sherwood Dr/Edgemont Ave
334,43.000501,-83.786966,Kenwood Dr/Devon Ct
160,43.221658,-83.674503,Willard Rd
216,43.052706,-83.838590,Misty Morning Dr
362,43.023474,-83.689788,Industrial Ave
305,43.178487,-83.884973,Alfred St/Nanita Dr
362,43.020821,-83.576849,Deere Ct/Century Ln
185,42.990998,-83.526236,E Atherton Rd/Atlas Rd
418,42.918206,-83.682489,Winding Ridge Dr
185,42.940172,-83.504831,S State Rd/Perry Rd
185,42.788977,-83.782991,Red Fox Trl/Owen Rd
276,43.041035,-83.839233,Lost Creek Dr/Lost Creek Ct
499,42.975322,-83.774323,Miller Rd
526,43.032433,-83.730474,Concord St/Winona St
160,42.874195,-83.595350,/Dixie Hwy
246,42.925447,-83.702144,Windwood Ln/Windbury Ln
499,42.992403,-83.744372,Nerredia St
160,43.041584,-83.693860,N Saginaw Rd/E Dartmouth St
390,42.865045,-83.739543,US Hwy 23
305,43.003008,-83.716503,Brown St/Downey St
305,43.060409,-83.787699,W Pierson Rd
216,43.155280,-83.658603,/N Bray Rd
185,43.024570,-83.576503,Sparrow Ct/Peach Blossom Cir
445,43.017165,-83.748985,Gilbert St/Beecher Rd
526,42.974353,-83.676390,Morrison St/E Bristol Rd
334,43.041542,-83.716146,W Jackson Ave/N Chevrolet Ave
216,43.010840,-83.601302,Lapeer Rd/Glendale Ave
246,42.810030,-83.741402,Lakeview Dr/Ponemah Dr
276,43.099561,-83.705297,I- 475
334,42.999783,-83.750111,Corbin Dr/Hoover Rd
246,42.924563,-83.650940,Tri Park Dr/S Dort Hwy
185,42.942060,-83.695471,Alton Rd/Otto St
216,42.813804,-83.713073,Swanee Beach Dr/Appletree Ln
216,43.074716,-83.657298,Ridgecrest Dr
185,43.079732,-83.683382,Horton St/E Downey Ave
362,42.923717,-83.688643,Thornridge Dr
160,42.952397,-83.680986,Rochford Sq/Ann Boleyn Ln
185,42.999153,-83.819859,Suzanne Dr/Winthrop Dr
579,42.984969,-83.733646,/I- 75
185,42.807487,-83.701680,E Oak Dr
276,42.907951,-83.621170,Butternut Ln
305,43.066227,-83.852645,E Henry St/McKinley Rd
185,42.910760,-83.702717,Loon Ln
246,42.998389,-83.728173,Knapp Ave/Herrick St
216,43.061299,-83.682478,E Pierson Rd/Horton Ave
362,43.087162,-83.717182,Farmhill Rd
390,43.098623,-83.694246,/N Saginaw Rd
362,42.965557,-83.607506,Concordia Dr/Meadows Ave
185,43.050879,-83.835723,Bending Brook Dr/Misty Morning Dr
472,43.006616,-83.524751,Crystal Pond Dr/Meadowview Dr
891,43.020256,-83.692298,Harrison St
305,42.966109,-83.850618,S Seymour Rd
305,43.052510,-83.606983,Lynne Ave/Richfield Rd
246,43.007468,-83.652986,Kent St
1123,43.010745,-83.654267,S Dort Hwy
276,42.971795,-83.696160,W Bergin Ave/Otto St
246,43.002386,-83.710417,Boston Ave/Miller Rd
160,42.790833,-83.767030,Island View Dr
246,42.977723,-83.626049,Creekside Blvd/Pine Ridge
216,43.043925,-83.707900,Mason St/W McClellan St
185,42.994967,-83.762319,Dutcher Rd
390,43.092472,-83.717200,Bermuda Ln/O Brien Rd
305,42.987584,-83.698078,Berrywood Ln/Campbell St/Hargott Ave
185,43.024895,-83.576647,Goldenrod Ct/Peach Blossom Cir
334,43.013123,-83.488236,S Cummings Rd
185,42.996998,-83.728061,Knapp Ave/Chicago Blvd
418,42.932351,-83.635852,S Saginaw Rd
1798,43.025807,-83.680184,/Nb Chavez Dr
160,42.963547,-83.715415,Gerard St/Kentwood Ave
160,43.186049,-83.814202,Elms Rd
216,43.006824,-83.795973,Lancaster Dr/Danbury Dr
246,43.024474,-83.697206,Louisa St/Ave A
276,42.962995,-83.662427,Kosta Ave
445,43.060833,-83.520722,Maplewood Ct
185,43.034033,-83.680948,Stever Ave/Davison Rd
499,42.804976,-83.738099,O'Shea Ct
334,43.056032,-83.732157,Wisner St/Greenlawn Dr
160,43.092464,-83.674652,E Coldwater Rd/N Dort Hwy
246,43.051123,-83.628335,/Richfield Rd
185,43.003435,-83.730271,Mann Ave/Fielding St
390,42.960088,-83.781464,Dye Rd/Sagamore Dr
362,42.998328,-83.723207,Clara Ave/Brandon St
216,43.078327,-83.817334,Carpenter Rd/Pleasant Dr
390,43.069025,-83.519019,Orchard Lake Dr/Orchard Ct
185,43.003539,-83.683839,/S Grand Traverse St
246,43.038095,-83.601724,S Sycamore Ave/Sycamore Cir/N Sycamore St
246,43.024700,-83.739846,Joy St/Burnell Ave
276,43.015359,-83.476368,I- 69
185,43.181198,-83.710790,Carpathian Way/Innsbruck Pl
216,43.036047,-83.714548,W Hamilton Ave/Mount Elliott Ave
305,43.056633,-83.732990,Clio Rd
1046,43.016886,-83.693616,Beach St/W Union St
160,42.882363,-83.581942,Golfside Dr/Hillview Ct
160,43.083466,-83.810417,Chicago Rd
216,43.027609,-83.537514,Airport Dr/N Gale Rd
160,42.934757,-83.726353,Mc Kenzie Dr
472,43.121024,-83.689921,Walter St/Maginn Ct
246,42.915991,-83.677026,Hunters Run Dr
185,42.986522,-83.520865,Creekview Dr/Rivershyre Pkwy
216,43.041067,-83.696562,E Jackson Ave/Ave A
605,42.985208,-83.683062,Clinton St/S Grand Traverse St
160,43.069962,-83.650805,/Branch Rd
276,42.805124,-83.726844,US Hwy 23
334,43.178298,-83.736663,Griffes St/Center St
246,42.984144,-83.668925,Pengelly Rd/Bede St
216,43.070636,-83.724565,Belltree Ln/Bellcreek Dr
472,42.964778,-83.801545,I- 69
1278,43.027345,-83.517900,S State Rd/W South St/E South St
160,43.116935,-83.615338,/Green Arbor Dr
305,43.074762,-83.682470,E Bundy Ave
246,43.124974,-83.682502,Rae St
305,43.018123,-83.698901,N Grand Traverse St/W 2nd Ave
246,43.053837,-83.728759,W Stewart Ave/Winona St
526,42.995368,-83.693090,Bloor Ave/Fenton Rd
185,42.901704,-83.610801,E Cook Rd
334,43.033135,-83.735369,Clement St/Wabash Ave
160,42.817626,-83.763927,Webster Dr/Edison Blvd
216,43.019499,-83.520300,Jamie Dr/S Dayton St
865,43.002306,-83.645244,Trout Dr/Devon Ln
216,43.130997,-83.613690,Camelot Vila Mobile Home Park/Coventry Blvd
246,43.075253,-83.616736,Roberts Dr/N Genesee Rd
362,43.050439,-83.720510,Sterling St/W Myrtle Ave
216,43.015635,-83.724075,Weller St/Nolen Dr
185,43.071719,-83.582535,Bobwhite Dr/Tamara Dr
216,43.118864,-83.620978,Roger Thomas Dr
305,43.031247,-83.703677,Detroit St/Oren Ave/Martin L King Ave/Welch Blvd
418,42.963683,-83.816632,Russell Dr
246,43.184158,-83.493896,Mosher Rd
631,43.174141,-83.758656,Wicker Ct
276,43.006153,-83.704724,Crescent Dr/Miller Rd
216,43.047152,-83.734920,Maywood St
185,42.806682,-83.801098,Meadow Ln
362,42.941341,-83.691976,Kingston Ave/Fenton Rd
216,42.815881,-83.773132,Olde Mille Pointe/Tickner St
246,43.014094,-83.534278,Chatwell Club Ln
710,42.931912,-83.633347,McFarland St/Walker St
968,43.018369,-83.694340,Garland St/Beach St
334,42.792409,-83.709475,W Elizabeth St/Henry St
185,43.047404,-83.576551,N Vassar Rd
160,42.934132,-83.455792,Coolidge Rd/E County Line
160,43.003284,-83.667886,Aitken Ave/Lippincott Blvd
445,43.030445,-83.743674,Drummond Sq
216,43.096219,-83.733754,Clio Rd/I- 475
160,42.963793,-83.687657,Lawnwood Ct/Lawnwood Ln
472,43.003846,-83.735919,Blackington Ave/Wellman St
334,42.961416,-83.850522,S Seymour Rd/Kingsley
216,43.113163,-83.617580,Susan Dr/N Genesee Rd
160,43.191341,-83.864614,W Farrand Rd/McKinley Rd
246,42.933826,-83.602854,Kings Charter Rd/Kings Bridge Rd
160,42.881963,-83.600355,Carl Steiner Dr
276,43.057877,-83.717763,W Baltimore Blvd/Winthrop Blvd
216,42.989429,-83.639111,E Atherton Rd/Thread Creek Blvd
658,43.000420,-83.748819,Brown St
276,42.929734,-83.668075,E Reid Rd/Anna St
246,43.065814,-83.693903,N Saginaw Rd/E Gracelawn Ave
305,42.856162,-83.716349,Bowles St/Brown St
160,42.960843,-83.662547,Heilman St
276,43.074578,-83.713927,W Bundy Ave/Dupont St
276,43.068994,-83.514220,Pierce Ct
334,42.975806,-83.802185,Heritage Blvd
160,42.828045,-83.755818,Judith Ct
684,43.020211,-83.748392,/Rue Foret/River Point Dr
362,42.959041,-83.666281,S Saginaw Rd/Lincoln Manor Dr
472,43.176295,-83.894314,/N Genesee St
216,43.079766,-83.678115,E Downey Ave/Inland St
185,42.788306,-83.798384,Lobdell Rd
185,43.029569,-83.637759,Palmer Ave/North Virginia Ave
160,42.941513,-83.592147,Pine Creek Ct
334,42.914662,-83.730529,W Grand Blanc Rd/Torrey Rd
445,43.027279,-83.520012,W South St
185,43.084437,-83.713930,W Yale Ave
305,43.170664,-83.758504,Grand Oaks Dr/Barker Dr
445,43.032309,-83.644747,Dixon St
305,43.013189,-83.694830,South Dr/East Dr
445,43.088782,-83.714196,Daron Pl
276,43.039036,-83.665221,New York Ave/N Franklin Ave
185,43.133911,-83.773993,W Frances Rd
246,43.065369,-83.826104,Bellewood Dr/Hillwood Ct
390,42.926097,-83.636472,Union St/West St
276,42.904334,-83.610905,Old Plank Rd/Territorial Rd
246,43.168055,-83.520031,E Main St/Main St/Center St
305,43.007480,-83.716077,Kummer St/Bartlett Pl
185,42.810198,-83.788864,Hyatt Ln
2114,43.000362,-83.770676,/Lincoln Pkwy
216,43.063218,-83.745752,Hunter Rd/Lyndon Ave
472,42.797834,-83.695000,Orchard St/Main St
684,43.018224,-83.670454,E Court St/Gorman Dr
334,43.083247,-83.607172,Kathy Dr/Rose Ln
418,42.958995,-83.590931,Maple Trl/High Oaks Trl
418,42.993287,-83.527554,Crossings Cir/Copper Ridge Dr
362,43.106232,-83.704959,Rosewood Dr
276,43.174765,-83.744509,Pine St
305,43.038666,-83.707774,Mason St/W Dayton St
276,42.984530,-83.633496,S Center Rd
185,42.839668,-83.896022,Lahring Rd
445,43.065908,-83.682638,I- 475/Horton Ave
246,43.103178,-83.928850,W Stanley Rd/Sheridan Rd
276,43.005722,-83.720819,Zimmerman St/Farnum Ave
216,42.985149,-83.559649,Kessling St
216,42.938973,-83.785046,Lambton Ct
185,43.064611,-83.798561,Kelly Ct
390,42.789701,-83.720018,Whisperwood Dr/Wisperwood Trl
579,42.949570,-83.679883,Plymouth Ave/Rollins St
185,42.891104,-83.692603,Overlook Ct
605,42.786242,-83.743034,Post Branch/Iron Ridge
499,43.004904,-83.679703,W 13th St/S Saginaw St
216,43.080471,-83.733550,W Cass Ave/Clio Rd
216,43.125024,-83.928965,Sheridan Rd
160,43.067379,-83.821964,Coutant St
305,43.034142,-83.672555,Broadway Blvd/Olive Ave
305,42.896569,-83.666361,Larch Ct
246,42.917928,-83.605415,Wilkshire Ct
160,43.063483,-83.654011,Tiptree Path
160,43.012054,-83.782892,/S Dye Rd
160,43.013624,-83.727837,Ferndale Pl/Sunset Dr
216,42.794298,-83.838749,Silver Lake Rd/Softwater Lake Dr
160,43.097058,-83.814566,Thorny Creek Dr
185,43.178991,-83.653563,/E Vienna Rd
216,42.980438,-83.625663,Creekside Blvd/Sparrow
246,43.008652,-83.597323,Alberta Ave/Roberta St
334,42.914970,-83.708733,W Grand Blanc Rd/Laguna Ln
185,42.926332,-83.587620,Lismore Cir/Glen View Ln
160,43.031881,-83.805053,Royal Club Dr
185,43.003658,-83.729311,Stocker Ave/Fielding St
185,42.788577,-83.811615,Waterview Ln
246,43.019041,-83.520333,N Parkwood Dr/S Dayton St
246,42.886301,-83.694200,Fenhill Dr
472,43.047891,-83.705801,W Gillespie Ave/Cassius St
276,43.183327,-83.888317,North St/Ray St
185,43.073097,-83.698961,E Alma Ave/Summit St
185,43.195291,-83.776162,Village Ct
334,43.003581,-83.576331,Hidden Trl/Wood Creek
334,42.967682,-83.818745,Birch Ln/Parkridge Pkwy
160,43.103954,-83.773644,N Linden Rd
276,43.025586,-83.721275,Milbourne Ave/Wolcott St
185,42.796600,-83.692824,Howard
216,43.071025,-83.850950,Hamm Ln
160,42.997312,-83.650607,Beech Dr/Elm Dr
1226,43.050784,-83.654325,Douglas Ave/Richfield Rd
276,43.032772,-83.589535,Eastmoreland Dr/N Genevieve St
185,42.903026,-83.502153,Dar Ln
276,42.791020,-83.689331,Howard St/Water View Ln/Eagle Dr
499,43.020369,-83.723497,Marquette St/Tiffin St
160,42.912081,-83.928546,W Grand Blanc Rd/Sheridan Rd
445,43.119753,-83.677387,E Mt Morris Rd/Lewis Rd
305,42.804978,-83.710165,N Adelaide St/North Rd
276,42.954326,-83.682442,I- 475
160,43.173022,-83.712206,Oak St/Liberty St
216,42.923878,-83.582117,White Tail Dr
185,43.060099,-83.651863,Gamma Ln/Delta Dr
390,43.029399,-83.667649,Minnesota Ave/Pennsylvania Ave
160,42.854146,-83.847278,Smith Rd/Seymour Rd
160,43.030058,-83.589487,Hugh St/N Genevieve St
631,43.007780,-83.639370,Kent St
185,43.007036,-83.517251,Griffin Rd
305,42.989117,-83.657946,E Atherton Rd/Cherokee Ave
579,43.018037,-83.680409,Thomson St/E Third St
684,42.944127,-83.606919,Fountain Pointe
160,43.119415,-83.700530,W Mount Morris St/Howell Ave
246,42.984400,-83.801004,Brass Ring Ct/Blue Grass Ln
334,43.029187,-83.722533,Clement St/Forest Hill Ave
1511,43.022137,-83.672175,Albert R Horrigan Dr
276,42.982922,-83.690342,Brunswick Ave/Major St
362,43.023160,-83.634991,S Center Rd
160,43.015348,-83.704964,Ray St/Stevenson St
216,43.039460,-83.701168,Alexander St/E Baker St
160,42.929914,-83.586915,Glen View Ln/Iris Ln
684,43.006872,-83.710829,Corunna Rd/Pershing St/W Court St
390,42.808401,-83.751651,Heritage Ln
160,42.966761,-83.697760,W Judd Rd
160,43.061980,-83.684441,Selby St/Fairfax St
216,43.059674,-83.867547,W Pierson Rd
865,43.029894,-83.677856,East St/Benson Ave
216,43.084248,-83.613359,E Carpenter Rd
526,42.914730,-83.726139,US Hwy 23/W Grand Blanc Rd
305,43.120129,-83.669989,Clydesdale St/Loch Loma Dr
305,43.001764,-83.792703,Corunna Rd
160,43.046111,-83.750662,W Pasadena Ave/Murphy Rd
185,43.019836,-83.662117,Windemere Ave/Roome Ct
216,43.066531,-83.759873,Cascade Ct
185,43.037182,-83.692063,Warren St
185,42.925749,-83.770122,Regency Rd
579,42.966244,-83.725614,I- 75
160,43.023361,-83.494563,Devinwood Ct
445,43.176244,-83.889199,Lincoln/E State St
160,43.096550,-83.499009,N Oak Rd
305,42.982877,-83.692912,Fenton Rd/Major St
160,42.914068,-83.658227,Stone Ridge Dr
185,42.784801,-83.843168,Locke Dr
246,42.786031,-83.757808,Fountain View Ct/Oak Tree Ct
390,43.028195,-83.729617,N Ballenger Hwy/Wolcott St
246,42.841064,-83.730894,/Lahring Rd
472,42.965099,-83.602510,Maplewood Meadows Ave/Great Oaks Dr
216,43.202369,-83.520241,N State Rd
185,42.782186,-83.818714,Selma Dr
216,43.051474,-83.838391,Misty Morning Dr
276,42.970812,-83.669122,Barnes Ave/E Scottwood Ave
185,42.782194,-83.750012,Bennett Lk Rd/Bennett Lake Rd
246,42.929240,-83.910165,Duffield Rd
305,42.975052,-83.755449,Market Pl
526,43.002918,-83.558415,Wicklow North Dr/Ashford Dr
334,43.005354,-83.740674,Mann Hall Ave/Meida St
216,43.021188,-83.662214,Roome Ct/Sherff Pl
246,42.951846,-83.596906,Country Wood Ln/Country Rose Ln
246,43.063982,-83.722518,W Mott Ave/Kermit St
552,42.953122,-83.863228,Woodstock Dr/Walden Dr
160,42.947887,-83.477779,Hill Rd
185,43.008650,-83.619266,Springfield St
499,43.062360,-83.827480,Flushing Rd/E Main St/Bellewood Dr
710,43.006847,-83.772802,Linden Rd/W Court St
362,43.038497,-83.733219,W Dayton St
185,43.198215,-83.931301,Sheridan Rd
246,42.984280,-83.663622,Menton Ave/Dell Ave
160,42.970462,-83.690383,12th/E Scottwood Ave
472,43.148255,-83.771172,W Dodge Rd
160,42.949854,-83.653883,Rosemary St
472,42.921303,-83.603017,Wellington Dr/Morningside Dr
334,43.084047,-83.696623,Fulton St/N Cornell Ave
710,42.789942,-83.725933,S Fenway Dr/Owen Rd
246,43.059654,-83.869993,W Pierson Rd/Ambleside Dr
334,42.932606,-83.574107,Vassar Rd/Perry Rd
160,42.798758,-83.820816,Lobdell Rd
185,43.065609,-83.738375,Gracelawn Ave/Orgould St
362,42.973475,-83.727001,/W Bristol Rd
445,43.008778,-83.676754,Liberty St/Kennelworth Ave
160,42.883810,-83.876223,/Baldwin Rd
418,43.186354,-83.782527,Sequoia Ln/Sequoia Dr
160,43.025796,-83.672221,Kearsley Park Blvd
246,43.063603,-83.680484,I- 475
160,43.067363,-83.650926,Branch Rd/Hampstead Dr
334,42.954574,-83.869974,Elaine Dr/Farmtree Rd
418,43.003853,-83.738685,Tacken St/Blackington Ave
276,43.008215,-83.793618,Lancaster Dr/Trenton Dr
246,43.169068,-83.519990,Grove St/Center St
160,43.005176,-83.801885,W Court St/Yorktown Dr
276,42.782270,-83.746057,Bennett Lake Rd/S Jennings Rd
276,43.017269,-83.722171,Dougherty Pl/Monteith St
185,42.962356,-83.591809,Hedgerow Cir S/Westedge Way
160,43.202635,-83.660897,N Bray Rd/Marjorie Ln
1046,42.944588,-83.650564,S Saginaw Rd/E Hill Rd
362,42.810085,-83.712059,Meadow Pointe Ct/Meadow Pointe Dr
418,43.011377,-83.666027,Kensington Ave/Sunnyside Ave
305,43.106512,-83.755713,E 52nd St/Leaf Cir
185,42.990482,-83.573578,E Atherton Rd
472,42.920790,-83.688624,Thornridge Dr
246,43.185616,-83.782514,Sequoia Dr
390,43.006966,-83.689876,Oak St/W Seventh St
185,42.965872,-83.683726,Boysenberry Ln/Green Briar Blvd
472,42.922294,-83.637204,Kingsley Rd/E Grand Blanc Rd
418,43.021390,-83.722179,Marquette St/N Chevrolet Ave
185,43.064900,-83.673971,N Dort Hwy/Groveland Ave
710,43.002146,-83.750370,/Corunna Rd
445,43.009036,-83.746466,Jacque St/Foxboro Ln
276,42.971045,-83.698347,W Parkwood Ave/Fenton Lawn Dr
185,42.826085,-83.754457,Four Lakes Ave/Rolston Rd
276,43.026868,-83.688252,Industrial Ave
813,43.025709,-83.689150,Glenbrook Cir
160,42.810007,-83.853173,Longfield Dr
185,42.901710,-83.690661,Fenton Rd
362,42.985244,-83.680454,Cuthbertson St/Clinton St
246,43.012841,-83.766050,Normandy Ter
276,43.068310,-83.840791,Flushing Cemetery
246,42.900121,-83.584213,Creekside Ct/Parkside Dr
185,43.036103,-83.783575,Harold Dr/Disch Dr
813,42.955647,-83.831857,Morrish Rd/Wade St
160,43.054510,-83.841785,Shady Brook Ct
160,43.024427,-83.510126,Balsam Dr
185,43.122792,-83.823952,107th St
305,43.067543,-83.728568,Oxley Dr/W Home Ave
276,42.948268,-83.616098,Ole Banner Trl/Colony Rd
390,42.973352,-83.801486,Augusta St/Canterbury Trl
305,42.834978,-83.741083,Horrell Ct/N Horrell Rd
390,42.919439,-83.683724,Heatherwood Dr/Dry Creek Dr
160,43.115412,-83.518951,/N State Rd
246,43.164128,-83.716133,Maple Run Blvd
246,43.022212,-83.712832,Dupont St/Stevenson St
526,43.133956,-83.763304,W Frances Rd/I- 75
185,42.955877,-83.492016,Bensett Trl
499,43.008091,-83.681098,E Wellington Ave/Harrison St
185,43.204927,-83.853659,Marshall Rd
276,42.816647,-83.796514,Sweet Briar Ridge
276,42.954273,-83.660949,S Saginaw Rd/Chapin St
185,43.046189,-83.737921,Pasadena Ave/McCollum Ave
185,43.058366,-83.673642,W Boulevard Dr/N Dort Hwy
185,42.880818,-83.591917,Woodfield Pkwy
472,43.119056,-83.760095,Enterprise Pkwy/W Mount Morris Rd
216,43.020936,-83.777484,Mill Creek Rd/Dyemeadow Ln
216,42.947569,-83.631871,Still Meadow Ct/Northwood Rd
185,43.164104,-83.714691,Neff Rd
418,43.035990,-83.505525,Star Dr/Natalia Dr
246,43.050380,-83.731643,Wisner St/Myrtle Ave
418,42.824707,-83.756199,Crystal Cove Ct
362,42.962664,-83.576348,Mapleleaf Ct
160,43.067097,-83.652071,Winsford Byway
276,43.013644,-83.666193,Brookside Dr/Linwood Ave
418,42.793984,-83.706788,Mill St/S Adelaide St
216,42.987320,-83.783570,W Lennon Rd
362,43.071239,-83.517827,Continental North Trailer Park
160,42.999634,-83.693180,Barlow Ave/Fenton Rd
631,43.015227,-83.686520,E Third St/Wallenberg St
390,42.939167,-83.682719,Arrowwood Ln/Wagon Wheel Ln
579,42.995578,-83.748193,I- 75
246,43.000124,-83.594118,Legacy Dr/Regency Dr
216,43.028644,-83.668260,Missouri Ave
160,43.193845,-83.720715,Wallace Dr
246,43.000387,-83.756366,Algonac Dr/Brown St
160,43.071058,-83.680522,E Lorado Ave/Premier St
185,43.003293,-83.666918,Winans Ave/Lippincott Blvd
216,43.008735,-83.588185,Kettering St/Roberta St
185,42.956643,-83.681315,W Suffolk Ct/Mary Stafford Ln
160,43.133649,-83.806686,/W Frances Rd
246,43.018053,-83.726199,Marquette St/Norbert St
305,43.072904,-83.659193,Grady Ct
160,43.041196,-83.802682,Flagstone Dr/River Rd/E River Rd
390,42.791517,-83.699525,S Lemen St/E Rockwell St
276,42.796018,-83.762351,Pavilion Ct
160,43.014247,-83.664822,Brookside Dr/S Franklin Ave
160,43.162786,-83.781551,Randall Ln/W Wilson Rd
390,43.017466,-83.716495,Perry St/Mary Ln
246,43.016308,-83.708155,W 4th Ave/Frost St
526,43.177600,-83.719843,W Vienna Rd/Plaza Dr
246,43.016742,-83.765775,Balmoral Pkwy/Calkins Rd
185,42.802349,-83.739482,Jennings Rd/Bealfred Dr
362,43.011746,-83.546203,Creek Wood Dr
160,42.829818,-83.786755,Hidden Ridge Trl/Hidden Valley Ct
526,42.937875,-83.586928,Amber Ln/Tanzanite Ct
334,43.032963,-83.740017,Mackin Rd/Suncrest Dr
185,42.948899,-83.630380,Still Meadow Ln/Meadow Walk Blvd
390,42.892782,-83.628499,I- 75
334,43.011764,-83.643620,/S Averill Ave
246,42.967007,-83.805564,Talmadge Ct/Miller Rd
185,43.041633,-83.536060,Horseshoe Dr
160,42.840656,-83.765842,Lahring Rd/Alyssa Ct
1850,43.023126,-83.595425,/N Belsay Rd
305,43.006868,-83.717510,W Court St
305,42.960163,-83.846060,Ashley Cir
472,42.945177,-83.622782,E Hill Rd/Howe Rd
710,42.814558,-83.783244,Walmar St/W Broad St
246,43.067153,-83.709036,W Home Ave/Chestnut St
305,42.987406,-83.756272,W Lennon Rd/Tandy Dr
185,42.996187,-83.652588,Birch Dr/Walnut Dr
160,42.959242,-83.738480,Knottingham Dr/Merlin Dr
579,43.012742,-83.654352,/S Dort Hwy
631,42.803197,-83.724858,W Silver Lake Rd/N Alloy Dr
788,42.952720,-83.840744,Fairchild St
160,42.915887,-83.572380,Bridle Path/Vassar Rd
472,42.939857,-83.684479,Pebbleshire Cir
160,43.105544,-83.639076,E Stanley Rd
216,43.076734,-83.745853,Highwood Dr/Winwood Dr
334,42.920889,-83.632591,Jewett Trl
334,42.784515,-83.716857,Peachtree Trl
788,43.011020,-83.539519,Charter Oaks Dr
710,43.025579,-83.676402,Walnut St/Robert T Longway Blvd
334,42.955876,-83.835917,Brady St/Ingalls St
276,42.992208,-83.646681,Herman E Curtis Blvd/Kleinpell St
334,43.005761,-83.667961,Pingree Ave/Aitken Ave
710,42.957226,-83.828700,Fredrick St/Miller Rd
334,43.011866,-83.668513,Brookside Dr/Ridgelawn Ave
216,43.100848,-83.705518,W Klein St/Garden Dr
216,43.057861,-83.659258,Shady Acres Mobile Home Park
185,42.840602,-83.732568,Harbor Landings Dr
276,43.136049,-83.689157,Mason St/3rd St
216,43.078336,-83.843035,Carpenter Rd/Deland Rd
185,43.002509,-83.579242,Deer Hollow
472,42.904308,-83.584754,Park Pl
160,42.900019,-83.729984,W Cook Rd/Torrey Rd
684,43.031734,-83.707622,Mason St/Stockdale St
579,43.013645,-83.695632,Ann Arbor St/W First St
216,43.094508,-83.688026,Laport Ave
305,43.029510,-83.661578,N Vernon Ave/Pennsylvania Ave
631,42.810210,-83.719769,Georgetown Pkwy
334,43.039414,-83.704483,Detroit St/W Baker St/E Baker St
334,42.953641,-83.856442,Chelmsford Dr/Seymour Rd
788,43.074699,-83.694015,N Saginaw Rd/E Bundy Ave
216,43.179776,-83.738683,N Railway St
216,43.126430,-83.684692,Thelma St/Leadley Ave
305,43.116154,-83.693600,Bray Aly/Hughes St
334,43.047692,-83.665152,N Franklin Ave/Marshall St
246,43.065545,-83.681280,/E Sherman Ave
499,43.064615,-83.859823,Mary St
160,43.030092,-83.733289,Sutton Ave/Prospect St
160,43.118257,-83.594406,Genesee County Parks Rd
276,43.047177,-83.674457,I- 475/Massachusetts Ave
160,42.899033,-83.498748,Dar Ln
185,42.975985,-83.564924,E Bristol Rd
185,43.064852,-83.745792,Hunter Rd/Sherman Ave
445,43.176213,-83.896846,Grover/W State St
362,42.944151,-83.714449,Hill Rd/Taylor Dr
390,42.967398,-83.683335,Boysenberry Ln/Strawberry Ln
185,43.005710,-83.684410,W Wellington Ave/Church St
246,43.096014,-83.611171,White Willow Dr/Sweetleaf Dr
445,43.187929,-83.731593,Tuscola Rd/Ula Dr
276,42.988365,-83.775961,Bristol Ct/Courtz Isle
762,42.974210,-83.684813,Greenbriar Blvd/E Bristol Rd
305,42.792473,-83.785324,Orchard Trl/Deer Trl
362,43.002076,-83.758763,Corunna Rd/Crescentlane Dr
334,43.049583,-83.703475,Esther St/E Van Wagoner Ave
160,43.024941,-83.767552,Westwood Ct
216,43.003578,-83.666942,Winans Ave/Lippincott Blvd
185,42.970520,-83.602136,Sequoia Ct
216,42.985102,-83.705941,Crestbrook Ln
160,43.015592,-83.707545,University Ave/Frost St
891,43.028139,-83.679295,/I- 475
334,42.905598,-83.624805,Knollwood Dr/Timberlane Ct
499,42.989839,-83.693046,Fenton Rd/Pettibone Ave
246,42.947457,-83.672291,Kimberly Ct/Kimberly Dr
185,43.043174,-83.697555,Mildred St/E Genesee St
276,43.117804,-83.697645,Washington Ave
1459,42.923936,-83.626488,Bush St
160,43.038008,-83.697509,E Dayton St/Ave A
362,43.067391,-83.825411,Coutant St/Sunnyside Dr
185,42.932480,-83.628457,Pleasantview Dr
160,43.148447,-83.754027,W Dodge Rd/N Jennings Rd
305,43.020869,-83.740988,River Birch Dr/River Valley Dr
305,43.055445,-83.727263,Cloverlawn Dr
305,42.959058,-83.592843,Maple Trl/Birch Ln
276,42.971202,-83.704263,/Charter Oak Dr
185,42.936984,-83.703014,I- 75
499,43.055011,-83.760187,I- 75
185,43.043837,-83.668209,Montana Ave/Minnesota Ave
526,42.916571,-83.614606,Sandhurst Ct/Sandehurst Dr
362,42.949929,-83.861511,Young Dr
160,43.131641,-83.610116,Coventry Blvd
185,42.964897,-83.714339,Kingswood Dr
160,43.007602,-83.712652,Center St
185,43.067527,-83.802717,Kelly Rd
216,42.804804,-83.741152,Silver Lake Rd
185,42.806121,-83.701051,9th St/N Oak St
968,43.122198,-83.694458,N Saginaw Rd/Garfield Ave
160,43.083255,-83.757783,Kimberly Wds Cir
246,43.092160,-83.686666,I- 475
736,43.002380,-83.645809,Midway Cir
334,43.096665,-83.608742,Greenleaf Ct/Pineview Dr
185,42.949272,-83.607354,Old Franklin Rd
305,42.960242,-83.736985,Camelot Dr
276,42.975145,-83.829681,Creek Way
526,43.011002,-83.691839,S Grand Traverse St
185,42.918321,-83.702391,Williams St/Mitchell St
246,42.966299,-83.684178,Green Briar Blvd
160,42.950704,-83.544638,Burleigh Rd
185,42.837759,-83.748222,Breeze Pointe Ct
390,43.177323,-83.775964,W Vienna Rd
418,43.023489,-83.709440,Mackin Rd/Niagara Ave
499,43.026913,-83.635085,N Center Rd
185,43.172760,-83.893971,Howard St/S Saginaw St
160,42.966666,-83.701025,W Judd Rd/Bristolwood Dr
362,43.053327,-83.702408,Wesley St/E Moore St
276,42.969348,-83.771833,Linden Rd
246,42.957946,-83.659276,Southampton Ave/Frank Ave
185,42.995137,-83.759650,Corbin Dr/Monaco St
813,43.006900,-83.726127,Middleton St/W Court St
305,43.110485,-83.617484,Stanley/N Genesee Rd
445,43.035758,-83.655389,N Dort Hwy/Bennett Ave
710,43.054114,-83.671351,/Stewart Ave/N Dort Hwy/E Stewart Ave
185,42.870099,-83.768886,Ray Rd/Linden Rd
160,43.035018,-83.504337,/Davison Rd
160,43.034927,-83.695059,E Witherbee St/Chippewa St
334,43.109086,-83.755347,S Hemlock Ln/N Hemlock Ln
276,42.915015,-83.683916,E Grand Blanc Rd/Thornridge Dr
160,43.036310,-83.694951,E Newall St/Newall St
185,42.800395,-83.858181,River Dr/Pine Cone Ct
276,42.839038,-83.759456,Cahokia Rdg
276,43.021289,-83.769357,Sussex Ln/Post Dr
276,42.895771,-83.582119,Knob Bend Dr
216,43.063764,-83.679637,Premier St
185,43.023059,-83.507968,Juniper Dr
276,43.065925,-83.823717,Oakwood Dr/Bellewood Dr
362,42.997732,-83.693130,Fenton Rd/Paddington Ave
362,42.825475,-83.708435,Lighthouse Pt
216,43.019345,-83.802362,Pinecroft Ct
445,43.021777,-83.576386,Century Ln/Harvest Ct
305,42.937384,-83.684506,Wagon Wheel Ln/Rustic Ridge Trl
185,43.092454,-83.865867,/Seymour Rd
472,43.033113,-83.675402,Davidson Rd/Davison Rd
160,42.875257,-83.578867,Village Ct/Woodfield Pkwy
246,43.097198,-83.690979,Teaple Ave/Temple Ave
160,42.932255,-83.720127,Laura Ln/Edmea Ln
246,43.073109,-83.690714,North St/E Alma Ave
499,42.998019,-83.706391,/Hammerberg Rd
160,43.055984,-83.702035,Harvard St/E Flint Park Blvd
216,43.025297,-83.741984,Mitson Blvd/Burnell Ave
160,42.937861,-83.782165,O Connor Ct/O Connor Pass
246,43.136462,-83.697754,Vienna Dr/Athens Ln
418,42.948461,-83.736484,Cornwallice Ct
246,43.085558,-83.686897,E Yale Ave/E Princeton Ave
552,42.980494,-83.681559,/S Grand Traverse St
390,42.905093,-83.727580,US Hwy 23
445,43.009340,-83.691831,W 5th St
1123,42.943905,-83.651414,Primitive Dr
160,43.053522,-83.577509,Hillwood Dr
185,43.095392,-83.609385,Pine Tree Ln
305,43.061818,-83.696412,E Ridgeway Ave/Fulton St
658,43.176508,-83.739886,New St/W Young St
185,42.976085,-83.826472,/Pine Run Dr
390,43.034182,-83.670269,Broadway Blvd/Iowa Ave
246,43.010521,-83.688745,W 5th St/Mitchell Aly
246,42.795087,-83.696986,S Ann St
216,42.802386,-83.710066,Lincoln St/N Adelaide St
216,42.994809,-83.617607,Colby Ct
160,43.032260,-83.559452,Hunters Ridge Ct
579,42.995579,-83.748449,Hogarth Ave
216,42.948584,-83.631935,Northwood Rd/Meadow Walk Blvd
526,43.007248,-83.686097,Church St/I- 69
605,43.102536,-83.763093,I- 75
160,43.007239,-83.533153,Huntington Ln
246,43.126644,-83.697697,Washington Ave
185,43.206693,-83.711890,Tuscola Rd/W Lake Rd
160,43.016979,-83.531316,Jenna Dr/Canary Dr
472,42.803415,-83.728483,/US Hwy 23
445,42.796405,-83.711793,West St/S West St/Caroline St
418,42.927540,-83.633114,E Reid Rd/Davis St
305,43.060663,-83.738332,W Pierson Rd/Orgould St
185,42.909097,-83.474332,/Henderson Rd
185,43.045760,-83.679843,Everett St/St John St
499,42.992968,-83.633874,/Clarice Ave/S Center Rd
552,43.177226,-83.881918,Riverside Dr
185,43.035004,-83.699607,E Witherbee St/Albert St
276,43.022743,-83.812537,N Elms Rd
185,43.060092,-83.522454,Mountain Ash Ct
445,43.007257,-83.676704,Stevens St/E 12th St
216,43.186365,-83.784091,Sequoia Ln/Field Rd
185,43.070990,-83.690774,E Lorado Ave
185,42.896738,-83.663298,Lost Oak Way/Hidden Oaks Dr
305,43.015460,-83.592795,Brabbs St
216,43.081389,-83.605451,Kathy Dr
334,42.964300,-83.675343,Proper Ave/Morrison St
160,42.905718,-83.620466,Sherwood Dr/Sherbrook Dr
526,43.148311,-83.763665,W Dodge Rd/I- 75
185,43.038521,-83.734512,W Dayton St
334,43.002546,-83.718238,Brown St/Brabyn Ave
160,43.034841,-83.661107,Amos Dr/Broadway Blvd/Burns St
160,43.082497,-83.668316,Energy Dr
276,43.012588,-83.766880,Normandy Ter
246,42.899900,-83.623581,Grand Ave/Winchester Dr
160,43.220377,-83.932071,W Willard Rd/Sheridan Rd
246,43.118647,-83.690871,Albert St
185,42.983971,-83.759818,Louis Dr
160,43.001677,-83.594893,Crabtree Ln/S Belsay Rd
334,42.886705,-83.487497,Cathy Dr/Loretta Ln
305,42.813660,-83.787390,Kaufman Dr/W Broad St
185,42.978511,-83.624204,Ryan Brook/Harbor Creek
246,43.010825,-83.720453,Sunset Dr
246,43.069993,-83.718942,Chatham Dr
552,43.017414,-83.690153,Harrison St/E Kearsley St
276,43.118483,-83.696796,Walker St
216,42.999031,-83.928575,W Corunna Rd/S Sheridan Ave
305,42.784835,-83.716866,Peachtree Trl
276,42.986267,-83.764186,Old Farm Rd
246,42.791909,-83.720863,Rounds Dr/Grant St
216,43.130923,-83.613835,Stratford Dr/Coventry Blvd
362,43.001753,-83.793074,Corunna Rd/East Dr
160,42.981118,-83.596346,Sitka St/Eastgate St
472,42.990388,-83.775306,Newport Dr/St James Ct
390,43.042046,-83.662426,Oklahoma Ave/N Vernon Ave
185,43.056337,-83.657442,Shady Acres Mobile Home Park
276,43.019129,-83.590345,E Court St S/Adams Rd
185,42.976335,-83.668092,James St/Kenneth St
185,43.000172,-83.558259,Antrim Dr/Antrim Ct
246,42.991987,-83.745083,Mayor Ct
418,43.067858,-83.709023,W Piper Ave/Chestnut St
160,42.967397,-83.913782,Crestwood Dr/Willow Ln
216,43.109180,-83.759600,S Meadow Ln
334,42.939244,-83.671822,Crestwood Memorial Cemetery
185,42.826035,-83.758444,E Rolston Rd/Tupper Lake Dr
334,42.922644,-83.689276,Thornridge Dr
246,43.018461,-83.652668,E Court St/Tower St
160,42.932602,-83.630232,Riverview Dr/McFarland St
216,42.794594,-83.701725,S East St
334,42.942251,-83.624189,Cedar Bend Dr
160,42.990513,-83.696236,Tuxedo Ave/Lincoln Ave
390,42.973934,-83.702898,Bristol Rd/Carmanwood Dr
216,42.996037,-83.655111,Mohawk Ave/Menominee St
418,42.910349,-83.585089,Gaitway Dr
605,42.973636,-83.718593,Holiday Dr/W Bristol Rd
362,43.112225,-83.696886,Estrelle St
185,42.914805,-83.720369,W Grand Blanc Rd
445,43.033743,-83.569816,Davison Rd
305,43.042973,-83.672908,Leith St/Olive Ave
788,43.015332,-83.513544,/Lapeer Rd
276,42.997829,-83.675322,/I- 475
160,43.044204,-83.652272,Montana Ave/Pickford Ave
160,43.090512,-83.613352,Turtle Cove Pkwy/Meera Dr
160,42.998502,-83.540100,Mapleview Ct/Mapleview Dr
1615,42.820905,-83.706983,Darts Dr/Fenton Rd
216,43.109169,-83.756533,S Hemlock Ln
305,42.981660,-83.703902,Walnut Creek/Lynbrook Dr
185,42.811674,-83.736571,Ponemah Dr
362,42.920177,-83.641818,E Grand Blanc Rd/Neal St
246,42.783011,-83.732704,Olde Wood Trl
185,42.984237,-83.666511,Red Arrow Rd/Dell Ave
216,43.137038,-83.697749,Vienna Dr/Warsaw Ln
246,42.939115,-83.632420,S Center Rd
276,43.101479,-83.612708,Indian Hills Trl/Chochise St
160,43.120735,-83.701499,Parklane Ave
362,43.056750,-83.732216,Wisner St/Birchcrest Dr
160,42.920740,-83.730753,Torrey Rd
160,42.920978,-83.701198,Timberline Dr
390,42.941678,-83.670095,Crestwood Memorial Cemetery
276,42.783064,-83.699669,Jayne Rd
445,43.033037,-83.644231,Davison Rd/Earlmoor Blvd
605,42.944426,-83.623416,Cedar Bend Dr
185,42.933813,-83.648002,Gm Plant
1174,43.031513,-83.740987,/Suncrest Dr
276,43.148106,-83.734238,W Dodge Rd/Clio Rd
160,43.175486,-83.750875,Hidden Oaks Dr
185,43.178592,-83.680091,E Vienna Rd/Lewis Rd
160,42.916866,-83.652334,Valleylane Dr/Green Valley Dr
160,42.912798,-83.639702,Elkhound Ct
305,43.177441,-83.746136,W Vienna Rd/Dexter St
276,43.016582,-83.720748,Cartier St/Monteith St
185,43.105838,-83.627867,E Stanley Rd
185,43.069043,-83.733412,Clio Rd/Chateau Dr
579,43.010211,-83.629689,Lapeer Rd/Lombardy St
246,43.155026,-83.734352,Wilman Dr/Clio Rd
160,42.954042,-83.811850,Superior Trl/Mt Everest Way
185,42.921556,-83.790159,Cottonwood Dr/Sharp Rd
305,42.784316,-83.839376,Peninsular Dr/Belfast Dr
362,43.169457,-83.734513,Clio Rd/Amsterdam Dr
499,43.026849,-83.635083,N Center Rd
185,42.785551,-83.757784,Oak Tree Ct
185,43.005346,-83.543354,Hemingway Ln/E Lippincott Blvd
276,42.922038,-83.689265,Thornridge Dr
334,42.991830,-83.775354,Newport Dr/Square Blvd
216,43.032101,-83.599719,Mallard Ct/Mallard Dr
362,43.066510,-83.698897,Summit St/E Hobson Ave
160,42.882516,-83.656461,Willow Ln
185,42.781242,-83.831592,Peninsular Dr/Clairmont Dr
276,42.907285,-83.621647,Butternut Ln
390,42.910519,-83.585351,Pine Hollow Trl
185,42.900462,-83.677062,/E Cook Rd
418,42.975591,-83.626347,Creekside Blvd/Bunny Creek
160,43.056980,-83.848200,Sun Manor Dr/E River Rd
1020,42.989657,-83.738676,Miller Rd/I- 75
334,43.026001,-83.492708,Hickory Ridge/Chestnut Cir E
418,42.980218,-83.673996,S Saginaw Rd/E Decamp St
276,43.016576,-83.781341,/Calkins Rd
418,42.922877,-83.689295,/Thornridge Dr
710,43.019007,-83.706682,Flushing Rd/Wolcott St
276,42.966491,-83.684631,Lington Berry Ct
362,42.870520,-83.739718,Ray Rd
216,43.093944,-83.608362,Pineview Dr/Evergreen Rd
917,42.909023,-83.605364,Officepark Dr/McCandlish Rd
276,42.950371,-83.652786,S Dort Hwy/Sloan Hts
472,42.958670,-83.725117,I- 75
185,43.216031,-83.681104,Blakely/Lewis Rd
276,43.068707,-83.706214,Detroit St/W Russell Ave/Martin Luther King Blvd/E Russell Ave
445,42.954668,-83.866725,Star Ct/Sue Ln
839,42.964699,-83.795748,I- 69
246,42.980603,-83.702311,Riviera Dr/Renault Dr
185,43.028435,-83.690292,North St/Columbia Dr
276,43.161272,-83.772536,Marcy Ct
185,43.114493,-83.854529,Apollo Cir
185,43.047347,-83.637995,Darcey Ln/Dolphaine Ln
160,42.999483,-83.679655,Evelyn Ct
552,42.994863,-83.747895,Beveridge Rd/Utley Rd
185,43.121253,-83.533881,E Mt Morris Rd
276,42.938112,-83.667314,Westknoll Ct
160,42.909613,-83.582258,McCandlish Rd
160,42.965966,-83.924143,Hickory Ln
160,42.839578,-83.701707,Mornington Ct/McCully Ln
762,42.994867,-83.772911,Valley Oaks Dr
418,43.000080,-83.715553,Lincoln Dr/Miller Rd
305,42.816995,-83.724104,Ward Dr
160,43.120721,-83.583927,/E Mt Morris Rd
334,43.030378,-83.655209,Ohio Ave/N Dort Hwy
246,43.034030,-83.681179,E Boulevard Dr
160,43.041974,-83.735896,Bertha Ave/Dartmouth Ave/Dartmouth St
362,43.093195,-83.603337,Thomas J Dr/Jerald Dr
185,42.843131,-83.727171,Torrey Grove Ct
943,42.980373,-83.688857,Kings Ln
305,42.790189,-83.847209,Pleasant St/Harper St
276,42.795099,-83.761302,Pavilion Dr
334,42.993736,-83.553096,Stonebrook/Boulder Dr
472,42.924118,-83.634362,Seward St/E Grand Blanc Rd
216,43.064905,-83.655288,Wilton Pl/Western Rd
160,42.967409,-83.656178,Quinlan Dr/E Judd Rd
276,42.965221,-83.914471,Brookwood Dr/Hickory Ln
185,43.043686,-83.838700,Cobblestone Dr
160,42.939654,-83.609104,Kings Crown Rd/Kings Knoll Rd
185,42.915680,-83.700760,Wilson St/Mitchell St
305,43.045174,-83.730618,Seneca St
216,42.994798,-83.675326,Harold St/E Belvidere Ave
216,43.005449,-83.517283,E Lippincott Blvd/Griffin Rd
276,42.971668,-83.771864,Linden Rd
160,42.783459,-83.775239,Vintage Dr
185,43.033642,-83.736982,Clement St/Janet Higgins Dr
185,43.043908,-83.665174,Montana Ave/N Franklin Ave
276,42.991962,-83.681510,I- 475
246,43.043521,-83.657712,Hoff St/Thom St
160,42.830563,-83.784682,Hidden Valley Trl/Red Oak Ct
334,43.215125,-83.769163,I- 75
526,43.019954,-83.723581,Dougherty Pl
445,42.975106,-83.679013,Connell St/Greenly St
865,43.025940,-83.655147,Robert T Longway Blvd
334,43.005862,-83.661821,Pingree Ave/Seymour Ave
160,43.004359,-83.759921,Meadow Lark Dr/Pheasant Run Dr
390,43.006787,-83.680125,Harrison St/Kennelworth Ave
276,43.192312,-83.877665,Virginia Ct
334,42.994449,-83.708139,I- 69
216,42.794240,-83.820744,Silver Bend Dr/Haviland Beach Rd
185,43.050700,-83.782606,Lamplighter Ln/Kingsbrook Dr
246,42.920323,-83.511942,Creekside Dr
276,42.826827,-83.771531,Laing Ct
160,42.976295,-83.545152,Lang St/E Bristol Rd
216,43.021466,-83.812509,/N Elms Rd
160,43.033587,-83.717205,Milbourne Ave/W Paterson St
362,43.057578,-83.674201,I- 475
160,43.028415,-83.494534,Sugar Maple W/Red Bud Ln
305,43.035788,-83.665211,N Franklin Ave/Bennett Ave
160,43.023529,-83.644939,S Averill Ave
472,42.985750,-83.761201,Old Farm Rd/Old Farm Ct
788,43.064711,-83.762374,/I- 75
160,42.935836,-83.597330,S Belsay Rd
305,43.012306,-83.692948,W Third St/S Grand Traverse St
334,42.952433,-83.670192,Wishing Well Dr/Russell St/Moceri Ln
185,43.038683,-83.539369,Tall Oaks Dr/Bellechasse Dr
552,43.059478,-83.693835,E Marengo Ave/N Saginaw Rd
418,43.032805,-83.720415,Forest Hill Ave/Lawndale Ave
216,42.917275,-83.700782,Gregory St/Mitchell St
472,43.133971,-83.763613,W Frances Rd/I- 75
185,42.826825,-83.714929,Swanee Beach Dr/Enid Blvd/Grove Park Rd
216,43.055448,-83.858806,Terrace Dr/Winters Eave
246,43.096028,-83.610856,Sweetleaf Dr
185,43.045365,-83.840903,Plainview Dr/W Potter Rd
160,43.157469,-83.746644,Merlyn Ct
216,42.917044,-83.778219,Walkabout Ln/Peppermill Dr
390,42.998955,-83.718059,Parkside Dr/Gainey Ave/Miller Rd
185,42.961470,-83.677600,Greenly St
216,42.922326,-83.687676,Thornridge Dr
160,43.040585,-83.670562,Maryland Ave/Iowa Ave
418,42.813040,-83.773575,Silver Lake Rd
185,42.870770,-83.721982,W Ray Rd/Main Rd
305,43.029410,-83.688119,Tulane Cir/Tulane Dr
334,43.110700,-83.757716,White Oak Blvd/N Meadow Ln
305,42.952744,-83.910942,Duffield Rd
276,43.007943,-83.799540,Lancaster Dr/Trenton Dr
160,42.961125,-83.823667,Crosscreek Dr/Springbrook Dr
334,43.034817,-83.760146,Mill Rd
418,42.989087,-83.661089,E Atherton Rd/Ogema Ave
216,42.970738,-83.652752,S Dort Hwy/Spartan Dr
362,42.919568,-83.685155,Winding Ridge Dr
216,42.954203,-83.633327,Towne Hill Dr/S Center Rd
216,42.955203,-83.604081,Old Franklin Rd/Copley Square Rd
276,43.029965,-83.807089,Laurentian Ct/Laurentian Pass
160,43.184800,-83.774374,N Linden Rd/Field Rd
216,43.036217,-83.522414,Charles St/W Bay St
216,43.063723,-83.813197,Cedarwood Dr/N Elms Rd
216,43.086200,-83.738846,Bicentennial Dr
246,42.978548,-83.712959,/Van Slyke Rd
684,43.129257,-83.694521,Corydon Dr/N Saginaw Rd
185,42.795304,-83.852244,Timberland Dr/Pine Walk Pass
472,43.031622,-83.677380,I- 475/Cesar Chavez Dr
185,43.091814,-83.714221,Neff Dr/Vanderbilt Cir
246,42.991187,-83.700593,/Vermilya Ave
276,42.976949,-83.626284,Creekside Blvd/York Brook
658,42.988962,-83.676765,/W Atherton Rd
276,43.059760,-83.860784,Lynn St
276,43.133990,-83.681330,Danny Ln/Eddie Ln
276,43.097132,-83.707619,Natchez Dr/Flamingo Dr
472,42.994510,-83.633941,S Center Rd/Loder Ct
390,43.029587,-83.771596,Walnut Peak Dr
246,42.986135,-83.764196,Old Farm Rd
305,43.091746,-83.603897,E Coldwater Rd/Jerald Dr
305,43.023819,-83.522954,W Lexington St
605,43.008893,-83.694403,W 5th St/Ann Arbor St
185,42.956990,-83.644863,Park Dr
788,42.786227,-83.742360,Post Branch/Chinkapin Rill
418,43.030158,-83.761905,/Mill Rd
334,43.050370,-83.704665,Detroit St/Edmund St
216,43.093811,-83.607067,Redstem Ct/Evergreen Rd
185,42.961596,-83.739064,Airpark Dr S
160,42.904003,-83.592512,Parkgrove Ct/Grovemont Ct
246,43.067262,-83.743369,Minerva Dr/Home Ave
185,43.038747,-83.701256,Alexander St/E Dayton St
1149,43.017075,-83.678200,Avon St
276,43.020692,-83.492617,Emerald Forest
185,42.953825,-83.640584,Brenthill Dr
160,42.914196,-83.577412,Canter Creek Trl
185,42.811282,-83.763199,Haystack Dr/Silver Lake Rd
305,43.030266,-83.637746,Lorraine Ave/North Virginia Ave
390,43.060414,-83.704644,Detroit St
390,42.792231,-83.751128,Silverwood Ct/Shorewood Ct
499,43.183149,-83.736669,Darrow St/Center St
185,42.943645,-83.589804,Chatham Ln/Langchester Dr
445,43.090119,-83.716326,Coldwater Rd/Bermuda Ln
246,43.170415,-83.521442,Athletic St/Maplewood Dr
710,42.944083,-83.685669,E Hill Rd
216,43.040534,-83.717293,Milbourne Ave
334,42.886629,-83.609176,Scenic Ridge Blvd/Pond View Trl
160,43.165389,-83.774105,N Linden Rd
246,43.001432,-83.738115,Augusta St/Nedra Ave
499,42.903764,-83.583634,Parkside Dr/Park Pl
418,43.011361,-83.690409,Church St/W Court St
160,43.003089,-83.759102,Coachlight
216,42.920341,-83.785800,Ponderosa Dr
1174,43.060567,-83.773391,W Pierson Rd
276,43.012558,-83.647796,/I- 69
160,43.049263,-83.816060,Cambridge Dr
160,42.995902,-83.662333,Hillcrest Ave/Circle Dr
418,43.054874,-83.732813,Clio Rd
631,43.015450,-83.681466,E Court St/East St
160,43.083937,-83.699061,Summit St/N Cornell Ave
216,43.123327,-83.666862,Melrose Ln
362,43.011223,-83.671260,/Avon St/Brookside Dr
305,43.096593,-83.611932,Bigleaf Ct
160,42.996300,-83.758485,Anoka St/Larchmont Ave
246,43.070805,-83.518065,N State Rd
185,42.961188,-83.591006,E Maple Ave/High Oaks Trl
185,42.924403,-83.718611,Brookhaven Dr
160,43.183444,-83.880398,Tarrant Dr/Seymour Rd
185,42.786843,-83.712777,Plateau St/Parallel St
362,43.182477,-83.736653,Tuscola Rd/Center St
246,42.962183,-83.771659,Linden Rd
390,42.958419,-83.822036,Raubinger Rd/Miller Rd
160,42.797669,-83.759864,Barrington Hills
334,43.119417,-83.687395,E Mt Morris Rd/Genesee St
390,43.017995,-83.696816,Mason St/W 1st Ave
526,43.032867,-83.517986,N State Rd/W 3rd St/E 3rd St
246,43.013524,-83.674876,E 9th St/Avon St
160,42.956327,-83.637255,Glen Cove Ln/Oakland Dr
185,42.833844,-83.743906,S Hill Dr/Crane Lake Dr
160,42.794796,-83.692871,Howard St
160,43.019219,-83.584369,E Court St S
160,42.996033,-83.779661,Lauderdale St/Flagler St
334,43.023766,-83.516207,S Main St/Birch Dr/Juniper Dr
246,42.890905,-83.665679,Poplar Ct
160,43.184536,-83.774371,N Linden Rd/Field Rd
276,42.993537,-83.530675,Copper Ridge Way/Copper Ridge Dr
552,42.958253,-83.830741,Church St/Morrish Rd
526,43.013376,-83.683218,Stevens St/E Fifth St
160,42.942114,-83.613819,Salt Lick Cir
445,42.959970,-83.668960,E Maple Ave
526,43.002781,-83.735132,Salisbury Ave
160,43.172952,-83.461302,/Crawford Rd
160,42.928275,-83.794241,Reid Rd
185,42.905682,-83.730203,Torrey Rd
160,43.043154,-83.701203,Alexander St/E Genesee St
160,43.038850,-83.735529,W Dayton St/Pearl Ann St
362,42.817884,-83.728989,Bay View Dr/Oak Hill Ct
185,42.854593,-83.697652,Princewood Dr/Apple Blossom Blvd
684,43.003866,-83.735150,Salisbury Ave/Blackington Ave
813,43.026209,-83.689491,Carson Ct/Floyd J McCree Dr
390,43.045002,-83.645504,Colorado Ave/N Averill Ave
472,43.061884,-83.861817,Emily St
185,42.887962,-83.484214,Fox Run/Linda Kay Dr
1174,43.018432,-83.654649,E Court St/S Dort Hwy
362,43.070439,-83.714020,Chatham Dr/Dupont St
276,43.096365,-83.688304,Dowagiac Ave/Morris Hills Pkwy
605,43.018797,-83.720659,N Chevrolet Ave/Blair St
160,43.056662,-83.735661,Canterbury Ln
185,42.960844,-83.662508,Heilman St
472,42.974901,-83.642192,Flint Asphalt Dr/E Bristol Rd
276,42.998419,-83.782592,Woodhaven Ct/S Dye Rd
160,42.841069,-83.710193,Linden St/Cussewago Beach Rd
445,43.001892,-83.785713,Corunna Rd
246,42.916475,-83.633585,Shell Bark Ln
305,43.066134,-83.841329,Flushing Cemetery
445,43.010192,-83.689292,W 5th St/Church St
276,43.022231,-83.688820,E Fourth Ave
160,43.131333,-83.612370,Ramsgate Dr S/Ramsgate Dr N/Coventry Blvd
185,42.825888,-83.771538,Laing Ct/E Rolston Rd
246,43.021950,-83.666548,Kensington Ave/E 2nd St
246,43.074144,-83.840888,Birchwood Dr/Ashwood Dr
216,42.886914,-83.625217,Gainey Dr/E Baldwin Rd
216,43.050408,-83.728736,Myrtle Ave/Winona St
1149,42.982146,-83.755932,/Miller Rd
185,42.790637,-83.822077,Majestic Woods Dr
390,42.956465,-83.718557,/Ridgebend Dr
160,43.047124,-83.551261,Galway Dr/Ohara Dr
334,43.017142,-83.767343,Cayuga Trl/Tahoe Trl
276,42.787293,-83.754585,Redwood Ct/Sleepy Hollow Dr
160,42.982056,-83.646363,Kleinpell St/E Hemphill Rd
216,43.072176,-83.723529,Fleming Rd/Russet Pl
362,42.961352,-83.811266,Elms Rd
418,42.945152,-83.613147,S Genesee Rd/E Hill Rd
185,43.038716,-83.562083,Cornwell Dr
216,42.801185,-83.701999,4th St/N East St
305,43.093741,-83.610984,Burr Oak Ct/Red Beech Dr
499,43.006883,-83.747315,Clovertree Ln/W Court St
1589,43.017615,-83.694295,Water St Walk Brg
246,43.018664,-83.618640,E Court St/Pawnee Dr
334,43.154077,-83.701217,Autopista City Speedway
246,42.842592,-83.728486,Margaret Dr/Torrey Rd
276,43.069603,-83.684574,Selby St/E Austin Ave
472,42.980090,-83.681530,E Decamp St/S Grand Traverse St
216,43.004684,-83.643128,Providence St/Wood Ln
160,43.021676,-83.805712,/Old Timber Trl
276,43.038970,-83.670463,New York Ave/Iowa Ave
160,43.150733,-83.599611,E Dodge Rd
499,43.033144,-83.630363,Donegal St/Davison Rd
216,42.919125,-83.496519,Fairview Ct
499,42.919037,-83.606237,Wilkshire Ct/Charing Cross Dr
185,42.972017,-83.690082,Lonepine Trailer Park
246,42.791168,-83.709839,W Rockwell St
160,42.917527,-83.770208,Linden Rd/Centennial Farms Ct
736,43.025435,-83.688780,Carson Ct/Industrial Ave
246,42.990915,-83.688352,Camden Ave/Lincoln Ave
160,42.964960,-83.773135,Lindenwood Dr/Norris Dr
185,43.102446,-83.558080,Irish Rd
185,43.063141,-83.738340,Lyndon Ave/Orgould St
526,43.014535,-83.812331,Elms Rd/Granada Ln
160,42.997328,-83.651348,North Dr/Oak Dr/Elm Dr
216,43.022406,-83.700543,Mason St/W Sixth Ave
185,42.895339,-83.729830,Torrey Rd
472,42.900774,-83.733737,Cook Rd
362,43.009687,-83.652163,Lapeer Rd/Tower St
185,43.018149,-83.770720,Sussex Ln/Cabot Dr
185,43.067378,-83.759889,Durwood Dr/Cascade Ct
160,42.900292,-83.689960,E Cook Rd/del Rio Dr
276,43.112061,-83.620215,Gregor St/Rogers St
362,42.972468,-83.792359,W Bristol Rd/Miller Rd
579,43.008618,-83.694190,Atwood St/Ann Arbor St
305,43.029249,-83.755445,Casaloma Ct
216,43.009705,-83.701788,W Second St/Asylum St
185,43.041274,-83.635596,Maryland Ave/N Center Rd
276,42.820574,-83.775607,Cherry St
160,43.191969,-83.744842,W Farrand Rd
216,42.999794,-83.738096,Whitney Ave/Nedra Ave
185,43.032566,-83.776798,Beekman Ct
160,43.080892,-83.696665,Fulton St
472,42.955668,-83.833326,S Hayes St
160,42.827682,-83.713891,Haddon St
305,43.040574,-83.811203,Stonebrook Ln/Pebble Creek Dr
276,43.044412,-83.729624,McClellan St/Kellar Ave
160,43.089740,-83.764308,Coldwater Rd
246,42.932002,-83.583191,Moonstone Dr/Emerald Ct
684,42.929279,-83.723930,W Reid Rd
216,43.040651,-83.803314,Flagstone Dr
418,43.006125,-83.740295,Zimmermann St
362,42.909974,-83.725687,US Hwy 23
216,42.999432,-83.781925,Magnolia Ln
216,43.033025,-83.737609,Barth St/Janet Higgins Dr
276,42.926527,-83.684291,Glen Oak Ct
276,43.017441,-83.522252,Shalin Dr/Rayna Dr
305,43.029645,-83.763902,Autumn Dr/Beecher Rd
499,42.988358,-83.698662,W Atherton Rd/Phillis Ave
216,43.076024,-83.667981,E Carpenter Rd/Daniel Dr
160,43.151838,-83.512630,E Dodge Rd
160,42.810916,-83.797040,Silver Lake Rd
276,43.043899,-83.690523,North St/E McClellan St
216,43.007739,-83.812204,Elms Rd
185,43.016746,-83.522301,Shalin Dr/Isabella Ln
246,43.008784,-83.585552,S Packard Ave/Roberta St
185,43.054801,-83.852532,S Mc Kinley Rd/Overbrook Dr
160,43.004202,-83.701883,Mays St/Segoquen Trl
579,43.025635,-83.691280,Floyd J McCree Dr/Dukette Blvd
418,42.897457,-83.637968,/I- 75
185,43.162948,-83.724424,W Wilson Rd
526,42.954401,-83.692389,Fenton Rd/Linus St
305,42.997961,-83.750503,Lodge Rd/Herrick St
305,42.955726,-83.669003,Spinning Wheel Dr/Mill Wheel Dr
216,42.862943,-83.757030,Vantage Point Dr/W Thompson Rd
334,43.014590,-83.483080,I- 69
160,42.885675,-83.453789,Country Creek Dr/E County Line
185,43.039463,-83.653162,American Mobile Home Ct
276,43.072997,-83.721522,Orange Ln
334,42.998272,-83.576573,Stonehedge Ct
276,43.033872,-83.713100,Josephine St/Dupont St
246,42.899058,-83.619446,Brighton Dr/Bradway Blvd
216,42.950701,-83.552657,Burleigh Rd/Burwick Rd
160,43.006887,-83.731299,Barney Ave/W Court St
1746,43.024956,-83.680738,Nb Chavez Dr/5th Ave
185,42.989043,-83.788529,Nandi Hills Trl/Nandi Hills Ct
216,43.026809,-83.727652,N Stevenson St/Lavender Ave
552,43.180662,-83.716942,N Dort Hwy
216,43.002048,-83.928535,S Sheridan Ave
445,43.015340,-83.615073,S Genesee Rd/Raymond Ave
160,43.104400,-83.745253,W Stanley Rd
246,42.989791,-83.698678,Pettibone Ave/Phillis Ave
499,42.796017,-83.703634,S Walnut St
216,43.024992,-83.577095,Peach Blossom Cir/Carriage Ct
390,43.177577,-83.841062,Williams/Trident Blvd
276,43.085588,-83.685829,Horton St/E Princeton Ave
160,43.174609,-83.702473,Roseberry Ln/Elmdale St
276,43.042056,-83.615743,N Genesee Rd
418,42.886036,-83.602172,Baldwin Cir
246,42.972352,-83.662730,E Bergin Ave
216,43.013735,-83.716568,Cartier St/St Clair St
216,42.927192,-83.596892,Greenview Ct/Greenview Dr
526,43.000929,-83.772694,/Linden Rd
362,43.070895,-83.668104,Hillcroft Dr/Eastmont Dr
160,43.171181,-83.814046,Elms Rd
334,43.072763,-83.846793,Rodney Ave/Shawnesee Ave
160,43.048281,-83.737001,Roanoke St/Sonny Ave
305,42.997155,-83.675662,I- 475
216,42.807101,-83.701098,/N Oak St
246,43.071735,-83.841058,Meadowview Dr/Ashwood Dr
246,43.117675,-83.928904,Sheridan Rd/W Mount Morris Rd
160,43.127624,-83.793726,Hillier Dr/N Webster Rd
216,43.051809,-83.702371,Wesley St/Damon St
185,42.898239,-83.601586,Warwick Trl/S Saginaw Rd
684,43.003089,-83.738897,Tacken St/Reynolds St
276,43.017665,-83.702818,Patrick St/University Dr
160,42.995361,-83.585496,/Cherylann Dr/Denhill Ave
552,43.009851,-83.693778,Stockton St/W Court St
246,43.023722,-83.722890,Milbourne Ave/Raskob St
160,43.020472,-83.802144,Tumbleweed Ct
246,42.910218,-83.501444,S State Rd/Rhodes Rd
605,43.054526,-83.671651,N Dort Hwy
185,43.117997,-83.683973,Brockway St/South St
305,43.067249,-83.693923,N Saginaw Rd/E Home Ave
305,42.995571,-83.676201,E Eddington Ave
160,43.124962,-83.823916,Morrcrest Ln
160,43.043228,-83.551548,Belle Meade Dr
160,42.916316,-83.735263,Rowe Ct/Silver Fox Run
160,43.081624,-83.684275,E Cass Ave/Horton St
305,43.023530,-83.513277,Balsam Dr/Hemlock Dr/Juniper Dr
246,42.884603,-83.606411,Meadow Crest Cir/Whispering Glen Trl
362,42.973418,-83.729222,W Bristol Rd/Torrey Rd
552,42.982443,-83.670388,Tennyson Ave/Bede St
362,43.040030,-83.635588,Delaware Ave/N Center Rd
160,42.956548,-83.928837,Miller Rd
276,42.915034,-83.702780,W Grand Blanc Rd/Hidden Ponds Dr
276,42.789831,-83.772836,Hill Forest Dr
390,42.926233,-83.688879,I- 75
305,43.107171,-83.755976,E 53rd St/Leaf Cir
418,43.014631,-83.695377,S Grand Traverse St
160,43.039792,-83.668026,Delaware Ave/Minnesota Ave
362,43.216270,-83.768855,I- 75
305,43.169221,-83.744883,Rosalie Ann Ct
160,42.980962,-83.609624,Connecticut St/Long St
362,43.068543,-83.514688,Pierce Ct/Van Buren Cir
362,42.931018,-83.685477,Rustic Ridge Trl
160,43.150740,-83.599012,E Dodge Rd
185,43.117704,-83.860380,W Mount Morris Rd
185,43.114161,-83.618777,Lois Ln
499,43.077721,-83.684655,Charles Ave
185,43.006089,-83.770331,Conway St/Lenrose Ave
160,43.023549,-83.494562,Devinwood Ct/Legacy Ln
305,43.097508,-83.690211,/George St
160,42.914078,-83.706791,Bradbury Ln
2759,43.016820,-83.691432,W Kearsley St/E Kearsley St/S Saginaw St
418,43.009666,-83.653064,Lapeer Rd
160,43.175773,-83.818174,Circle Dr W/Pine Forest Mobile Home Park
160,43.067955,-83.667706,Holiday Village Mobile Park
631,43.000199,-83.767839,T A Mansour Blvd
160,42.915869,-83.575904,Bridle Path/Perferred Property Pl
276,43.075768,-83.685641,Alfred St/E Carpenter Rd
276,42.976252,-83.548119,E Bristol Rd
185,42.790474,-83.831552,Cove Dr/Knobhill Dr
216,42.783633,-83.839266,Belfast Dr
762,42.956089,-83.831974,Ingalls Rd/Holland St/Ingalls St
276,42.931180,-83.586958,Perry Rd/Glen View Ln
891,42.973503,-83.724746,/W Bristol Rd
160,42.827707,-83.714937,Enid Blvd
1537,42.937725,-83.642288,S Saginaw Rd
160,42.886032,-83.604532,Baldwin Cir
276,43.046233,-83.729683,Pasadena Ave/W Pasadena Ave/Kellar Ave
216,43.091488,-83.813149,Clovis Ave
445,42.920841,-83.688932,Thornridge Dr
246,42.913065,-83.501525,S State Rd/Oak St
185,43.221014,-83.853592,W Willard Rd/Marshall Rd
276,43.138900,-83.697600,Loganberry Rdg
499,42.804996,-83.738003,/Foley Glen Dr
246,43.064887,-83.681587,/I- 475
160,43.101632,-83.607927,White Fawn St/Indian Hills Trl
185,42.950208,-83.766381,Trapani Ln
185,42.783144,-83.845621,S Seymour Rd/Hatt Dr
246,43.114202,-83.859799,Apollo Ave/Borman Ave
185,43.162749,-83.732531,W Wilson Rd/Leann Dr
499,43.167199,-83.524550,N State Rd/Grove St
216,43.088822,-83.699679,Louis Ave
185,43.122724,-83.824657,Kings Row Ln
418,43.015036,-83.534687,Chatwell Club Ln
185,42.993429,-83.547316,Solarwood Dr/Sunray Ct
305,42.954470,-83.856454,Seymour Rd/E Chesterfield Dr
216,42.936593,-83.776155,Crown Ct/Wyndemere Sq
246,43.058021,-83.861106,Lynn St/Arthur St
246,42.929585,-83.673569,E Reid Rd
390,43.065893,-83.590966,Swallow Dr/Oriole Dr
334,43.023856,-83.687398,E 5th Ave/James P Cole Blvd
334,42.975301,-83.610564,E Bristol Rd
552,43.030283,-83.659645,Ohio Ave/N Lynch St
788,42.972484,-83.725626,/I- 75
499,43.022303,-83.555896,Kensington Blvd/Irish Rd
246,43.016040,-83.641485,Nottingham Ct
418,43.176187,-83.902764,Vienna Rd/W State St
185,42.998889,-83.928574,W Corunna Rd/S Sheridan Ave
445,42.972888,-83.630322,Blackberry Creek
160,43.026301,-83.705894,11th Ave/N Grand Traverse St
276,42.930566,-83.688186,Kennebec Rd/Rustic Ridge Trl
418,42.994060,-83.677265,S Saginaw St/Madison Ave
160,42.792666,-83.884462,Murray Rd
160,43.055895,-83.709778,W Flint Park Blvd/Longfellow Ave
160,43.036102,-83.740198,McCollum Ave
305,42.988107,-83.683197,Campbell St/S Grand Traverse St
160,42.832259,-83.707797,Enid Blvd
246,43.057074,-83.852485,E River Rd/S Mc Kinley Rd/W River Rd
710,42.799419,-83.704900,N Leroy St/2nd St
276,42.999405,-83.722664,Beaver Ave/Chicago Blvd
160,43.031764,-83.690352,Wilberforce Dr/Loyola Dr/Wwilberforce Dr
246,43.025324,-83.711455,Kirk Ave/Petrie St
185,43.019815,-83.661103,Windemere Ave/S Vernon Ave
160,43.084913,-83.701474,Harvard St/W Yale Ave
472,42.964569,-83.801854,I- 69
418,43.065718,-83.629354,Cheryl Dr
605,43.027097,-83.508784,Milford Ct/Avon Ct/Stratford Square Blvd
246,43.013421,-83.766910,Normandy Ter
160,43.160807,-83.813951,/Elms Rd
390,43.075394,-83.717368,W Carpenter Rd
185,43.117936,-83.685964,South St/Braymont St
185,43.024988,-83.721845,Milbourne Ave/N Stevenson St
305,43.009367,-83.688405,W Sixth St/Church St
160,42.951500,-83.688030,Coolidge Dr
445,43.034160,-83.676924,I- 475/Broadway Blvd
246,42.959405,-83.735430,Elegast Dr/Knottingham Dr
160,42.909006,-83.640284,Pheasant Ct/Quail Ln
305,42.907313,-83.623620,Butternut Ln
185,42.833882,-83.745789,S Hill Dr/S Jennings Rd
216,42.855402,-83.701555,Carmela Dr/Natalie Dr
160,43.008565,-83.604980,Casto Blvd/Roberta St
246,42.806722,-83.818824,Heather Ct/Silver Lake Rd
362,43.093132,-83.608810,Blue Spruce Ln/Pineview Dr
658,42.789566,-83.748274,Silverwood Dr/Owen Rd/Silver Chase Blvd
160,42.948313,-83.607349,Old Franklin Rd/N Georgetown Rd
160,43.173257,-83.534210,Hamill Rd
246,42.841025,-83.738035,/Lahring Rd
1071,42.974304,-83.679010,Greenly St/E Bristol Rd
185,43.080654,-83.773197,N Linden Rd
246,42.970058,-83.678874,Burton Ct
246,42.833387,-83.765051,Wood Duck Ct/Loon Harbor Ln
185,42.955603,-83.585281,Rolling Hills Dr
334,43.045764,-83.555352,Faulkner Dr/Ohara Dr
185,42.792455,-83.847203,Pleasant St
216,42.948981,-83.725931,Hill 23 Dr/Reo Dr
185,43.036373,-83.690371,North St/E Newall St
185,43.089753,-83.783869,Coldwater Rd
246,43.020968,-83.744357,River Herst Dr/River Oaks Dr
418,43.024580,-83.691088,Brookhollow Ct/Floyd J McCree Dr
160,43.038939,-83.688173,Baker St
185,43.106389,-83.598840,E Stanley Rd
305,42.896668,-83.668875,Balsam Ln/Meadowland Dr
160,43.065079,-83.701299,Harvard St/E Sherman Ave
216,42.831480,-83.782791,Hidden Ridge Trl/N Bridge St
334,43.065615,-83.655305,Western Rd/Arendal Dr
362,42.997100,-83.782588,Brobeck St/S Dye Rd
246,43.095398,-83.608170,Pine Tree Ln
246,42.912823,-83.652188,Bandon Dr/Green Valley Dr
762,42.944083,-83.678821,/E Hill Rd
334,42.885344,-83.729473,Baldwin Rd/Torrey Rd
418,43.042803,-83.645518,Leith St/N Averill Ave
334,43.017089,-83.697345,Foster Aly
185,43.049715,-83.660884,Richfield Trailer Park
160,43.221342,-83.747636,W Willard Rd/Dixie Hwy
552,42.807177,-83.721675,Westwood Dr/Woodbine Dr
276,42.828890,-83.725523,Malibu Ct
276,43.002061,-83.864935,Winfield Dr/Weldon Dr
276,42.785920,-83.812250,Swiss Dr/Hilltop Dr
390,43.023050,-83.728660,Orchard Ln
160,43.116837,-83.863003,Gillette Rd/Armstrong Ave
216,42.929215,-83.739326,Reid Rd
185,42.826032,-83.758689,E Rolston Rd
216,43.189254,-83.721265,Joel/Wallace Dr
185,42.951098,-83.617882,Jordan Dr/Bianca Dr
185,43.076913,-83.837454,Pinebrook Ct/Meadowbrook Ln
185,43.031230,-83.674454,Illinois Ave/Kearsley Park Blvd
305,43.082500,-83.730761,Cedar Shores Ct
246,43.097099,-83.604851,White Pine Ct
246,43.091034,-83.686581,I- 475
246,43.061970,-83.674798,Carriage Hills Mobile Home Park
390,43.053868,-83.727672,W Stewart Ave/Brownell Blvd
499,43.162799,-83.768330,W Wilson Rd/I- 75
276,43.055584,-83.770331,Shore Ln
160,43.015107,-83.719664,Perry St/Cartier St
185,42.962132,-83.727821,Will Jo Ln/Sheldon Ln
418,42.970150,-83.773091,Exchange Dr
526,43.017952,-83.683994,Nb Chavez Dr
362,42.944304,-83.665703,Antoinette Dr/Eastknoll Dr/E Hill Rd
160,42.963265,-83.669103,Schubert Ave/Jolson Ave
305,43.024798,-83.492789,Meridian Ct/Emerald Forest
276,43.015823,-83.458255,I- 69/S Washburn Rd
472,42.825855,-83.780123,E Rolston Rd/Andrea Ave
362,43.117220,-83.763573,/I- 75
1046,43.009713,-83.541050,Charter Oaks Dr
499,42.805064,-83.738472,Hogan Cir/Foley Glen Dr
160,43.041424,-83.672848,Dakota Ave/Olive Ave
185,43.079720,-83.685215,/E Downey Ave
276,42.942838,-83.761108,Wild Goose Dr
160,42.966718,-83.701025,Bristolwood Dr/Judd Rd
276,43.043783,-83.549544,Faulkner Dr/W Blarney Dr
246,43.011592,-83.672796,Avon St/Kennelworth Ave
418,43.066467,-83.837180,Gerald St
185,43.076736,-83.616783,N Genesee Rd
160,43.025685,-83.578287,Sugarbush Ct
160,43.180503,-83.714749,W Hurd Rd/Neff Rd
216,42.955475,-83.698297,Capri Ln/Roman Dr
185,42.930832,-83.690891,Rustic Ridge Trl
246,42.801307,-83.689782,Parkview St
246,43.016201,-83.663901,Calumet St/Lafayette St
390,42.927853,-83.691523,Fenton Rd
445,43.032338,-83.754046,Flushing Rd/I- 75
334,43.008936,-83.687923,Church St/Sylvan Ct
917,42.972686,-83.631205,Blackberry Creek
185,42.961106,-83.663522,Heilman St
418,43.058622,-83.722510,Kermit St/de Freest St
305,42.929966,-83.661936,E Reid Rd/Porter Rd
160,43.030745,-83.701084,Donald St/Mary St
216,43.061080,-83.690606,North St/E Pierson Rd
185,42.962164,-83.688744,Davenport Dr/Fair Oaks Dr
418,43.006903,-83.737844,Tacken St/W Court St
305,42.989314,-83.811807,Elms Rd
160,43.080952,-83.858980,Tahquamenon Trl/Chickasaw Trl
631,43.003654,-83.692791,I- 69
160,42.875924,-83.578235,Village Ct
276,42.785555,-83.714506,Vassar Dr/Parallel St
160,43.115659,-83.592924,Genesee County Parks Rd
305,42.796524,-83.695008,Orchard St/E Caroline St
362,43.029443,-83.733675,Wolcott St/Sutton Ave
472,43.020218,-83.684122,E Kearsley St/Nb Chavez Dr
305,43.039796,-83.645468,Delaware Ave/N Averill Ave
246,42.924384,-83.640259,Bedford Pl
362,42.970890,-83.662001,E Scottwood Ave
216,43.068855,-83.683651,I- 475/E Russell Ave
334,43.004913,-83.724122,Bradley Ave/Fielding St
305,43.057382,-83.713691,Dupont St/W Thackery Ave
246,43.118170,-83.669919,Hembera St/Ferhoodle St
246,43.032987,-83.658660,Levern St/Davison Rd
362,42.895657,-83.632424,Holly Rd/I- 75
160,42.959282,-83.736226,Charlemagne Dr/Knottingham Dr
246,42.942868,-83.790866,Hill Rd/Sharp Rd
216,42.807897,-83.728386,/North Rd
185,42.782390,-83.738634,W Shiawassee Ave/Vista Dr
185,42.913986,-83.636193,Horseshoe Ct
246,42.999637,-83.747947,Utley Rd
390,42.955545,-83.854323,Luea Ln
305,43.053985,-83.684394,Selby St/Division St/E Stewart Ave
246,42.915978,-83.588243,Dover Dr/Manchester Dr
526,42.991877,-83.705129,Cranbrook Cir
160,43.186035,-83.774380,N Linden Rd
246,42.799840,-83.752040,/Chateau du Lac Dr
1226,43.020097,-83.517721,S State Rd/Carol Mary Ln
160,42.883497,-83.578253,Golfside Dr/Sunrise Dr/Champion's Cir
185,43.045276,-83.746105,Northwood Dr
445,42.989943,-83.683283,S Grand Traverse St
160,42.811368,-83.750915,Cutler Dr/Silver Lake Rd
160,43.099119,-83.597509,N Belsay Rd/Lucas Rd
334,42.991749,-83.676723,Craighton Ct/S Saginaw St/Pickwick Dr
418,42.911046,-83.641837,Fox Chase Blvd/Quail Ln
276,43.191106,-83.873185,Virginia Dr
185,43.170553,-83.745249,Autumn Breeze Trl/Centennial Oak Ct
160,43.047867,-83.703486,Esther St/E Gillespie Ave
216,43.059346,-83.521818,Sycamore Ct/Pineview Ct/N Forest Creek Blvd
334,42.841039,-83.736518,US Hwy 23/Lahring Rd
631,42.990149,-83.713284,Van Slyke Rd
334,43.031356,-83.781779,Beecher Rd
305,42.905285,-83.603136,S Saginaw Rd
334,42.923446,-83.615678,Bella Vista Ct
445,42.918481,-83.729413,Crystal Lake
276,42.985770,-83.690464,Alvord Ave/Brunswick Ave
499,43.061789,-83.716053,W Ridgeway Ave/Baldwin Blvd
246,43.073793,-83.701385,Harvard St/E York Ave
160,42.914840,-83.657956,Stoney Pointe/Woodstone Dr
305,42.840793,-83.737640,/North Rd
160,43.039593,-83.796173,Pine Ridge Ct
658,43.011756,-83.660292,I- 69
160,42.912824,-83.885736,/W Grand Blanc Rd
216,43.047875,-83.706972,W Gillespie Ave/Robin St
276,43.035354,-83.731906,Helber St/Seneca St
185,43.040791,-83.633141,Rhea St/Glade St
276,43.003335,-83.732209,/Hubbard Ave
445,42.960848,-83.810565,Bellwood Dr/S Valley Dr
216,43.042396,-83.773772,N Linden Rd
216,42.912797,-83.841371,W Grand Blanc Rd
3225,42.920902,-83.621656,S Saginaw Rd
1772,43.033230,-83.635360,N Center Rd/Davison Rd
418,43.073382,-83.657230,Riverridge Ct/Milliken Way
185,43.075259,-83.720991,W Carpenter Rd
736,42.941909,-83.725322,Hill 23 Dr
185,43.026962,-83.603631,Arnold Dr/Clairwood Dr
216,43.182199,-83.730859,Butler St/Cherry St
185,42.976238,-83.613698,S Genesee Rd
160,42.906581,-83.610950,Tree Hill Rd/Old Plank Rd/Candlewood Dr
185,43.003628,-83.664012,/Lippincott Blvd
185,42.795962,-83.725943,N Fenway Dr/Fenton Cir
216,43.065429,-83.526300,Horizon Dr/Sunrise Ln
305,43.001243,-83.667841,Aitken Ave
160,42.788694,-83.716560,Wisperwood Trl
185,42.829652,-83.728040,Julie Anne Ct/Torrey Rd
276,42.963552,-83.780029,Hansen Dr/Wheatland Dr
276,42.815034,-83.711543,Glenwood Ave
160,43.001937,-83.686626,Morley Ave/Oak St
185,42.960218,-83.690271,Maple Grove Trailer Park
160,43.183069,-83.814196,Elms Rd
185,42.940343,-83.577484,Sanctuary Pointe Ct
185,42.798735,-83.698315,1st St/Thurber St
160,43.145976,-83.690249,Flint Memorial Park
246,42.984033,-83.702489,Huckleberry Ln/Greenbrook Ln
334,43.001929,-83.676424,Gary St/Orville St
390,42.801728,-83.687919,Andover Woods Dr
418,43.074187,-83.723515,Fleming Rd
246,43.013763,-83.639635,I- 69
160,42.998711,-83.652969,A & I
334,42.987284,-83.688099,Camden Ave/Leland St
418,43.015831,-83.697012,N Grand Traverse St/Riverbank Dr
1046,43.022590,-83.670939,Gorman Dr
472,43.010352,-83.673034,Lapeer Rd
185,43.022380,-83.753832,Townview Dr/Dale View Dr
917,42.942650,-83.723683,US Hwy 23
418,43.018027,-83.641253,Rangeley Dr
276,42.782302,-83.743219,Shiawassee Ave
216,43.019889,-83.584226,I- 69
216,42.903770,-83.759461,Spike Ct/Drake Dr
418,43.068423,-83.617982,S Hillcrest Cir/N Hillcrest Cir
216,43.048424,-83.713488,Dupont St/Sonny Ave
579,43.021851,-83.669114,Presidential Ct
185,42.956139,-83.802971,Woodbridge/Creekside Dr
499,43.030511,-83.761254,Brendenshire Ct
579,43.002399,-83.732232,Hubbard Ave/Corunna Rd
526,43.089741,-83.763180,Coldwater Rd/I- 75
246,42.989819,-83.625788,Green Pine Dr
445,43.051249,-83.618253,Comer St/Richfield Rd
472,43.051213,-83.621453,Richfield Rd
579,42.979466,-83.676657,Norton St/Morrison St
160,43.061241,-83.684405,Selby St/E Pierson Rd
185,42.914237,-83.575432,Withers Way Ct
185,42.914962,-83.502808,Kearsley St/Park Dr
390,42.985457,-83.730673,I- 69
216,42.781849,-83.770724,Coach Light Dr
246,43.022971,-83.508803,Locust Dr/Juniper Dr
445,42.789896,-83.728915,Industrial Way/Owen Rd
276,43.107224,-83.757666,Acorn Cir/White Oaks Blvd
305,42.999884,-83.721599,Bradley Ave/Chicago Blvd
160,43.082669,-83.755423,Millwood Dr
276,42.989278,-83.646593,E Atherton Rd/Kleinpell St
246,42.981827,-83.663258,Red Arrow Rd/E Hemphill Rd
362,43.025644,-83.735863,Flushing Rd/Sutton Ave
185,43.105708,-83.760737,Branch St/W 51st St
160,43.134263,-83.700609,W Frances Rd
276,42.940362,-83.581042,Pearl Ct
216,42.885454,-83.720680,Baldwin Rd
1693,43.018714,-83.629227,E Court St/Commerce Pkwy
160,42.804001,-83.696340,Cherry Blossom Dr
605,43.046706,-83.699980,E Pasadena Ave/Marvin St
216,42.910851,-83.502250,Mill Pte Ct
418,43.006095,-83.738996,Zimmermann St/Sunday St
631,43.000099,-83.653822,Mitchell St/S Dort Hwy
499,43.028687,-83.773013,Walnut Square Blvd/Walnut Tier St
445,43.060711,-83.723634,W Pierson Rd/Fleming Rd
526,42.973574,-83.721277,/W Bristol Rd
305,43.006910,-83.735165,Salisbury Ave/Minnie St/W Court St
185,42.985469,-83.554655,Irish Rd
160,43.089394,-83.828388,Coldwater Rd/Johnson Rd
605,43.096359,-83.705405,Palmetto Dr/Cypress Dr
276,43.146545,-83.660092,Lyle Meadow Ln
334,43.079617,-83.694073,N Saginaw Rd/E Downey Ave
216,43.046303,-83.718479,W Pasadena Ave/Proctor Ave
305,43.013340,-83.488340,I- 69
160,42.827982,-83.755599,Judith Ct
246,42.980490,-83.694087,Ronald St/Hull Ave
276,43.011401,-83.729305,Brentwood Dr/Westcombe Ave
160,42.846602,-83.711752,Windsor Beach Dr
499,43.067234,-83.852719,Coutant St/McKinley Rd
160,42.913270,-83.601985,Leach Ln
216,42.818359,-83.782441,N Bridge St/Blythe Ave
445,43.118941,-83.764376,/W Mount Morris Rd
445,42.991155,-83.775332,Newport Dr/Riske Dr
579,42.989035,-83.708933,Timberlane Dr/Balfour Ct
185,43.206446,-83.734796,N Clio Rd/W Lake Rd
160,43.050350,-83.523621,Hickory Hollow Ct
185,42.973343,-83.628985,Blackberry Creek
276,43.010210,-83.723722,Bradley Ave/Pencombe Pl
499,43.017894,-83.575742,I- 69
185,42.910598,-83.701792,Loon Ln/Hidden Ponds Dr
362,42.899904,-83.622960,Winchester Dr
390,43.173193,-83.759193,McCord Dr
418,43.031217,-83.768378,/Beecher Rd
185,43.033617,-83.587097,Eastmoreland Dr/Davison Rd
710,42.789388,-83.696678,E South Holly Rd/Mill Pond Dr
160,42.906916,-83.633515,Rondale Dr
185,42.993108,-83.616135,Robindale Dr/Shadycroft Dr
276,42.996608,-83.675388,Oliver St
185,42.927688,-83.697320,Brittwood Ln
2009,42.998495,-83.772080,Taft Rd/
334,42.791695,-83.709491,Henry St
605,43.022460,-83.596377,E Court St N
526,43.019776,-83.685068,/E Kearsley St
276,42.967882,-83.675702,Morrison St/E Williamson Ave
246,43.003600,-83.665960,Blades Ave/Lippincott Blvd
185,43.098412,-83.733842,/Clio Rd
334,43.012004,-83.715622,St Clair St/University Ave
185,42.913426,-83.582356,Canter Creek Trl
160,43.074676,-83.656398,W Boulevard Dr/Bray Rd
305,42.905120,-83.606170,Tree Hill Rd/Territorial Rd
160,42.902300,-83.597532,Idle Hour Ct
216,42.882890,-83.478067,S State Rd/Horton Rd
246,43.013608,-83.703138,Stevenson St
334,42.996626,-83.675731,I- 475
185,43.042343,-83.707845,Mason St/W Dartmouth St
276,43.130168,-83.687466,Haven St
334,42.963672,-83.708430,Williamsburg Rd
185,43.024946,-83.719153,N Chevrolet Ave/Wolcott St
658,43.003371,-83.583141,Hickory Hollow
1226,43.009167,-83.540754,Charter Oaks Dr
334,42.784342,-83.751788,Carrie Ln/Silver Landings Dr
334,42.794135,-83.700733,Riggs St
445,42.787616,-83.716250,Vassar Dr
499,43.057984,-83.733159,Clio Rd/Kelly Aly
334,43.045441,-83.713443,W Dewey St/Dupont St
334,42.988400,-83.774682,Bristol Ct/Newport Dr
362,43.019668,-83.601101,I- 69
216,42.923264,-83.637727,Kingsley Rd/Huntington Rd
160,43.027626,-83.710860,Begole St/Jean Ave
160,43.055413,-83.842053,Krystal Creek Ct
362,42.991972,-83.638135,Marion Blvd/Agate Ct
185,43.047715,-83.856029,Beech Tree Ln/Beech Tree Ct
418,43.177157,-83.814112,W Vienna Rd/Elms Rd
788,42.998682,-83.704347,/I- 69
160,43.038027,-83.695759,E Dayton St/Chippewa St
390,42.942725,-83.610958,Fountain Pointe
579,42.961916,-83.847748,Ashley Cir/Hamilton
276,43.069025,-83.852768,Circle Dr/McKinley Rd
185,42.974864,-83.601366,Day St/Montcalm St
1956,43.024829,-83.682020,Sb Chavez Dr/5th Ave
216,43.052584,-83.632864,Delaney St
472,42.942309,-83.686184,Wagon Wheel Ln/Wedgewood Dr
276,42.989002,-83.670598,E Atherton Rd
472,42.938332,-83.665060,Fox Hill Dr
185,43.028393,-83.522855,W Rising St
246,43.175582,-83.735987,S Railway St/W Johnson St
334,42.927924,-83.692133,W Reid Rd
445,42.942733,-83.610464,Fountain Pointe
362,42.790184,-83.750076,Split Rail Ln/Amberwood Ln
216,42.955114,-83.653156,S Dort Hwy/Kuzych Dr
276,43.050870,-83.648355,Richfield Rd
276,43.001207,-83.719999,Gainey Ave/Cumings Ave
160,43.068757,-83.698904,E Russell Ave/Summit St
185,42.942072,-83.698344,Bedford Rd/Alton Rd
276,43.022991,-83.741251,Kissner Ave
216,42.965202,-83.914893,Elmwood Dr/Hickory Ln
762,43.002050,-83.765444,/Corunna Rd/Maxwell Dr
445,42.905552,-83.727573,US Hwy 23
305,43.016131,-83.733510,/Sunset Dr
216,42.904988,-83.760299,Erindale Ct/Stagghorn Dr
160,43.120638,-83.825995,103rd St
305,43.046325,-83.714479,W Pasadena Ave/Race St
160,42.937604,-83.697165,Bedford Rd/Woodnoll Dr
334,43.042756,-83.656540,N Dort Hwy/Leith St
185,43.064106,-83.685922,Osceola Ave/Clyde Ave
246,43.076696,-83.693574,Holtslander Ave
334,43.061606,-83.660180,E Boulevard Dr
185,43.011441,-83.727864,Allendale Pl/Sherwood Dr
276,43.016520,-83.786736,Dye Krest Dr/Calkins Rd
160,42.994144,-83.673082,Collingwood Pkwy/Madison Ave
160,42.837131,-83.802990,Hogan Rd
276,43.061811,-83.709553,W Ridgeway Ave/Woodbine Dr
160,42.824571,-83.731855,Landings Way
499,43.013982,-83.812316,Elms Rd
185,43.012246,-83.803571,Stonehenge Rd
305,42.998060,-83.720092,Bradley Ave/Miller Rd
216,43.126648,-83.708209,Santa Barbara Dr/Nixon Ave
185,43.126853,-83.672987,Cunningham St/Waltham Dr
185,43.023496,-83.579404,Saddle Ct/Peach Blossom Cir
334,42.919296,-83.643339,E Grand Blanc Rd/Hospers St
160,43.052112,-83.696224,Foster St/Damon St
445,43.169919,-83.734517,Clio Rd/S Mill St
160,42.884417,-83.592121,Braemoor Dr/Aberdeen Dr
185,43.071014,-83.852801,Hamm Ln/McKinley Rd
305,43.019352,-83.639796,S Dexter St/Lee St
472,43.009410,-83.726787,Sheffield Ave/Brentwood Dr/Crestwood Dr
710,42.813455,-83.707429,Fenton Commons Ln/N Leroy St
216,42.950286,-83.656709,S Saginaw Rd/Wildwood Circle Dr
276,43.018437,-83.555737,/S Irish Rd
185,43.116619,-83.928922,Sheridan Rd
579,43.083378,-83.694139,N Saginaw Rd/E Cornell Ave/N Cornell Ave
185,43.047882,-83.698837,E Gillespie Ave/Buick St
445,43.043835,-83.715095,McClellan St/Keyes St
185,43.008975,-83.813904,Saratoga Dr
276,43.105847,-83.755901,E 51st St/Leaf Cir
246,43.051137,-83.629357,Eckinger St/Richfield Rd
216,42.998747,-83.787211,Westchester Dr/Elmsford Dr
160,43.063248,-83.535711,E Richfield Rd
246,43.028732,-83.777619,Forest Side Dr/Chissom Trl
160,43.051182,-83.786749,Brentfield Dr
276,42.987134,-83.798140,W Lennon Rd
246,43.044822,-83.704609,Detroit St/E Jamieson St/W Jamieson St
185,43.122797,-83.824602,Kings Row Ln/107th St
185,42.958790,-83.737705,W Maple Ave
362,42.989495,-83.688260,Camden Ave/Waldman Ave
185,43.031079,-83.802248,Sun Valley/Beecher Rd
418,42.809020,-83.779642,Creekwood Cir
246,43.038460,-83.556699,New Hampshire Dr/Irish Rd
185,43.001700,-83.687021,Morley Ave
276,42.899431,-83.623561,Grand Ave/Ramsgate Ct
362,43.031827,-83.704167,Detroit St/Stockdale St
499,42.999642,-83.707258,Hammerberg Rd
246,42.782302,-83.829074,Hartwood Dr
216,43.074229,-83.825654,Birchwood Dr
246,42.972485,-83.698620,W Boatfield Ave
160,42.999801,-83.642400,S Term St/Farley St
334,42.784819,-83.746083,Chinkapin Rill/S Jennings Rd
246,43.008523,-83.687440,Church St/W Seventh St
305,42.940622,-83.672228,Crestwood Memorial Cemetery
1903,42.789658,-83.741440,Owen Rd
185,42.802715,-83.696295,Cherry Blossom Dr
658,43.000784,-83.645136,Trout Dr/Devon Ln
334,42.991980,-83.744363,Nerredia St/Mayor Ct
185,43.092572,-83.607169,David Ct/Estate Dr
185,43.176464,-83.736318,S Railway St/W Young St
185,43.166113,-83.719046,Aspen Ln W/Hickory Ln
762,42.971538,-83.630817,Blackberry Creek
605,43.020914,-83.709605,8th Ave/Stevenson St
334,43.036153,-83.703303,E Hamilton Ave/Adams Ave
160,43.162818,-83.729938,White Oak Dr/W Wilson Rd
246,43.029260,-83.730609,Prospect St/Donaldson Blvd
658,42.815961,-83.782332,N Bridge St
276,42.905137,-83.680187,Valley View Ct
160,42.946935,-83.666737,Mary Ann Ct
216,42.982236,-83.687876,Markham St/Camden Ave
185,43.035363,-83.690405,North St/E Hamilton Ave
362,43.073923,-83.684658,Selby St/E York Ave
160,42.955998,-83.681283,Chancellor Ct/W Suffolk Ct
390,43.000827,-83.729244,Brown St/Stocker Ave
160,43.017552,-83.519831,Linda Dr/Rayna Dr
185,43.036554,-83.538792,Oak Cliff Blvd/Turtle Creek Dr/W Ridge Dr
418,43.030811,-83.812732,N Elms Rd/Beecher Rd
160,43.003802,-83.650123,/Lippincott Blvd
160,43.004701,-83.720295,Gibson St/Farnum Ave
160,43.146721,-83.734206,Clio Rd
216,43.141350,-83.694142,Concord St/Morgan Dr
305,42.987501,-83.748296,Ross Ave/Lennon Rd
216,42.971266,-83.771840,Linden Rd
160,43.032578,-83.679597,Ridge St/Lingle Ave
472,43.100118,-83.694251,/N Saginaw Rd
216,43.038578,-83.664260,Roseland Ave/Maplewood Ave
216,43.038635,-83.527363,Gary Ray Dr/Oda St
160,42.966852,-83.692730,W Judd Rd/Fenton Rd/E Judd Rd
276,43.061331,-83.677318,I- 475/E Pierson Rd
362,42.944008,-83.724048,US Hwy 23/Hill Rd
160,43.159730,-83.731100,Leann Dr
605,43.002565,-83.724944,Corunna Rd/Clancy Ave
390,43.007850,-83.634607,Kent St/S Center Rd
216,43.015200,-83.785409,Oaktree Dr
334,43.019327,-83.713441,Flushing Rd/Perry St
160,42.973443,-83.753433,W Bristol Rd
185,43.040796,-83.707799,Mason St/W Taylor St
658,42.819228,-83.727488,US Hwy 23
185,42.981713,-83.673049,Bryant St/E Hemphill Rd
160,42.982169,-83.628273,Meadowlark Ln
334,43.020630,-83.494609,Emerald Forest
216,43.160416,-83.529764,Cherry Hill Ct
160,43.214412,-83.814440,Elms Rd
246,42.998819,-83.744587,Nerredia St/Arlene Ave
362,42.943542,-83.671860,Crestwood Memorial Cemetery
160,42.837764,-83.745918,Regis Dr/S Jennings Rd
246,43.062253,-83.823976,Oakwood Dr/Robinwood Ct/Robinwood Dr
216,43.038278,-83.665219,N Franklin Ave/Belle Ave
185,42.793538,-83.775600,Valcrest Dr/Pine Lake Forest Dr
276,43.152946,-83.734311,Clio Rd/Meadowbrook Ln
160,43.052190,-83.826969,Longview Dr
276,43.179380,-83.897468,Helen/Clark St/Helen St
499,42.797826,-83.696106,Main St/Center St
305,42.995112,-83.685790,Barrie Ave/Euston St
499,43.175589,-83.768889,I- 75
605,42.979252,-83.773426,/Norko Dr
334,43.060662,-83.737697,W Pierson Rd
276,43.123892,-83.827226,Prairie Ave/112th St
216,42.987376,-83.668349,Burroughs Ave/Custer Ave
216,43.037357,-83.811844,Flagstone Dr/Stonebrook Ln
362,43.050445,-83.721449,Forest Hill Ave/W Myrtle Ave
160,42.916755,-83.656449,Valley Ln
160,42.927799,-83.703583,Windridge Ln
216,43.120182,-83.793786,N Webster Rd
362,42.935298,-83.639382,S Saginaw Rd/Gm Plant
246,43.070667,-83.722472,Parkbelt Dr/Bellcreek Dr
160,42.998970,-83.693162,Fenton Rd
160,42.999529,-83.692299,Jarvis St
246,42.808909,-83.787954,Stan Eaton Dr/Hyatt Ln
160,43.047075,-83.679873,Massachusetts Ave/St John St
334,42.979580,-83.811579,Elms Rd
305,42.928484,-83.628286,Woodbridge Dr/Hazel Ave
160,42.889518,-83.596917,Coral Ridge Dr/Oakmont Dr
160,42.939097,-83.775676,Springline Dr/Wyndemere Sq
246,43.002871,-83.590241,Sandy Ln/Valley Forge
305,42.996094,-83.705351,/Hammerberg Rd
390,42.964246,-83.870146,S Van Vleet Rd
276,43.057847,-83.817946,Diane Dr/Riverview Blvd
246,43.049342,-83.648532,Sunridge Dr/Twilight Dr
736,43.022735,-83.681257,Manning Ct/Crapo St
216,43.036493,-83.677622,Lyman Ct/Lyman St/Mabel Ave
445,43.016615,-83.683525,E Third St/I- 475
246,42.820979,-83.778751,Aldrich St/Murphy St
762,42.923678,-83.629861,Davis St/Bush St
390,42.918392,-83.507987,Erie St/Pontiac St
762,42.914674,-83.611281,Charing Cross Dr
684,43.002061,-83.762275,Corunna Rd/Dutcher Rd
246,43.066293,-83.833456,Chestnut St
246,42.906545,-83.624638,Timberlane Ct
334,42.937269,-83.651428,S Dort Hwy/Gm Plant
552,43.070595,-83.616581,N Genesee Rd/Daly Blvd
246,43.066496,-83.750778,Oconner Rd/Hobson Ave
160,42.906260,-83.769791,Linden Rd
160,42.913858,-83.614380,Ravenwood Dr
418,42.983615,-83.674802,Poe St/S Saginaw St
216,43.068300,-83.731850,Allison Dr/Barbara Dr
216,43.067176,-83.666568,Holiday Village Mobile Park
658,42.790352,-83.702773,S Pine St/E South Holly Rd
185,43.144708,-83.734189,Clio Rd
185,43.165746,-83.719047,Aspen Ln W
362,43.033732,-83.656457,Torrance St/Churchill Ave
276,43.066767,-83.728555,Oxley Dr/W Hobson Ave
390,43.025973,-83.503642,/E Clark St
710,43.015175,-83.680557,Lapeer Rd/Fifth St/E Fifth St
552,43.019711,-83.747964,Rue Foret
276,43.078318,-83.815438,Carpenter Rd/Blossom Dr
276,42.961570,-83.732098,Torrey Rd
185,43.038103,-83.650377,Branch Rd/Risedorph Ave
246,42.903391,-83.690569,Fenton Rd/Holly Spring Ln
246,43.039004,-83.645465,Beechwood Ave/N Averill Ave
160,42.895604,-83.690042,Rio Dr/Ann Maria Blvd
276,43.060952,-83.709785,W Pierson Rd/Longfellow Ave/Woodbine Dr
499,43.117955,-83.692385,Church St/South St
305,42.931605,-83.669640,Coral Dr/Wailea Dr
246,43.177744,-83.706296,W Vienna Rd
216,43.013813,-83.708113,McAras Ct
246,43.099453,-83.607886,Indian Hills Trl
305,42.997834,-83.675090,/I- 475
362,42.912980,-83.615690,Pepperwood Dr/Hawkcrest Dr
246,42.982997,-83.800223,Derby Ln
216,43.045355,-83.668288,Minnesota Ave/Wyoming Ave
185,43.121053,-83.687434,Maginn Ct
185,42.803049,-83.821049,Lobdell Rd/Silver Lake Rd
160,43.089439,-83.833350,Coldwater Rd
246,43.009876,-83.555423,Irish Rd
276,42.912377,-83.642595,Grey Fox Ct/Quail Ln/Quail Ct
185,42.912542,-83.640293,Red Fox Ct/Fox Chase Blvd
160,43.064043,-83.753179,W Mott Ave/N Jennings Rd
305,43.007578,-83.644251,S Averill Ave/Kent St
334,43.077134,-83.597113,N Belsay Rd/Hopkins Rd
185,42.806165,-83.717694,Elmwood Dr/Westwood Dr
390,42.951680,-83.929823,Sheridan Rd
160,43.002231,-83.705721,Segoquen Trl
185,43.028260,-83.685425,James P Cole Blvd/Merrill St
684,42.948409,-83.737609,Revolution Ln/Oppression Ln
160,43.057590,-83.688492,Roberts St/Wager Ave
445,42.793021,-83.712132,West St/Grant St
185,42.822946,-83.709975,Moffett Dr
160,42.865552,-83.754842,Vantage Point Dr
246,43.084929,-83.706356,Detroit St/W Yale Ave
526,43.059388,-83.729528,Cloverlawn Dr/Roselawn Dr
185,42.997026,-83.680583,W Oakley St/Dawson St
216,42.978337,-83.811554,Elms Rd
390,42.974237,-83.723835,David St
185,43.069478,-83.698897,E Austin Ave/Summit St
2596,43.012264,-83.634680,/S Center Rd
276,42.806617,-83.703758,Whispering Pines Dr
216,43.043961,-83.627989,Thom St
362,43.002881,-83.584270,Cranes Cove
305,43.002270,-83.681071,Church St/Partridge St
185,42.930373,-83.586936,Glen View Ln
160,42.985486,-83.923751,W Lennon Rd
1046,42.983183,-83.753241,Ketzler Dr/Miller Rd
160,43.042650,-83.861769,N Seymour Rd
246,42.810867,-83.799447,River Oaks Blvd/Silver Lake Rd/Restwood Dr
710,43.033174,-83.665175,N Franklin Ave/Flint St
160,43.067902,-83.669807,Ave C/Ave B/Holiday Village Mobile Park
246,42.991292,-83.705583,Cranbrook Cir/Bayberry Ln
160,42.998023,-83.744555,Nerredia St/Herrick St
605,42.947025,-83.652651,S Dort Hwy/Mott Hts
185,42.912756,-83.633460,Bridle Path/Hunt Club Dr
185,43.000416,-83.754317,Pound Dr/Brown St
445,42.955072,-83.671524,Wishing Well Dr
160,42.909979,-83.710751,Hidden Cove Ct
390,43.033745,-83.519224,W 4th St/N Genesee St
160,43.035370,-83.686165,E Hamilton Ave
2009,43.060570,-83.769397,W Pierson Rd/
710,42.943881,-83.731744,Hill Rd/Torrey Rd
579,43.046216,-83.732612,Pasadena Ave/W Pasadena Ave/Clio Rd
246,43.120124,-83.671215,Loch Loma Dr/Blair St
160,43.007169,-83.866042,Crafton Dr
710,43.046385,-83.704650,Detroit St/W Pasadena Ave/E Pasadena Ave
579,42.980456,-83.682258,/I- 475
276,42.948275,-83.676853,Fairview Dr/Norfolk Ave
305,43.096355,-83.714041,Neff Rd/Titan Dr
390,43.038941,-83.777793,Flushing Rd
362,43.086198,-83.721907,Rosenfield Dr/Mendel Berger Dr
160,43.050046,-83.606352,Dot Ave
362,43.122260,-83.697772,Garfield Ave/N Washington Ave
160,43.147950,-83.827022,/W Dodge Rd
472,43.054690,-83.726024,Castle Ln/Warrington Dr
160,42.995518,-83.673019,Collingwood Pkwy/E Eddington Ave
362,43.026134,-83.635073,N Center Rd
160,43.120078,-83.825258,102nd St/Kings Row Ln
216,43.055898,-83.687445,Black Ave/Industrial Ave
160,42.972942,-83.757574,W Bristol Rd
418,43.053956,-83.689515,Carlton St/E Stewart Ave
185,43.047852,-83.697542,Mildred St/E Gillespie Ave
334,42.952284,-83.669557,Russell St
246,43.076084,-83.665856,N Webster Rd/E Carpenter Rd
216,42.943609,-83.756202,Hill Rd/Crooked River Dr
390,43.115177,-83.861126,Apollo Ave/Armstrong Ave
499,43.007502,-83.639553,Evergreen Pkwy
552,42.954208,-83.831861,Morrish Rd
305,43.032006,-83.496607,Walnutwood Dr/Blackwood Dr
334,42.899712,-83.503429,Shinanguag Dr
418,42.965236,-83.913750,Hickory Ln
185,43.155735,-83.773961,N Linden Rd
276,42.938066,-83.667295,Westknoll Ct
160,43.037468,-83.738689,Helber St
631,43.060726,-83.753104,W Pierson Rd/N Jennings Rd
160,43.186721,-83.714786,Morgan Rd/Neff Rd
160,43.191973,-83.744536,/W Farrand Rd
160,43.027561,-83.809024,Santa Fe Trl/Hickory Hollow Dr
185,42.994508,-83.762636,Dutcher Rd
418,43.055117,-83.693763,N Saginaw Rd/E Eldridge Ave
185,43.183345,-83.896524,Cregor Dr
390,43.116328,-83.704142,Read Ave/Spruce St
472,43.020475,-83.681093,Avon St
246,43.046370,-83.654236,Douglas Ave/Arizona Ave
362,42.985616,-83.702127,Crestbrook Ln/Berrywood Ln
276,42.955560,-83.680318,Chancellor Ct
305,43.011673,-83.517454,S State Rd/I- 69
305,43.051694,-83.823409,Woodvalley Dr/Longview Dr
160,43.221691,-83.668710,Willard Rd
631,42.819238,-83.726867,Torrey Rd
418,43.067476,-83.682333,E Home Ave/Horton Ave
246,42.898056,-83.491277,/S State Rd
185,42.989319,-83.643713,E Atherton Rd
762,43.009482,-83.690546,W 5th St/S Grand Traverse St
160,42.897204,-83.620910,Hastings Dr
658,42.953065,-83.840808,Cappy Ln/Fairchild St
185,42.806689,-83.838958,Cole Rd/Seymour Rd
334,43.001175,-83.668858,Lakeside Ave/Howard Ave
246,43.008574,-83.601666,Denies St/Roberta St
160,43.031995,-83.805276,Kings Ct/Royal Club Dr
579,43.069083,-83.829097,Clearview Dr/Luce Ave
160,42.887093,-83.582897,Golfside Ct
305,42.935534,-83.583662,Moonstone Dr/Emerald Dr
185,43.062573,-83.793585,Eagles Nest Ct
362,42.941009,-83.667998,Village Dr/Eastknoll Dr
160,42.981270,-83.640409,Alpena St
658,42.994198,-83.721214,Hampden Rd/Westwood Pkwy
418,43.047874,-83.599921,E Potter Rd/Gehring St
710,42.986945,-83.735363,I- 75
2168,43.032464,-83.635346,Marmion Ave/N Center Rd
185,42.808765,-83.704093,Granger/Wass St
246,43.005311,-83.731246,Mann Hall Ave/Barney Ave
305,43.105863,-83.696848,Lucharles Ave/Estrelle St
185,43.033317,-83.678096,Lyman St/Davison Rd
246,42.904873,-83.659007,Crossbow Ct
185,43.041953,-83.654348,Douglas Ave/Oklahoma Ave
160,42.913844,-83.637204,Saddle Dr/Saddle Ln
917,42.908871,-83.627039,Industrial Park Dr/Holly Rd
418,43.063402,-83.714033,W Lyndon Ave/Dupont St
362,42.920826,-83.687933,Thornridge Dr
185,43.102153,-83.612734,Chochise St
185,43.018477,-83.649752,E Court St
160,42.810064,-83.775257,Amelia Earhart Dr/Poberezny Ct
185,43.009319,-83.697181,Hall St/Watson St
185,42.998317,-83.731088,Barney Ave/Herrick St
160,42.937567,-83.770944,Wyndemere Dr/Linden Rd
160,42.992834,-83.779116,Mallison Ave/Darby St
185,42.834300,-83.702072,Fenton Rd/Butcher Rd
276,42.942329,-83.551101,Fairway Ln
788,42.996949,-83.683552,W Oakley St/S Grand Traverse St
185,43.064285,-83.701305,Harvard St/E Mott Ave
185,42.811730,-83.801924,Oak Leaf Trl
891,42.916940,-83.680042,Winding Ridge Dr/Troutwood Dr/Heatherwood Dr
160,42.932097,-83.571490,Mancour Dr
276,42.796086,-83.762287,Pavilion Dr/Pavilion Ct
185,42.815949,-83.764455,Saddlebrook Dr
276,43.024539,-83.579178,Stirrup Ct/Peach Blossom Cir
216,43.028435,-83.689606,Columbia Cir/Columbia Dr
334,43.026218,-83.522058,Harvey Dr
334,43.172004,-83.733008,Clay St
631,42.987027,-83.735709,I- 75
246,42.941533,-83.617039,Rocking Chair Rd
185,42.920112,-83.509721,Cedar Ct/Creekside Dr
362,43.115624,-83.704169,Read Ave/Oak St
185,43.100552,-83.617262,Indian Hills Trl/N Genesee Rd
276,43.011043,-83.710567,N Chevrolet Ave/Hasselbring St
160,43.220623,-83.902272,W Willard Rd
246,43.064049,-83.745778,Hunter Rd/W Mott Ave
160,43.034598,-83.788475,Walnut Creek Dr/Sycamore Ln
160,43.038296,-83.738859,Emerson St/McCollum Ave
1511,42.901489,-83.630247,E Cook Rd/Holly Rd
160,42.931536,-83.572903,Vassar Rd/Mancour Dr
305,42.998014,-83.725750,Knight Ave/Chicago Blvd
160,42.853874,-83.701338,Cristina Dr
526,43.031524,-83.677658,I- 475/Cesar Chavez Dr
334,43.034145,-83.677589,Broadway Blvd
499,43.001398,-83.644709,Trout Dr/Deer Ln
362,42.954057,-83.634776,Towne Hill Dr/Dunn Hill
305,43.029585,-83.719033,Milbourne Ave/Mallery St
362,43.025015,-83.733657,Flushing Rd/Donaldson Blvd
160,43.107110,-83.622432,Stanley/Russell St
216,43.103711,-83.813599,Stanley Rd/Elms Rd
472,42.944128,-83.717089,Hill Rd/Birch Dr
160,43.092231,-83.544539,Brown Rd/E Coldwater Rd
185,42.791502,-83.711447,S West St/W Rockwell St
246,43.045663,-83.654203,Douglas Ave/Wyoming Ave
526,42.994925,-83.773138,Valley Oaks Dr
762,43.123387,-83.694479,N Saginaw Rd/Jefferson St
418,43.116435,-83.697572,Washington Ave/Spruce St
216,43.021102,-83.496799,Emerald Forest
362,43.040020,-83.713255,Dupont St/W Rankin St
216,42.789280,-83.763619,Owen Rd/Northshore Dr
362,43.042888,-83.676322,I- 475/Leith St
160,42.910332,-83.550028,McCandlish Rd
445,42.981923,-83.655505,Cheyenne Ave/E Hemphill Rd
472,43.002551,-83.725936,Knight Ave/Corunna Rd
276,42.904473,-83.763588,Woodcreek Ct/Pondview Dr
160,42.931382,-83.455687,E County Line
160,43.020362,-83.774954,Heatherwoode Rd/Dyemeadow Ln
334,42.984664,-83.706265,Crestbrook Ln/Greenbrook Ln
160,43.073030,-83.665786,Joseph St/Jewell Dr/N Webster Rd
160,43.175308,-83.709582,Elm St
362,43.064870,-83.616413,Berneda Dr/N Genesee Rd
160,43.021530,-83.805672,Covered Wagons Trl/Old Timber Trl
160,43.040055,-83.662476,N Vernon Ave
334,43.017232,-83.703781,University Dr/Prospect St
216,42.943844,-83.735074,Hill Rd
276,42.802984,-83.699172,6th St/N Lemen St
362,42.984509,-83.692960,Huron St/Fenton Rd
418,42.995800,-83.733103,Hogarth Ave/S Ballenger Hwy
246,43.074696,-83.850822,W Carpenter Rd/Highlane Ave
788,42.988868,-83.682652,W Atherton Rd/I- 475
276,42.926325,-83.612752,Applegate Ln/Genesee Rd
710,42.986071,-83.692964,Fenton Rd/Crawford St
865,42.989496,-83.739031,Miller Rd
216,43.046683,-83.578552,Whisper Ridge Ct/Whisper Ridge Dr
472,43.024274,-83.687764,James P Cole Blvd
160,42.803416,-83.889774,Longfellow Dr
160,42.940579,-83.575700,Sanctuary Pointe Dr
216,42.891203,-83.693456,Greenfield Ct
160,43.075650,-83.699008,E Carpenter Rd/Summit St
216,42.967114,-83.678445,E Judd Rd/Greenly St
216,43.007529,-83.693272,Carrill Ct/Ann Arbor St
334,43.086606,-83.685880,E Harvard Ave/Horton St
160,43.063440,-83.682521,/E Ridgeway Ave/Horton Ave
246,42.929637,-83.671477,Maui Dr/E Reid Rd
216,43.015029,-83.536490,Chatwell Club Ln/S Gale Rd
160,42.967492,-83.805268,Tallmadge Ct
390,42.999371,-83.749370,I- 75
216,42.939906,-83.765261,Nottingham Dr/Coventry Dr
390,42.901120,-83.732675,US Hwy 23
276,43.010687,-83.754093,Gilbert St/S Graham Rd
216,43.025618,-83.671553,Robert T Longway Blvd
185,43.065101,-83.823704,Cedarwood Dr/Oakwood Dr
185,43.028925,-83.685256,James P Cole Blvd/E Wood St
160,42.946450,-83.582349,Stockbridge Commons Trl/E Hill Rd
605,43.033134,-83.640337,N Dexter St/Davison Rd
390,42.962170,-83.807310,Estate of Genesee Village/Canary Dr/Sparrow Dr
185,43.120497,-83.682423,Howard St
276,42.933283,-83.573380,Brookview Dr
246,42.789275,-83.764279,Owen Rd
160,42.995923,-83.638690,Byers St
185,42.973913,-83.657955,E Whittemore Ave
334,42.991798,-83.675238,Craighton Ct
276,43.008569,-83.602745,Merle Ave/Roberta St
246,43.064830,-83.724985,Leslie Dr/Leslie Ct
246,42.970380,-83.698397,Fenton Lawn Dr/W Scottwood Ave
445,42.971947,-83.673374,Homestead Dr/Clinton Ct
185,42.982688,-83.782148,S Dye Rd
160,43.031134,-83.865231,Hilda Ln
185,42.790022,-83.687359,Howard St/Waters Edge Ln
246,42.785356,-83.772673,Wyndham Pl
185,42.886646,-83.640779,Genesys Pkwy/E Baldwin Rd
246,43.060112,-83.520701,Blue Spruce Ct
185,43.027358,-83.657784,N Cumberland St/Nebraska Ave
631,43.119732,-83.714195,Neff Rd
445,43.033250,-83.704310,Detroit St/Ml King Ave/W Paterson St/E Paterson St
246,42.925116,-83.507963,Hawthorne Cir
418,42.970969,-83.719314,/Holiday Dr
160,42.788958,-83.784229,Silver Fox Cir/Owen Rd
216,43.031527,-83.672479,Illinois Ave/Olive Ave
216,43.091328,-83.686059,Panama Ave/Horton St
917,43.002184,-83.745699,/Corunna Rd
334,42.924315,-83.507737,Hawthorne Cir
362,42.932942,-83.573178,Brookview Dr/Perry Rd
185,42.970095,-83.777477,Commerce Rd/Exchange Dr
216,42.982275,-83.631104,E Hemphill Rd
1589,43.018018,-83.686055,E First St
246,43.003511,-83.676660,I- 475
216,43.069086,-83.855707,Crescent Pl/Circle Dr
968,43.029232,-83.517938,E Rising St/S State Rd/W Rising St
276,43.042242,-83.716170,N Chevrolet Ave/W Dartmouth St
390,43.001701,-83.794875,Corunna Rd/Ainsworth St
418,42.953273,-83.639461,Wallingford Dr/Wallingford Ct/Brenthill Dr
185,43.037002,-83.511186,Chelsea Ct
472,42.965339,-83.809240,/Miller Rd
216,43.040549,-83.665200,N Franklin Ave/Maryland Ave
246,43.078966,-83.844451,Apple Blossom Ln
160,42.923590,-83.718299,Alfred Dr
216,43.008565,-83.603815,Audrey St/Roberta St
160,43.119359,-83.705127,Red Maple Dr/W Mount Morris Rd
185,43.061883,-83.638068,/E Pierson Rd
160,42.809062,-83.886951,Locust Grove Dr/Silver Lake Rd
276,42.971654,-83.662721,E Parkwood Ave
246,43.035028,-83.743814,Barth St/Highfield Ave
445,42.885173,-83.739101,US Hwy 23/Baldwin Rd
334,42.817808,-83.710093,S Long Lake Rd
276,43.021739,-83.769653,Sussex Ln
246,43.021884,-83.716844,Woodbridge St/Raskob St
185,43.109955,-83.558325,Teachout Rd/Irish Rd
418,43.175345,-83.891765,Washington St/E Maple
839,43.031521,-83.739764,Suncrest Dr
390,42.986462,-83.675481,N Coleridge St/S Saginaw St
216,43.136574,-83.656891,Ridgelawn St/Lawncrest St
216,42.791982,-83.713359,Davis St/W Shiawassee
160,42.912176,-83.659137,Stone Ridge Dr
216,43.064690,-83.681731,/I- 475/E Mott Ave
185,43.041993,-83.733184,Dartmouth Ave/Dartmouth St
552,43.020275,-83.737956,Wroxton Dr
185,42.927333,-83.834766,Reid Rd
334,43.007346,-83.663871,Burr Blvd/Kent St
185,42.937051,-83.632762,S Center Rd
499,43.017438,-83.749715,Calkins Rd/Beecher Rd
160,43.075417,-83.750995,Judith Ann Dr/W Carpenter Rd
246,42.939542,-83.670885,Crestwood Memorial Cemetery
362,43.022287,-83.726087,Orchard Ln/Fremont St
839,43.180765,-83.734407,Rogers Lodge
160,43.037952,-83.737580,Ella Dr
276,42.961299,-83.697749,Wickfield Dr/Wickfield Cir
305,43.169202,-83.746035,Rosalie Ann Ct/W Glen
246,43.097216,-83.759232,I- 475
579,43.058226,-83.850458,Kim Ct
276,42.990210,-83.651876,West St/Robert Dr
246,42.954319,-83.584805,Woodridge Ln
160,42.960279,-83.777217,Sulgrave Dr/Sagamore Dr
160,42.851862,-83.714032,Madison Dr
334,43.066139,-83.840991,Flushing Cemetery
445,42.792239,-83.750725,Silverwood Dr/Shorewood Ct
185,43.116752,-83.691219,Church St
160,42.934438,-83.610195,Kings Pointe Rd/Kings Colony Rd
334,43.092650,-83.703267,Magnolia Dr/Oleander Dr/Cypress Dr
216,43.007631,-83.735066,Minnie St/Joyner St
305,43.117865,-83.886394,W Mount Morris Rd
246,42.873574,-83.596744,S Saginaw Rd/
334,43.115258,-83.697619,Washington Ave/Beach St
472,42.893024,-83.628805,I- 75
160,43.063461,-83.696434,E Lyndon Ave/Fulton St
334,43.006902,-83.754719,W Court St
216,42.913982,-83.778086,W Grand Blanc Rd/Peppermill Dr
276,42.996789,-83.658607,Terrace Dr/Terrace Ct
160,43.125747,-83.671303,W Clydesdale St/Loch Tay Dr
788,43.014301,-83.683994,Stevens St/E Court St
216,43.063216,-83.748201,Beryl Rd/Lyndon Ave
216,42.911390,-83.614252,Hawkcrest Dr
362,43.031741,-83.736149,Mackin Rd/Wabash Ave/Eldorado Dr
445,43.019349,-83.602281,/I- 69
1020,43.024621,-83.679145,Mathews St/Forest St
305,43.063168,-83.827023,Bellewood Dr/Robinwood Dr
1071,43.025557,-83.678603,Robert T Longway Blvd
160,42.795482,-83.854676,McCaslin Lake Rd/Pine Ridge Dr
185,42.943429,-83.768217,Howland Dr/Hill Rd
499,43.035389,-83.693674,N Saginaw Rd/E Hamilton Ave
185,42.905019,-83.572061,Vassar Rd/Carriage Hill Dr
160,42.982492,-83.611139,Coin St
499,42.849676,-83.703872,Fenton Rd/Eden Gardens Dr
160,42.914612,-83.577418,Canter Creek Trl/Canter Creek Ct
684,42.946952,-83.653204,S Saginaw Rd/Beulah St
160,43.084840,-83.709008,W Yale Ave/Chestnut St
160,43.027493,-83.559357,Main Gate Dr
418,43.043136,-83.635624,N Center Rd/Leith St
334,43.083336,-83.518170,N State Rd/Tiger Run Trl
246,43.068486,-83.611742,/Underhill Dr/Hillcrest Cir
390,43.088444,-83.723859,Douglas Joel Dr
276,43.083155,-83.696599,S Cornell Ave/Fulton St
1537,43.025296,-83.679714,5th Ave/Forest St
552,43.061413,-83.621242,Winters Dr/Blue Lake Dr
362,42.970357,-83.631177,Blackberry Creek
160,43.102136,-83.610902,Indian Hills Trl/Shoshoni St
994,43.034702,-83.516773,E Flint St/N Main St
160,42.913911,-83.637509,Polo Ct
276,43.100200,-83.615024,Naomikong Ct/N Naomikong Ct
160,43.036638,-83.541764,Bellechasse Ct/Bellechasse Dr
160,43.150730,-83.757335,Orme Cir
185,43.013804,-83.803476,Stonehenge Rd/Yorkshire North Riding Rd
160,42.966241,-83.732225,Torrey Rd
445,42.980479,-83.773594,Menoutes Dr
305,43.006488,-83.692374,Ann Arbor St/Fenton Rd
160,43.048203,-83.576541,E Potter Rd/N Vassar Rd
216,43.039398,-83.676891,W Boulevard Dr/I- 475
160,43.042597,-83.518061,N State Rd/Colony Park
246,43.011151,-83.740549,Houran St
418,42.996784,-83.724774,Knight Ave/Yale St
305,42.822417,-83.705466,N Towne Commons Blvd
160,42.996267,-83.762157,Dutcher Rd/Larchmont Ave
276,43.098076,-83.844450,Maurice Ln
390,43.002327,-83.680117,Beach St/Partridge St
185,43.034788,-83.758938,/Flushing Rd
185,43.048296,-83.734928,Maywood St/Sonny Ave
185,42.956830,-83.911096,Duffield Rd/Miller Rd
305,43.116410,-83.699630,Wilcox Ave/Spruce St
160,42.939833,-83.766673,Sprauge Ln/Cousins Dr
160,42.947527,-83.489326,Streamside Ln/Hill Rd
710,43.033093,-83.661745,N Vernon Ave/Flint St
185,42.815900,-83.764310,Sunflower Dr/Saddlebrook Dr
305,43.012106,-83.745044,Tall Oaks Ct/Ridgecliffe Dr
445,43.020566,-83.696164,Garland St/University Dr/University Ave
334,43.005618,-83.757469,Eberly Rd
216,43.076382,-83.836155,Cambridge Ct
334,43.062765,-83.625296,Tommy Armour Dr/Esta Dr
216,43.031689,-83.527924,W 2nd St/Aloha St
276,43.043127,-83.665718,Leith St
185,42.997927,-83.777641,Dania St
334,42.965175,-83.816446,Sydney Ln
305,43.016430,-83.556636,/I- 69
185,43.050459,-83.719428,Lawndale Ave/W Myrtle Ave
362,43.022095,-83.728383,Thomas St/Golfside Ln
185,42.819039,-83.733096,Lake Ponemah Mhp/Torrey Beach Dr/Eastview Dr
216,42.998970,-83.571612,Mount Juliet Dr/Gallatin Dr
160,42.981115,-83.703788,Hammerberg Rd/W Hemphill Rd
216,43.071109,-83.515039,Nixon Dr/Van Buren Cir
605,43.017595,-83.684164,E Second St/I- 475
216,42.916701,-83.697459,Froman St/Rory St
276,43.021534,-83.710669,Stevenson St/Frost St
362,43.096373,-83.710732,Harwood Dr/David Berger Dr
499,42.961798,-83.810286,Canary Dr/Eagle Dr
943,42.958932,-83.840551,Fairchild St/Windsor Ct
276,43.003938,-83.642600,S Term St/Lippincott Blvd
334,43.026106,-83.659481,N Lynch St
362,43.044750,-83.635607,N Center Rd/Craig Dr
305,43.174425,-83.894164,W Oak St/S Saginaw St
276,42.919754,-83.614746,Thomas Ln/Joseph Dr
160,43.188985,-83.893055,Nichols Rd
526,43.013005,-83.643068,S Averill Ave/I- 69
185,42.969848,-83.692757,Fenton Rd
390,42.834034,-83.724009,Golden Shores Dr/Golden Cir
526,42.933091,-83.583250,Sapphire Ct/Moonstone Dr
605,43.017647,-83.660993,S Vernon Ave/Pierce St
276,43.016467,-83.718409,Woodbridge St/Joliet St
246,43.028436,-83.689256,Vanderbilt Dr/Columbia Dr
246,43.070354,-83.841039,Hickorywood Dr/Ashwood Dr
276,42.951893,-83.615112,Genesee Oaks Ct
362,43.062992,-83.862494,N Seymour Rd/S Seymour St/W Main St
499,42.973570,-83.775581,/W Bristol Rd
276,42.981190,-83.697522,W Hemphill Rd
390,42.987412,-83.681862,Leland St/S Grand Traverse St
185,42.815338,-83.715233,Swanee Beach Dr/Orchard Lake Dr
276,42.987799,-83.756283,Tandy Dr
185,43.005391,-83.760214,Warbler Dr
185,42.900460,-83.695404,W Cook Rd/McCall Rd
185,42.786905,-83.794082,Shadow Ln/Lobdell Rd
362,42.980891,-83.676724,Allen St/Morrison St
334,43.041520,-83.589940,Golfview Dr/Fair Ln
160,43.089481,-83.703999,Verdun St/W Kurtz Ave
160,43.148347,-83.760700,W Dodge Rd
445,42.961471,-83.830750,Morrish Rd/Applecreek Dr
472,42.801953,-83.704983,5th St/N Leroy St
276,42.958909,-83.732183,W Maple Ave/Torrey Rd
216,43.009372,-83.806702,Stonehenge Rd/Wreckenridge Rd
160,43.115087,-83.667133,Walnut St/Aspen Ln
216,43.065820,-83.826455,Hillwood Ct
334,43.054997,-83.704728,Detroit St/W Eldridge Ave/E Eldridge Ave
160,42.929506,-83.717563,W Reid Rd/Brewer Rd
246,42.918116,-83.652373,Green Acres Rd/Green Valley Dr
216,42.982280,-83.701364,Blackberry Ln
418,42.922541,-83.636601,Shell Bark Ln/E Grand Blanc Rd
276,42.972194,-83.811450,W Bristol Rd/Elms Rd
185,43.018604,-83.599348,E Court St S
1046,42.973506,-83.725137,W Bristol Rd
276,43.013604,-83.534253,Chatwell Club Ln
185,42.941660,-83.858694,Hill Rd/Seymour Rd
160,42.995722,-83.614488,S Genesee Rd/Pine Creek Dr
160,42.937318,-83.786856,Victoria Ln
216,42.985012,-83.574657,S Vassar Rd/Kessling St
185,42.808487,-83.817758,Silver Lake Rd
390,42.983694,-83.674119,Poe St/S Saginaw Aly
246,43.062112,-83.674644,Carriage Hills Mobile Home P
390,42.993377,-83.677128,E Lakeview Ave/S Saginaw St
334,43.027526,-83.730008,N Ballenger Hwy/N Stevenson St
216,43.034126,-83.658734,Levern St/Churchill Ave
160,43.085465,-83.716108,Farmhill Rd/W Princeton Ave
445,43.071706,-83.762511,I- 75
160,43.015172,-83.806902,Ramsgate Rd
305,43.171009,-83.739887,Allen St/New St
334,43.042885,-83.675930,W Boulevard Dr/Leith St
160,43.053070,-83.797359,Wilber Ave
160,43.083617,-83.718539,Afaf St
246,43.006141,-83.568873,Kent Dr/Hillsdale Dr
246,42.949914,-83.610545,Sturbridge Ct/Sturbridge Rd
305,42.961116,-83.632804,Commercial Ave/S Center Rd/Center Rd
216,43.035901,-83.782243,Francisco St/Harold Dr
160,42.798407,-83.854813,McCaslin Lake Rd
390,42.955523,-83.856476,Seymour Rd/Luea Ln
246,43.150871,-83.557648,E Dodge Rd
305,43.065947,-83.582342,Oriole Dr/Bobwhite Dr
362,43.015116,-83.634748,S Center Rd
160,43.056575,-83.608845,Murphy Dr
276,42.967679,-83.588868,Wilderness Pt/Wilderness Ct
160,42.835141,-83.700385,St Lawrence Dr/St Lawrence Ct
185,42.969713,-83.642585,Card Dr
216,43.071067,-83.832604,Springview Dr/Chestnut St
418,43.046177,-83.693807,Spencer St/N Saginaw Rd
362,42.927456,-83.633581,E Reid Rd
185,43.172741,-83.930531,Sheridan Rd
276,42.851423,-83.728858,Ruth Dr/Torrey Rd
362,43.070050,-83.833412,Melody Ct
216,42.933346,-83.585354,Sapphire Ct
216,43.025350,-83.712886,Barth St/Dupont St
418,42.940568,-83.593997,Waters Edge Way/Pine Creek Ct
246,43.025761,-83.712890,Petrie St/Dupont St
710,43.053825,-83.731295,W Stewart Ave
185,43.018430,-83.783035,Dye Krest Dr/N Dye Rd
305,42.976207,-83.666102,Kenneth St/Columbine Ave
305,43.069046,-83.519382,Orchard Lake Dr
305,43.076597,-83.682694,Horton St
276,42.948719,-83.865593,Chin Maya Dr/Oakhill Dr
305,43.065345,-83.665859,Holiday Village Mobile Park
216,42.885364,-83.588207,Waterford Dr/Green Bank Dr
334,43.077287,-83.694062,N Saginaw Rd/Knickerbocker Ave
