Estimated daily crossings,Latitude,Longitude,Name
472,42.923251,-85.608876,Barfield Dr SE/Breton Rd SE
276,42.887691,-85.486801,State Hwy 6
276,42.906722,-85.767508,Prairie St SW/Division Ave SW
334,42.977458,-85.660798,Prospect Ave NE/Bradford St NE
334,42.851061,-85.581748,State Hwy 6
362,42.902564,-85.665504,Division Ave S/34th St SE
526,43.117369,-85.563669,10 Mile Rd NE/Gaylord Dr
1149,42.864264,-85.568629,W Rosebud Ct/S Rosebud Ct SE/S Rosebud Ct
762,42.933505,-85.638370,Dickinson St SE/Kalamazoo Ave SE
2435,42.955972,-85.667652,Division Ave S/Wealthy St SW/Wealthy St SE
160,43.112299,-85.467322,Rockford Pines Rd
5582,42.964462,-85.669281,Monroe Center St NW/Ionia Ave NW
499,42.969096,-85.693727,Chatham St NW/Pine Ave NW
160,43.043762,-85.655645,Abrigador Trl NE
445,42.887419,-85.597338,Harbor Dr SE
160,43.132614,-85.617250,Booth Bay Cir NE/Sag Harbor Ct NE/Booth Bay Ct
305,42.864324,-85.635681,Bonnie Ave SE/Greenboro Dr SE
160,42.948570,-85.680603,A St SW
631,42.924587,-85.640966,Merrifield St SE/Alto Ave SE
1252,42.934442,-85.639054,Boston St SE/Kalamazoo Ave SE
276,43.025796,-85.684435,Juniper Dr NW/N Center Dr NW
246,43.006741,-85.721067,Walker Ave NW
246,42.896379,-85.591941,Valley Way Ct SE
160,42.930205,-85.475205,Canyon Ridge Ct SE
552,42.955577,-85.647806,Hollister Ave SE/Wealthy St SE
185,43.116795,-85.630960,10 Mile Rd NE
246,43.061522,-85.609311,Jupiter Ave NE
246,42.987169,-85.648444,Curtis St NE/Northfield Dr NE/Northfield Ave NE
246,42.891509,-85.566809,E Paris Ave SE/40th St SE
305,42.854883,-85.573354,Autumn Crest Ln SE/Autumn Crest Dr SE
216,42.812363,-85.457909,Whitneyville Ave SE/84th St SE
526,42.854747,-85.634528,60th St SE
160,42.962833,-85.511577,Spring Arbor Ct SE
334,43.017657,-85.757113,/I- 96
658,42.948321,-85.643188,Franklin St SE
185,42.890717,-85.736009,Spartan Industrial Dr SW
579,42.884136,-85.674832,44th St SW
185,42.877361,-85.630045,Pickett St SE
160,42.995462,-85.693238,Sylvia St NW/Tamarack Ave NW
216,42.828132,-85.624692,Kalamazoo Ave SE
185,42.980802,-85.780085,Apple Ridge Ct NW/Old Farm Dr NW
362,42.906578,-85.769131,Prairie St SW/Chestnut St SW
246,43.030345,-85.668842,Stowell St NW/W River Dr NE
418,43.013407,-85.649225,3 Mile Rd NE/Northwood St NE
276,42.852632,-85.662055,S Kenbrook St SE/N Kenbrook St SE
185,42.837903,-85.683899,Amber Ridge Dr SW
185,42.993665,-85.667306,Travis St NE/Center Ave NE
160,42.929878,-85.671699,Rose St SW/Buchanan Ave SW
334,42.868274,-85.611174,Gettysburg Dr SE/Discovery Dr SE
246,42.964942,-85.619242,/Grand Rapids Dominican Dr NE
276,42.920589,-85.683512,Alger St SW/Woodward Ave SW
216,42.919050,-85.559222,Forest Hill Ave SE/Somerset Pointe Dr SE
216,42.925196,-85.621911,Pokogon Dr SE/Maumee Dr SE
185,42.934576,-85.712350,I- 196 Bus/Laville Ave SW
160,42.985522,-85.615130,Walwood Dr NE/Cranbrook Dr NE
185,42.803839,-85.703115,Burlingame Ave SW
579,42.944693,-85.643213,Neland Ave SE/Alexander St SE
362,42.867924,-85.675722,Clay Ave SW
276,42.883733,-85.632673,Curwood Ave SE/44th St SE
334,42.909080,-85.737802,Dixie Ave SW/Remico St SW
445,42.902701,-85.748772,Wayburn Ave SW/34th St SW
839,43.119779,-85.562369,W Bridge St NE
216,42.920255,-85.484286,Riveredge Dr SE
185,42.846434,-85.659678,Eastbrook Dr SE/Centerbrook St SE
185,43.062712,-85.652598,Western St NE/Rockridge Dr NE
160,42.878150,-85.737543,Spartan Industrial Dr SW
246,42.884707,-85.621737,Plymouth Ave SE/Dawes Ct SE
305,42.882651,-85.659363,Jefferson Ave SE/Farnham St SE
216,43.012485,-85.602552,Burgen Ct NE/Burgen Ave NE
276,42.835621,-85.526618,Kraft Ave SE/Broadmoor Ave SE
605,42.938056,-85.638126,Adams St SE/Underwood Ave SE
160,42.873888,-85.749275,Tanana River Ave
305,42.864593,-85.723216,Byron Center Ave SW/Aurora Pond Dr SW
276,43.096864,-85.511423,Los Altos Dr NE
305,42.914978,-85.543722,Horizon Dr SE/Northern Dr SE
865,42.883685,-85.621697,Plymouth Ave SE/44th St SE
579,42.947357,-85.568604,Cascade Rd SE
246,42.969993,-85.609687,/Michigan St NE
246,42.878917,-85.684341,Clyde Park Ave SW/47th St SW
160,42.904261,-85.661440,Jefferson Ave SE/Frontenac St SE
472,42.889589,-85.756291,Blackhawk Ct SW/Blackhawk Dr SW
216,42.853693,-85.466477,Country Place Dr
499,42.968172,-85.647087,Innes St NE/Houseman Ave NE
658,42.892307,-85.634333,Brenton Ct SE
160,42.878723,-85.632813,Curwood Ave SE/Curwood Ct SE
839,42.935617,-85.685404,Roosevelt Ave SW
160,42.935683,-85.600413,Richards Dr SE/Andover Rd SE
185,42.956066,-85.530324,Haskins Ct SE
160,42.906997,-85.690300,Rogers Lane Ave SW/Blanchard St SW
185,43.010650,-85.736831,Royal Point Dr NW/Sandy Ridge Dr NW/Sandy Ridge
216,42.981749,-85.625149,Stonebrook Dr NE/Plymouth Ave NE
185,42.856472,-85.386632,60th St SE/Conway Ave SE
276,43.005330,-85.647570,Emerald Ave NE/Dorroll St NE
276,43.050820,-85.581230,E Beltline Ave NE
216,42.932258,-85.338948,/S Water St
334,42.948599,-85.651706,Henry Ave SE
276,42.951475,-85.680802,Oakland Pl SW
579,42.925800,-85.682122,/US Hwy 131
160,42.856440,-85.390882,60th St SE
813,43.028554,-85.630291,4 Mile Rd NE
246,42.970493,-85.774310,Saint Clair Ave NW
160,42.831685,-85.527245,Kraft Ave SE
160,43.089093,-85.690299,N M 27/8 Mile Turnaround/Alpine Ave NW
160,42.924747,-85.336589,Grand River Dr SE/Lowell View Ave SE
160,43.190997,-85.683081,Viking Dr NW/Landmark St
362,42.948629,-85.662737,Cass Ave SE/Franklin St SE
305,42.923722,-85.648963,Hoyt St SE/Martin Ave SE
246,42.979274,-85.746879,Maynard Ave NW
579,43.086111,-85.551962,Belding Wolverine Cutoff/Belding Rd NE
185,42.919153,-85.554934,Forest Meadows Ct/Forest Meadows Dr SE
185,43.024109,-85.614851,4 Mile Rd NE/Dean Lake Ave NE
334,42.871611,-85.726712,Golfton Dr SW/Danton Dr SW
246,42.990775,-85.657165,Kent Hills Rd NE/College Ave NE
305,43.034454,-85.590139,E Beltline Ave NE/Township Dump Rd NE
305,42.889584,-85.619173,Weymouth Dr SE
160,43.061974,-85.652603,Rockridge Dr NE
160,42.892547,-85.498013,Maplecrest Ct
160,43.093501,-85.645610,Quintara Dr NE/Legacy
160,43.142480,-85.710042,Sparta Ave NW/Homestead Acres
160,43.002715,-85.694511,Gaynor Ave NW/Roger St NW
334,42.960097,-85.696038,Leyden Ave SW/Park St SW
185,43.086253,-85.503102,Belding Rd NE/Town Square Blvd NE
160,43.043585,-85.686929,Lamoreaux Dr NW
160,42.982709,-85.649690,Eastern Ave NE/Hubert St NE
246,42.816856,-85.656353,Brewer Park Dr SE
813,43.010687,-85.691085,Barbara St NW
305,43.072358,-85.578536,Northland Dr NE
246,42.864317,-85.630752,Bowdoin St SE/Cheryl Ave SE
185,43.066581,-85.626273,W River Dr NE
246,42.911428,-85.758279,Barrett Ave SW
160,42.816028,-85.734874,Stoney Ln SW
526,42.910395,-85.685523,Colrain St SW/Clyde Park Ave SW
658,42.951887,-85.634630,Giddings Ave SE/Sherman St SE
605,42.887217,-85.782251,Kenowa Ave
160,43.269124,-85.355843,Penelope Dr
390,42.892890,-85.628573,Kirkshire Dr SE/Belmar Dr SE
552,42.841457,-85.671810,Buck Creek Ave SW
216,42.943252,-85.775099,Wilson Ave SW/Kenowa Ave/Hall St SW
276,42.982108,-85.671240,Coldbrook St NW/Monroe Ave NW
499,42.916763,-85.595554,Ridgecroft Dr SE
160,42.891783,-85.639430,Steelcase Driveway Dr SE
160,42.895016,-85.618836,Southampton St SE/Chamberlain Ave SE
160,42.999695,-85.552897,N Catamount Trl NE/Red Hill Dr NE
160,42.914842,-85.609822,S Highland View Cir SE
418,42.988611,-85.659622,Spencer St NE/North Ave NE
276,43.219891,-85.566237,17 Mile Rd NE
185,42.949718,-85.498562,/Ada Dr SE
362,42.966057,-85.654435,Hawthorne St NE/Union Ave NE
160,42.928429,-85.563231,Firethorn Ct SE
362,42.922893,-85.615995,S Chesaning Dr SE/Negaunee Dr SE
185,43.076075,-85.690197,Alpine Ave NW
185,43.022793,-85.351924,Lincoln Lake Ave NE
472,42.943122,-85.766197,Kinney Ave SW/Hall St SW
185,42.961188,-85.620707,Sunnybrook Ave SE
305,42.917009,-85.568943,Embassy Dr SE/E Paris Ave SE
160,42.936473,-85.328076,James St/E Main St SE
246,43.019261,-85.649519,Wellerwood St NE
276,42.953019,-85.517545,Witherbee Dr SE/Rookway Dr SE
334,42.812216,-85.729829,Sunny Ln SW/84th St SW
246,42.930128,-85.606363,Avondale Dr SE/Rosemont Ave SE
160,42.918169,-85.312168,Oberley Dr SE
418,42.885939,-85.673982,Stafford Ave SW
185,42.987764,-85.762818,Granada Ct NW/Granada Dr NW
579,42.925941,-85.681976,/US Hwy 131
216,42.983881,-85.772507,Ironwood Cir NW/Pinewood Dr NW
736,42.919054,-85.576285,Camelot Ct SE
246,43.013374,-85.626083,/3 Mile Rd NE
472,42.900434,-85.661253,35th St SE/Jefferson Ave SE
160,42.929348,-85.387412,Veronica St SE/Fulton St
160,42.982641,-85.649688,Eastern Ave NE
418,42.848668,-85.679221,State Hwy 6
246,42.998630,-85.767386,Mohler St NW/Kinney Ave NW
246,42.812064,-85.762702,Wilson Ave SW/84th St SW
160,42.979075,-85.771609,Cummings Ave NW/Cummings Ct NW
185,43.007458,-85.570744,/Maguire Ave NE
246,42.851348,-85.587274,State Hwy 6/Wing Ave SE
334,42.923243,-85.616979,Tekonsha Rd SE/S Chesaning Dr SE/Chesaning Dr SE
185,42.958110,-85.558924,Calais Ct
160,42.887163,-85.639151,Spartan Ave SE
305,43.124934,-85.592566,Lady Lauren Dr NE
1174,42.978213,-85.671379,Mason St NW/Bond Ave NW
362,42.947606,-85.666524,Flint Ct SE
526,42.927020,-85.598654,Burton St SE/Woodlawn Ave SE
1071,42.970569,-85.678463,US Hwy 131/Bridge St NW
185,43.208874,-85.745056,State Hwy 37
246,42.837000,-85.633830,Penncross Dr SE/Old Lantern Dr SE
185,43.033087,-85.636270,Sunnyside St NE/Benjamin Ave NE
246,42.940172,-85.714550,/Frontage Rd SW
160,43.234208,-85.741547,18 Mile Rd/Coalter Ave
526,42.980018,-85.659556,Walnut St NE/North Ave NE
160,42.885125,-85.450762,Cascade Rd SE
710,42.861339,-85.659468,Jefferson Ave SE/Nancy St SE
246,42.811935,-85.703052,84th St SW/Burlingame Ave SW
246,43.181418,-85.576201,/US Hwy 131
160,42.900317,-85.484547,Cascade Rd SE/Hidden Hills Ave SE
362,42.887714,-85.718878,Greenview Dr SW/Holliday Dr SW/Greenview Ct SW
418,42.988802,-85.686634,Myrtle St NW/Anderson Pl NW
246,42.887598,-85.603948,Breton Woods Dr SE/Breton Woods Dr/Sandcherry Dr SE
445,42.941176,-85.585069,E Beltline Ave SE
246,42.937786,-85.664510,Fair St SE
994,42.956662,-85.679096,Market Ave SW
160,42.973385,-85.625136,Plymouth Ave NE
160,42.935072,-85.352124,Valley Vista Dr/Donna Dr
246,43.156738,-85.717890,Heatherview/W Gardner St NW
216,42.992554,-85.634200,Simmons Ave NE/Manton St NE
305,43.160707,-85.703393,E Division St/S Aspen St NW
2088,42.957025,-85.667696,Division Ave S/Goodrich St SE
445,42.967427,-85.659346,Lyon St NE/Oakley Pl NE
160,43.043205,-85.449356,Cannonsburg Rd NE/5 Mile Rd NE
8973,42.965596,-85.671221,Monroe Center St NW/Monroe Ave NW
216,42.865168,-85.752096,Belgian Ct SW
472,42.964400,-85.641068,Stormzand Pl NE
362,42.840737,-85.647596,Willard Ave SE/68th St SE
246,43.013375,-85.627584,3 Mile Rd NE/Central Park Way NE
445,42.930870,-85.371260,W Main St SE/Bowes Rd SE/Alden Nash Ave SE/Fulton St
390,42.979772,-85.703320,Atlantic St NW/Atlantic
216,42.841150,-85.486707,Thornapple Hills Dr SE
631,42.896049,-85.665208,Division Ave S/Spanish Ct SE
631,42.940097,-85.643544,Toren St SE/Kalamazoo Ave SE
160,43.087231,-85.639645,Lake Bluff
246,43.068116,-85.668797,Evan Dr NE
305,42.919372,-85.720555,Cherrywood Ct SW/Waldron St SW
305,42.999131,-85.667333,Knapp St NE/Center Ave NE
305,42.899390,-85.626816,Millbrook St SE/Kalamazoo Ave SE
160,42.938867,-85.524366,Stratford Glen Ct SE/Hallmark Ln
216,42.907106,-85.568346,E Paris Ave SE/Riviera Dr SE
1772,42.959539,-85.644499,Diamond Ave SE/Cherry St SE
579,42.913218,-85.675901,28th St SW
160,42.958057,-85.441429,Vergennes St SE
185,42.830126,-85.536628,Gallop Trl/Equine Ln SE
246,43.075646,-85.609320,Belmont Ave NE/Lynhurst St NE
185,42.867952,-85.772940,/McCormick Dr SW
160,42.964759,-85.454892,Bailey Dr NE
246,42.880403,-85.660231,Jefferson Ave SE/Montebello St SE
246,43.082349,-85.585192,Blythefield Ave NE/Riverwoods Dr NE
160,42.857048,-85.481157,Golden Oak Trl/Tannon Trl
276,43.013913,-85.723490,/Walker Ave NW
246,43.033274,-85.601052,Nipawin Ct NE
736,42.926985,-85.569580,Burton St SE/E Paris Ave SE
276,42.958628,-85.605928,Reeds Lake Blvd SE/Reeds Lake Arm N
390,43.033391,-85.649974,Rudy St NE/Coit Ave NE
305,43.079264,-85.566570,Millis St NE/Bodie St NE
216,42.862960,-85.549100,Broadmoor Ave SE
362,43.022109,-85.683951,Ridge Rd
160,42.958454,-85.357827,Vergennes St SE
246,42.925393,-85.732369,Lamar Dr SW/Roys Ave SW
185,43.125645,-85.552756,Adolph Ave/Lewis St
499,43.032367,-85.621153,Holtman Dr NE
160,42.934979,-85.399890,Deerwood Dr SE/Sconcewood Dr SE
334,42.979560,-85.696766,Atlantic St NW/Lincoln Ave NW
216,43.130518,-85.577657,Echo Valley Dr
276,42.871772,-85.688769,Olsen Springs Ct
3032,42.967318,-85.679140,Mount Vernon Ave NW/Allen St NW
631,42.946763,-85.610089,Lakeside Dr NE
1772,42.876735,-85.664452,48th St SE/Division Ave S
472,43.007768,-85.649925,Plainfield Ave NE/Sligh Blvd NE
216,42.908453,-85.621949,Juneberry Ave SE
362,42.926249,-85.576211,Rowland Ave SE
276,42.886320,-85.748112,Redbush Dr/Redbush Dr SW
305,42.952024,-85.651731,Sherman St SE/Henry Ave SE
736,42.877784,-85.616535,Stauffer Ave SE/Circle Shore Dr SE
160,43.119194,-85.523169,10 Mile Rd NE
968,42.976059,-85.682725,Fifth St NW/5th St NW
943,42.967355,-85.698769,Sibley St NW/Valley Ave NW
605,42.924257,-85.577371,Ridgecrest Rd SE/Woodburn Dr SE
246,43.069523,-85.614714,Drew NE
216,43.109468,-85.529449,Rum Creek Ln
994,42.888632,-85.628352,N Saxony Dr SE/Saxony Ct SE
246,42.807875,-85.709870,Bethany Dr SW
216,42.948649,-85.538292,Meadowmeade Dr SE/Ada Dr SE
160,42.980465,-85.326569,Covered Bridge Rd NE
216,43.005401,-85.709619,E Oak St NW/N Oak St NW
246,42.870780,-85.606492,Stauffer Ave SE/Bridle Creek Dr SE
658,43.014303,-85.691237,3 Mile Rd NW
710,42.882571,-85.625913,Kalamazoo Ave SE
445,42.841044,-85.610783,Hartman Dr SE/68th St SE
185,42.920383,-85.511444,Burton St SE/Santigo Ave SE
160,42.942606,-85.490627,Thornapple River Dr SE/Storeybook Ln SE
472,42.934447,-85.337834,E Main St SE
390,42.930418,-85.646327,Griggs St SE
216,43.157550,-85.550845,Woodview Dr/Northland Dr NE
418,42.982130,-85.768255,Thornwyk Dr NW/Brampton Ct NW
736,42.917413,-85.719308,Thornwood St SW/Boulevard Dr SW
499,42.973461,-85.682464,I- 196
305,42.878370,-85.410294,Morse Lake Rd/I- 96
472,42.877878,-85.449355,Quiggle Ave SE
994,42.971747,-85.661938,Lafayette Ave NE/I- 196
839,42.975633,-85.749585,Bayberry Pointe Dr NW
160,43.011239,-85.735812,Valleydale Dr NW/Royal Point Dr
185,42.862440,-85.637367,Springwood Ct SE
160,43.079345,-85.690225,Alpine Ave NW
246,42.895579,-85.630592,Giddings Ave SE/Grooters St SE
160,43.138046,-85.553215,Fox Row Ct
160,42.936982,-85.500672,Gleneagles Dr SE/Shadyview Dr SE
185,42.949597,-85.694768,Freeman Ave SW/Market Ave SW
276,42.977427,-85.661993,Lafayette Ave NE/Bradford St NE
526,42.893680,-85.777202,Sutton Pl SW/Thunderbird Ave SW
160,42.929641,-85.552522,Venetian Dr SE/Middleground Dr SE
246,42.865807,-85.709129,Corbin Ct SW/Mayflower Dr SW/Pinnacle Dr SW
334,42.869936,-85.711027,52nd St SW
246,42.886945,-85.724225,Holliday Dr SW/Byron Center Ave SW
390,42.916623,-85.596246,Knollcrest SE
418,42.930773,-85.633331,Giddings Ave SE/Griggs St SE
160,43.002231,-85.616106,Ter Van Ct NE/Ter Van Dr NE
160,42.895763,-85.612325,Deer Hollow Dr SE/Edington Dr SE/Ravine Vis
499,42.900003,-85.594641,Wingate Dr SE
390,42.847977,-85.644508,Eastern Ave SE
605,42.933360,-85.686522,Clyde Park Ave SW/Lynch St SW
160,42.919445,-85.611029,Breton Ln SE
276,42.930755,-85.632158,Griggs St SE/Margaret Ave SE
160,42.832316,-85.545484,Whispering Stream Ln
1071,42.883343,-85.740271,X Rite Dr
185,42.989539,-85.756537,Linwood Dr/Megan Ct
445,42.862175,-85.546145,Patterson Ave SE
185,42.974918,-85.583575,Eastview Dr NE
246,42.934448,-85.493021,Riverton Ave SE
362,42.936285,-85.606451,Lake Grove Ave SE
216,43.124205,-85.705186,Country View Ct
4497,42.963372,-85.680532,Summer Ave NW/W Fulton St
1149,42.882853,-85.772335,Canal Ave SW
246,42.828004,-85.696770,/Navajo Valley SW
526,42.891386,-85.670046,40th St SW/Buchanan Ave SW
185,42.806110,-85.466191,Whitneywood Ct
1589,42.884883,-85.774388,44th St SW/Rivertown Pkwy
390,42.897865,-85.742521,Cedar Creek Dr SW/Willow Creek Dr SW
276,42.982717,-85.779009,Duchess Ct NW
605,42.965846,-85.640227,Fruit St NE
216,42.900779,-85.671632,35th St SW/Birchwood Ave SW
2035,42.970672,-85.683933,Stocking Ave NW/Bridge St NW/Lexington Ave NW
5285,42.968836,-85.666468,Bostwick Ave NE/Crescent St NE
185,42.925436,-85.342966,S Hudson St/S Hudson St SE
305,42.948267,-85.626964,Cambridge Dr SE/Franklin St SE/Cambridge Blvd SE
305,42.857863,-85.624967,Sunny Lane St SE/Kalamazoo Ave SE
684,42.939665,-85.639311,Noble St SE/Fuller Ave SE
246,43.021965,-85.651148,N Park St NE/Essex Ave NE
216,43.159550,-85.703948,S Elm St/Hickory St
246,42.964646,-85.718365,Luray Ave NW/Valley Forge St NW
160,42.857541,-85.769211,S Abby Ct
160,43.218957,-85.754696,S Ball Creek Rd NW
246,43.077430,-85.592579,Rapidfall Ct NE
246,43.015251,-85.551881,Cooks Meadow Dr NE
1174,42.882639,-85.766842,Rivertown Pkwy
246,42.879220,-85.705020,Chalet Ln SW
968,42.906348,-85.762880,Prairie St SW/Wilson Ave SW
246,42.836277,-85.667739,Buchanan Ave SW
1329,42.960059,-85.639752,Hope St SE/Fuller Ave SE
390,42.990648,-85.660606,Forrest Ave NE/Hanover St NE
305,42.923741,-85.652740,Union Ave SE/Hoyt St SE
305,42.937969,-85.627959,Adams St SE/Gladstone Dr SE
216,42.825600,-85.658329,Quail Run SE/Morning Dove Dr SE
160,42.929385,-85.387249,Veronica St SE/Fulton St
216,43.125609,-85.572265,Glen Arbor Dr NE/Glenview Ct
276,42.980951,-85.649591,Carrier Creek Blvd NE
762,42.907582,-85.724717,Byron Center Ave SW/Blanchard St SW
160,42.989338,-85.615955,Chelsea Dr NE/Walwood Ter NE
658,42.935468,-85.698411,Cleveland Ave SW/I- 196 Bus
362,42.935457,-85.705312,Delwood Ave SW/I- 196 Bus
1046,42.950539,-85.667533,Division Ave S/Grant St SW
160,43.126120,-85.706067,Glen Park Dr/Country View Dr
160,42.973266,-85.698236,2nd St NW/Garfield Ave NW
246,42.869257,-85.740242,Conrad Ct
160,42.892293,-85.623812,Norwalk Dr SE
216,43.148029,-85.704477,Clark St NW/Edward St NW
1149,43.120884,-85.560785,/Squires Street Sq NE
216,43.156210,-85.707115,E Averill St/S Union St
160,43.117812,-85.467588,Rockford Pines/10 Mile Rd NE
216,43.215137,-85.751116,1st St/S Main St
160,43.074840,-85.570520,Brewer Ave NE/Butternut Dr NE
305,42.876669,-85.656294,48th St SE/Marlette Ave SE
390,42.905012,-85.669813,Avonlea St SW
499,42.919140,-85.723772,Forest Grove Ave SW/Waldron St SW
684,43.020233,-85.725523,/Walker Ave NW
305,42.917048,-85.657208,Madison Ave SE
216,42.836959,-85.684163,Bayou Dr SW/Amberwood West Dr SW
216,42.856510,-85.571876,Timberlake Ln SE
1381,43.032073,-85.667906,W River Dr NE
185,42.817627,-85.617228,S Park SE/Sunny Glen SE
276,42.844623,-85.648735,/66th St SE
160,42.897007,-85.494646,Woodbrook Dr SE/Burger Dr SE
246,42.911429,-85.498579,Thornapple River Dr SE/
160,43.146388,-85.575701,Rogue Pond Dr NE/12 Mile Rd NE
216,42.806569,-85.717501,Jonathan Ct SW
334,42.923120,-85.576899,Rowland Ave SE
579,42.952656,-85.682381,Godfrey Ave SW
334,42.883942,-85.659386,Jefferson Ave SE/44th St SE
246,42.913760,-85.734430,28th St SW
839,42.964549,-85.692419,Lane Ave NW/Veto St NW
185,43.012643,-85.663531,Riverside Dr NE/Russwood St NE
246,42.932236,-85.405290,Woodpine Ct SE
499,42.937761,-85.663473,Jefferson Ave SE/Fair St SE
185,43.057915,-85.657664,Double Eagle Dr NE/6 Mile Rd NE
276,43.051094,-85.580980,E Beltline Ave NE/Webber Ave NE
160,42.908006,-85.682968,Den Hertog St SW/Woodward Ave SW
216,43.121587,-85.610842,Algoma Ave NE/Point High Dr
276,43.162327,-85.713372,Terrace St/Terrace Dr/Harper Dr
305,42.856230,-85.654503,Madison Ave SE/Pine Needles Ct SE
216,42.883541,-85.570167,44th St SE/Waterbury Dr
246,43.127786,-85.572309,Gleneagle Dr NE/Glen Carin Dr NE
185,42.975260,-85.730165,Fairfield Ave NW/Burritt St NW
160,42.833361,-85.697912,Sand Springs SW
160,42.871693,-85.700566,Andover St SW/Havana Ave SW
526,42.966678,-85.639700,Lyon St NE/Fuller Ave NE
160,42.826998,-85.433164,/76th St SE
216,42.872418,-85.611153,Southgate Dr SE
762,42.970003,-85.693741,Douglas St NW/Pine Ave NW
160,42.854563,-85.589273,60th St SE
334,42.914551,-85.765673,/28th St SW
334,42.954018,-85.661792,Lafayette Ave SE/Logan St SE
160,43.031297,-85.596994,Summit View Ct NE/Summit View Dr NE
246,42.944005,-85.347812,Godfrey St SE
605,42.867831,-85.725309,Coral Ridge SW/Palmdale Dr SW
185,43.175325,-85.620915,14 Mile Rd NE
552,43.010179,-85.738191,Vista Point Ct NW
246,42.988066,-85.642182,Burke Ave NE
216,42.902640,-85.715598,Boone Ave SW/34th St SW
305,43.077234,-85.635181,W Canterbury Dr Pvt/Scott Creek Dr NE
362,43.021098,-85.661574,I- 96
1381,42.970213,-85.659460,Michigan St NE/North Ave NE
246,43.048372,-85.602745,Limestone Ln
160,43.037019,-85.646696,Woodworth St NE/Coit Ave NE
160,42.956839,-85.583055,Briar Bank Pl SE
185,43.046350,-85.597025,Cinema Ave NE
762,43.003762,-85.590463,E Beltline Ave NE
684,42.961695,-85.687422,Watson St SW/Straight Ave SW
445,42.881244,-85.729061,Waterloo St SW/Vancouver Ave SW
305,42.812592,-85.736836,Ridge Stone Pl
305,42.919211,-85.719358,Boulevard Dr SW/Waldron St SW
305,42.848737,-85.667382,/State Hwy 6
160,42.830820,-85.739721,Indigo Ridge Dr SW/Dusty Rose SW
710,42.968209,-85.652020,Innes St NE/Grand Ave NE
684,42.970716,-85.647167,Houseman Ave NE
631,42.948810,-85.674096,Franklin St SW
276,42.869633,-85.576712,Breezefield Ct SE
362,42.945319,-85.680584,Beacon St SW/I- 196 Bus
185,42.964087,-85.709160,W Fulton St
334,43.021120,-85.663758,I- 96
334,42.906234,-85.680436,Stratford Dr SW/Highgate Ave SW
246,42.892429,-85.733899,Timberlane SW
216,43.058180,-85.683615,Torrey Pines Dr NW/6 Mile Rd
526,42.874818,-85.649290,Arbor Ln SE
305,42.954479,-85.529854,Clements Mill Dr SE/S Whitman Ct (Pvt) SE
362,42.961924,-85.702104,/Park St SW
160,43.214923,-85.578187,Lilyfield Dr/Ladyslipper Ln
710,42.973752,-85.657028,College Ave NE
246,43.034203,-85.670820,Childs Ave NW/Fry St NW
334,42.929842,-85.701989,Lee St SW/Belden Ave SW
276,42.855659,-85.619395,Bramalea Ave SE/Raeboro Dr SE
788,42.956945,-85.674104,Grandville Ave SW/Goodrich St SW
334,42.956173,-85.684266,Wealthy St SW/Front Ave SW
160,42.943624,-85.550890,Luxemburg St SE/Patterson Ave SE
216,43.013201,-85.600274,Leffingwell Ave NE/3 Mile Rd NE
216,42.843377,-85.742847,64th St SW/Ivanrest Ave SW
185,42.844222,-85.614359,Plaza Center Ave
185,42.953317,-85.534175,Abbey Mill Blvd/Abbey Mill Blvd SE
246,42.959447,-85.595253,Oak Hollow Dr SE/Park Hills Dr SE
334,42.919239,-85.621531,Village Dr SE/Georgetown Dr
418,42.874318,-85.658631,Travelo St SE/Holly Park Ave SE
684,42.967368,-85.655552,Campbell Pl NE/Lyon St NE
943,42.941808,-85.675727,Steele Ave SW/Canton St SW/Hall St SW
334,42.979608,-85.698426,Atlantic St NW/Garfield Ave NW
390,43.037457,-85.663760,W River Dr NE/Morrissey Dr NE
334,42.933100,-85.653471,Union Ave SE
216,43.015745,-85.757084,3 Mile Rd NW/Mullins Ct NW
216,42.812255,-85.471586,84th St SE/Copper Heights Ct
160,42.910315,-85.613486,Batchawana St SE/Newton Ave SE
160,43.221602,-85.770962,Fruit Ridge Ave
684,42.958870,-85.687362,Emperor St SW/Straight Ave SW
216,42.995026,-85.725143,Woodside Trl NW/Oakleigh Woods Dr NW
390,42.988485,-85.636234,Benjamin Ave NE
305,42.958805,-85.682660,Emperor St SW
160,42.895248,-85.701562,Parkland Ave SW
216,42.948640,-85.698397,Market Ave SW
762,42.884267,-85.688000,/44th St SW
499,42.887875,-85.645829,/Eastern Ave SE
216,43.090447,-85.690135,Alpine Ave NW/M 37 Alpine Turnaround
499,43.044263,-85.658807,W River Dr NE/Ball Park Dr NE
246,42.931644,-85.735124,I- 196
185,43.218250,-85.543824,Jeffrey St NE/Ann St NE
185,42.840595,-85.536641,68th St SE/Southbelt Dr
362,42.883983,-85.596290,Heathstone St SE/Endicott Ave SE
160,43.049580,-85.460915,Hidden Canyon Dr NE
160,43.074824,-85.612333,Jupiter Ave NE
160,42.926120,-85.718456,Oregon Ave SW/Melvin St SW
445,42.941012,-85.634515,Hall St SE/Giddings Ave SE
160,43.049948,-85.534724,Harper St NE
390,42.883701,-85.538270,John J Oostema Blvd SE/Corporate Dr SE
185,43.035539,-85.679043,York View Ln NW
185,43.082387,-85.590756,Packer Dr NE
160,42.954522,-85.784319,Kenowa Ave SW
185,43.197964,-85.312199,Montcalm Rd
185,42.868523,-85.750335,Evan Brooke Dr/Riverflow Ave
160,43.004770,-85.658035,Sinclair Ave NE/Marywood Dr NE
185,42.998810,-85.610191,Knapp St NE
917,42.912524,-85.576378,Eastbrook Mall Dr SE/28th St SE
390,42.872760,-85.654813,Madison Ave SE
216,43.062240,-85.639911,Skyway Dr NE
160,43.087318,-85.669991,Division Ave N
276,42.928842,-85.602459,Colton Ave SE/Covington Dr SE
160,42.954829,-85.600961,Pioneer Club Rd SE
891,42.971699,-85.667518,I- 196
246,42.956758,-85.514541,Adaway Ave SE
362,42.982211,-85.670582,Coldbrook St NW/Ottawa Ave NW
160,43.029416,-85.343765,4 Mile Rd NE
160,42.870663,-85.446290,52nd St SE
160,43.152210,-85.700238,Sid Lauskus/Martindale St NW
362,42.932545,-85.626738,Orville St SE/Rosewood Ave SE
185,43.072646,-85.663890,7 Mile Rd NE
160,43.121998,-85.708554,State Hwy 37
216,42.989106,-85.611101,Rothbury Dr NE/Rothbury Ct NE
552,42.950085,-85.639465,Thomas St SE/Fuller Ave SE
160,42.998733,-85.686965,Voorheis Ave NW/Ann St NW
526,42.944629,-85.615568,Pinecrest Ave SE/Argentina Dr SE
160,43.231830,-85.548528,18 Mile Rd/N Susan St NE
762,42.993234,-85.590586,E Beltline Ave NE/Grand Ridge Dr NE
185,42.976425,-85.694728,Fifth NW/Powers Ave NW
276,42.888587,-85.491698,I- 96
658,42.955500,-85.629303,Gladstone Dr SE/Wealthy St SE
216,42.837679,-85.712452,Country Spring Ave
160,43.215887,-85.660031,Krauskopf Rd
305,43.007573,-85.610912,Traditions NE/Beatrice St NE
276,43.000055,-85.670325,Monroe Ave NW/Parade Dr NW
839,42.913759,-85.717474,28th St SW
216,42.873675,-85.652368,Jessica St SE/Penny Ave SE
276,42.860514,-85.768169,Limousin Ct
185,42.968370,-85.735661,Olivia Ct NW/Sterner St NW
216,43.036295,-85.602756,Keeweenaw Dr NE/Leelanau Dr NE
216,43.006036,-85.535043,Grand Valley Dr NE/Knapp St NE
10019,42.963233,-85.671433,Fulton St W
2381,42.970092,-85.652043,Michigan St NE/Grand Ave NE
334,42.932383,-85.359129,Deborah Dr
499,42.888374,-85.768037,Cherokee Ave SW
216,42.920439,-85.476678,Wood Violet Ct SE/Ashwood Dr SE
276,42.869606,-85.677247,Clay Ave SW
362,42.980558,-85.607176,Peachwood Dr NE/Peachcrest Ct NE
160,43.019924,-85.718662,Walkent Ct NW
526,42.873444,-85.658569,Vindale St SE/Holly Park Ave SE
472,42.948530,-85.657795,Morris Ave SE/Franklin St SE
185,42.802319,-85.468819,Rodao Ct
1824,42.971931,-85.717791,Shamut Blvd NW/Bridge St NW
631,42.888390,-85.735949,Spartan Industrial Dr SW
185,42.860992,-85.771628,Angus Dr/Charolais Dr SW
185,43.073777,-85.592255,Woodwater Dr NE/Rogue River Rd NE
246,42.895248,-85.476106,Kenrob Dr SE/Kenrob Ct SE
334,43.048918,-85.694098,Aldun Ridge Ave/Syracuse Ave
216,42.885919,-85.651700,/Roger B Chaffee Memorial Blvd SE
216,42.940786,-85.502807,Troon Ct SE
216,42.842550,-85.576113,E Mill Run SE/Millstone Dr SE
579,42.961073,-85.697296,Dayton St SW/Garfield Ave SW
160,42.957721,-85.462977,Vergennes St SE
305,42.886440,-85.728113,Stonebridge Dr SW
160,42.826574,-85.585168,76th St SE/Hanna Lake Ave SE
362,42.957801,-85.683273,Chub Ave SW
276,42.872594,-85.577995,Breezewood SE/Breezeway St
185,42.907821,-85.656668,Madison Ave SE/Van Allen St SE
276,43.019258,-85.590364,Evergreen Dr/E Beltline Ave NE
499,42.944646,-85.639388,Alexander St SE/Fuller Ave SE
418,42.959487,-85.651851,Henry Ave SE/Cherry St SE
185,42.987964,-85.640988,Herrick Ave NE
246,43.119417,-85.572515,Gibraltar Dr NE/Glen Carin Dr NE
2061,42.972787,-85.677231,US Hwy 131/I- 196
246,43.093509,-85.691544,State Hwy 37/M 37 Alpine Turnaround
246,42.868201,-85.622725,Lockmere Dr SE/Effingham Dr SE
917,42.973627,-85.713230,Beaumont Dr NW
813,42.930243,-85.691862,Huizen Ave SW/Joosten St SW
418,42.929077,-85.633201,Giddings Ave SE/Elliott St SE
418,43.014068,-85.701685,Eagle St NW/Frederick Ave NW
305,42.916555,-85.760383,Carla St SW
276,43.118778,-85.558160,Maple St NE/S Monroe St NE
216,42.885699,-85.708688,Woods Trl SW
762,43.016727,-85.763203,/Fruit Ridge Ave NW
185,42.953292,-85.549969,W Village Trl/Village Springs Dr
185,42.963493,-85.513382,Winter Run Ct SE
185,42.864869,-85.605566,Bunker Hill Dr SE
160,43.025847,-85.636497,Parkway Dr/Benjamin Ave NE
216,42.989585,-85.724836,Northup Ave NW/Northrup Ave NW
160,42.861006,-85.488480,Thornview Dr SE
246,43.056957,-85.547971,Cannonsburg Rd NE/
185,43.094938,-85.523503,Arbol Ct NE/Arbol/Arbol Dr NE
160,42.949104,-85.523703,Ada Dr SE
305,42.983477,-85.691726,12th St NW/Widdicomb Ave NW
334,42.923243,-85.605151,Barfield Dr SE/Glen Gary Ct SE
160,42.835656,-85.666715,Interurban Ave SW
160,43.017095,-85.622498,Garret Dr NE
276,43.191006,-85.681763,Viking Dr NW/Circle Dr
334,42.790175,-85.514730,Park St/Emmons St SE/N Lake St SE
216,42.937835,-85.550465,E Meadows Dr SE
684,42.904871,-85.665596,Division Ave S
160,43.116535,-85.543339,New Orleans St NE/Atlanta Dr NE
160,43.083351,-85.454758,Montah Trl NE
390,43.000708,-85.647418,Emerald Ave NE/Graceland St NE
246,42.924732,-85.624970,Cambridge Dr SE/Louise St SE
1046,42.971609,-85.669069,/Ionia Ave NW/I- 196
160,42.905717,-85.570888,Riviera Dr SE/Lemans Ct SE
160,43.255260,-85.355458,Shady Lake Dr/Pinecrest Dr
276,42.856424,-85.659451,Haverhill Blvd SE/Fescue Dr SE
684,42.887097,-85.664810,Maplelawn St SE
246,43.158611,-85.352620,Lincoln Lake Ave NE
246,42.832354,-85.625664,Old Lantern Ct/Old Lantern Ct SE
185,42.957424,-85.603742,Rexford Dr SE/Reeds Lake Blvd SE
246,42.984575,-85.573877,Leonard St NE/Trillium Trl NE
246,42.941488,-85.562646,Castle Dr SE/Downing St SE
276,42.889045,-85.610741,N Castle Ridge Dr SE
579,42.923515,-85.666480,Division Ave S/Melville St SE
305,42.937247,-85.692712,Rathbone St SW/Ellen Ave SW
968,43.029051,-85.687022,4 Mile Rd NW
160,42.990902,-85.743276,Lamont Ave NW
418,42.865220,-85.645749,McBride Ln Pvt
185,42.981447,-85.779574,Johnathan Ct NW/Old Farm Dr NW
160,42.919317,-85.601924,Barfield Dr SE/Alger St SE
276,43.058032,-85.662700,US Hwy 131/6 Mile Rd NE
160,42.982313,-85.321739,Covered Bridge Rd NE
246,42.994583,-85.667329,Palmer St NE/Center Ave NE
968,42.976060,-85.682813,5th St NW
276,43.013872,-85.675902,US Hwy 131/S US Hwy 131
499,42.951583,-85.664905,Thompson Ave SE/Pleasant St SE
526,42.948605,-85.661594,Lafayette Ave SE/Franklin St SE
276,42.896081,-85.691108,Dunbar Ave SW
1772,42.961513,-85.629694,White Pine Ln SE
216,43.093586,-85.644429,Sovereign Dr NE/Legacy
216,42.835246,-85.618962,Spring Meadow Ct SE/Crystal Springs Blvd SE
160,42.879181,-85.475644,Little Harbor Dr SE
185,42.966646,-85.626133,Lawndale Ave NE/Lyon St NE
334,42.880310,-85.648793,Potter Ave SE/Montebello St
839,42.960069,-85.637424,Hope St SE/Benjamin Ave SE
305,42.823173,-85.652316,Cidermill Dr/Jonagold Dr
185,42.941214,-85.697080,Nagel Ave SW
160,43.124181,-85.620812,Green Timbers NE/Jewell Ave NE
917,42.908751,-85.695272,Buckingham St SW/Michael Ave SW
276,42.873427,-85.743167,Scenic River Dr/Ivanrest Ave SW
334,42.873882,-85.610764,Buck Creek Dr
185,43.051188,-85.601200,Rockhill Dr NE/Plainfield Ct
276,42.963099,-85.527139,Fulton St E/Wildwood Dr SE
160,42.935426,-85.350925,West St
160,43.012670,-85.695719,Pohens Ct NW
334,42.988324,-85.700277,Valley Ave NW/Arianna St NW
185,42.826270,-85.639457,Jamie Ln SE/76th St SE
276,42.978237,-85.670325,Mason St NW/Ottawa Ave NW
1046,42.913072,-85.576450,Eastbrook Mall Dr SE
605,42.949244,-85.675483,Rumsey St SW/Sheridan Ave SW
160,43.079858,-85.660126,Hayes Rd NE
246,42.920255,-85.590849,Radcliff Village Dr SE/Radcliffe Village SE/Radcliffe Village Dr SE
362,42.994358,-85.588338,Grand Ridge Ct NE/Park Ridge Ln NE
390,42.992719,-85.662104,Lafayette Ave NE/Dale St NE
246,43.097804,-85.468800,Tillicum Trl NE/Tillicum Grove NE
160,42.969979,-85.612925,Baltimore Dr NE/Michigan St NE
160,43.215134,-85.581411,Fernfield Dr/Shamrock Ln
216,42.916886,-85.534535,28 Ct SE
943,42.927394,-85.657948,Burton St SE/Madison Ave SE
160,42.955013,-85.555878,Braeburn St SE/Forest Hill Ave SE
305,42.944662,-85.711659,/I- 196
160,43.089222,-85.559036,Briar Ridge Dr NE/Knottypine St NE
185,42.856620,-85.606615,Brookfarm Ct/Brookfarm Dr SE
160,42.916292,-85.510798,Santigo Ct/Magellan Dr/Santigo Ave SE
362,42.920551,-85.681658,Noel Ave SW
390,42.903977,-85.568167,Woodland Creek Dr SE/E Paris Ave SE
160,42.912309,-85.493214,Dorset Dr SE/Cascade Springs Dr SE
276,42.891015,-85.758302,Bruce Dr SW/Mohawk Ave SW
216,42.863420,-85.642304,Birchview Dr SE
246,42.983829,-85.668428,Taylor Ave N/Barnett St NW
246,42.929049,-85.630876,Elliott St SE/Philadelphia Ave SE
276,42.891445,-85.744873,/Johnson Ln SW
1226,42.972368,-85.674559,I- 196
276,43.004282,-85.764241,Rich Vw NW
2515,42.970429,-85.670084,Ottawa Ave NW/Michigan St NW
216,42.828674,-85.696798,/Echoing Valley SW
216,43.253152,-85.351560,Maplewood Dr/Minerva Dr NE
472,42.869040,-85.680093,/US Hwy 131
185,42.841766,-85.669245,Palms St SW/Andale Ave SW
185,42.999898,-85.695101,Garfield Ave NW
160,43.155373,-85.550825,Northland Dr NE
160,42.833479,-85.649344,72nd St SE
472,43.007829,-85.649875,Plainfield Ave NE/Hollywood St NE
305,42.921116,-85.732249,Roys Ave SW/Porter St SW
305,42.862998,-85.748856,Nile Dr SW/56th St SW
526,42.962022,-85.647341,Dwight Ave SE/Baldwin St SE
305,42.892286,-85.633125,Winewood Ct SE
1071,42.962749,-85.640894,Fulton St E/Fitzhugh Ave SE
185,43.176239,-85.662154,Orchard Park Dr NE
246,42.950969,-85.595244,Manhattan Rd/Manhattan Ln SE
160,42.926161,-85.720311,Melvin St SW
160,42.906910,-85.565653,Woodbridge Dr SE
362,42.957767,-85.701560,John Ball Park Dr SW
1459,42.957736,-85.635891,Lake Dr SE/Carlton Ave SE
526,42.973470,-85.682704,I- 196
276,42.819815,-85.540425,Golf Point Ct SE/Golf Point Dr SE
418,43.018155,-85.630685,Plaza Dr NE
185,42.915484,-85.503472,Grenelefe Dr SE/Waybridge Dr SE
185,43.072714,-85.683687,7 Mile Rd NW
362,42.873266,-85.654827,Sluyter St SE/Madison Ave SE
185,42.911230,-85.496955,Cascade Rd SE
160,43.054731,-85.494644,Dun Robin Dr NE
1329,42.956177,-85.671903,/Wealthy St SW
216,42.923989,-85.725109,Ithaca St SW/Byron Center Ave SW
216,42.904822,-85.489898,Behler Dr SE
246,43.012952,-85.740579,Royal Vista Dr NW
216,42.920536,-85.682278,Longstreet Ave SW
185,42.945100,-85.682780,Underhill Ave SW/Martha St SW
246,42.932543,-85.625494,Orville St SE/Cambridge Dr SE
334,42.990692,-85.742696,Trail Dr NW/Laughlin Dr NW/Lamont Ave NW
160,42.903076,-85.498797,Burger Dr SE
736,43.014308,-85.691382,3 Mile Rd NW/
216,42.840605,-85.527466,Kraft Ave SE/68th St SE
216,43.049793,-85.492821,Rosses Pt NE/Hawick Ct NE
552,42.882721,-85.668493,Walton Ave SW/Farnham St SW
185,42.904974,-85.661478,Jefferson Ave SE/Exchange St SE
499,42.915508,-85.596174,Knollcrest SE/Swansea Dr SE
185,43.172572,-85.575775,US Hwy 131
216,43.129570,-85.549564,11 Mile Rd/11 Mile Rd NE
891,42.899874,-85.780710,I- 196
334,43.293219,-85.513553,3rd St/2nd St NE
246,42.830316,-85.649988,Sunview Dr SE/Coleman St SE
160,43.226348,-85.551200,N Main St NE
1097,42.984987,-85.680785,Wieland Pl NW/Leonard St NW
631,42.837765,-85.610507,Hartman Dr SE
246,42.881370,-85.590872,Lantana Dr SE
185,43.001112,-85.727918,Longmeadow St NW/Foxboro Ct NW
185,42.977266,-85.579362,Saddleback Farm/Bradford St NE
418,42.822793,-85.723018,/Byron Center Ave SW
1304,42.968302,-85.697440,Jackson St NW/Garfield Ave NW
185,43.115080,-85.553398,S Lincoln St
334,42.871227,-85.705490,Oakvale Dr SW
499,42.914267,-85.640365,Almont Ave SE
362,42.827538,-85.532915,Curry St SE/Pinto Dr
246,42.836548,-85.527356,Kraft Ave SE/Broadmoor Ave SE
276,42.990866,-85.690672,Webster St NW/Fremont Ave NW
216,42.836001,-85.680064,Amberwood Dr SW/Gardenview SW
390,42.836780,-85.725392,Lajean Dr SW/Parlo St SW/Marfield Dr SW
160,43.216620,-85.332072,Half Mile Dr NE
216,42.889891,-85.645683,Steelcase Dr SE
185,42.961485,-85.606191,Cascade Rd SE
605,42.941824,-85.570537,S Cook Valley Dr SE/E Paris Ave SE
216,42.839868,-85.633114,Regency Park Ct SE/Old Lantern Dr SE/Old Lantern Dr
185,42.980296,-85.705019,Maridell Ave NW
185,43.007720,-85.683948,W River Dr NW/Hillside Dr NW
160,43.205349,-85.575558,US Hwy 131
472,42.863674,-85.669085,Luther St SW
160,43.164338,-85.702746,Loomis St/Grove St
160,42.868195,-85.736378,Baron Ct SW
160,43.249364,-85.347540,W Sidney Rd
185,42.926177,-85.676997,Cutler St SW/Jerome Ave SW
185,42.963400,-85.512814,Winter Run SE/Winter Run Ct SE
160,42.944121,-85.470102,Dogwood Meadows Dr SE
160,42.820905,-85.739341,Railway Dr//Railway Dr SW
472,43.033335,-85.663083,US Hwy 131
216,42.903128,-85.638029,33rd St SE
246,43.011219,-85.650699,Borglum Ave NE/Conger St NE
160,43.244692,-85.353578,Beechnut St NE/Silver Beach Dr NE
499,42.897279,-85.772258,Blackfoot Dr SW/Canal Ave SW
246,43.056066,-85.613155,Boyd
1278,42.972305,-85.657014,/Hastings St NE/College Ave NE
552,42.900440,-85.586789,Huntington Woods Dr SE
185,42.988195,-85.616671,N Eventide Dr
185,42.973773,-85.758023,Eastway St NW/Lincoln Lawns Dr NW
445,42.958606,-85.589595,Oak Hollow Dr SE
631,42.898907,-85.646311,Eastern Ave SE
579,42.904848,-85.724651,Byron Center Ave SW/Kentfield St SW
160,43.041390,-85.599269,Willow Lane Ct
246,42.984350,-85.706069,Patton Ave NW/Walker Ave NW
185,43.123003,-85.680245,Tropical Dr/Vinton Ave NW
160,43.198540,-85.317897,Van Ocker Dr/Macclain St
631,42.914271,-85.666046,Division Ave S/Eola St SE
362,42.869284,-85.640053,Blaine Ave SE/52nd St SE
362,43.223586,-85.554215,W Cherry St NE
362,42.901724,-85.593804,Cabot Dr/Wingate Dr SE
160,43.234419,-85.701990,18 Mile Rd/Afton Ave
276,42.810308,-85.722964,85th St SW/Byron Center Ave SW
185,42.939327,-85.402982,Oak Trl SE
216,43.125916,-85.705748,Glen Park Dr/W Woodlane Dr NW
305,42.854972,-85.573431,Autumn Crest Dr SE
499,42.907100,-85.556508,Brookmere Dr SE/Eastland Ave SE
216,42.839412,-85.674737,Christmas Ln SW/Memorial Ln SW
160,42.900217,-85.498220,Cimarron Dr SE/Tuscany Dr SE
762,42.884182,-85.725473,Sherry St SW
246,42.855452,-85.669993,Haughey Ave SW
334,42.920617,-85.613410,Onekama Dr SE
160,42.888250,-85.473195,Cascade Rd SE
445,42.902991,-85.727650,Bluebird Ave SW
160,42.880448,-85.603000,N Breton Ct SE
185,42.944119,-85.713285,Indian Mounds Dr SW
216,43.056667,-85.610435,Jupiter Ave NE/Coit Ave NE
160,42.835296,-85.667890,71st St SW
216,43.156166,-85.559580,Galaxy Dr NE/Cygnus Ln
160,43.228626,-85.571224,US Hwy 131/White Creek Ave NE
216,43.031644,-85.653470,Canright St NE/Briggs Blvd NE
839,42.941404,-85.663667,Jefferson Ave SE/Hall St SE
160,42.885027,-85.459275,Cascade Rd SE
276,42.934629,-85.352115,Heffron St/Donna Dr
160,42.980285,-85.327470,Covered Bridge Rd NE/Beckwith Dr NE
334,42.928909,-85.624039,Plymouth Ave SE/Elliott St SE
305,42.858894,-85.654687,58th St SE/Madison Ave SE
276,42.923948,-85.563108,W Greenstone Dr SE
216,42.835114,-85.712455,Country Spring Ave/Lilypad Dr
968,42.960939,-85.639656,Hermitage St SE/Fuller Ave SE
390,43.021711,-85.658010,Riverview Ave NE
216,42.989434,-85.647439,Emerald Ave NE
736,42.935976,-85.638542,Fuller Ave SE
2542,42.969943,-85.661912,Vineland Pl/Lafayette Ave NE
390,42.958069,-85.701874,Butterworth St SW/John Ball Park Dr SW
160,42.813225,-85.728638,/Sherwood St SW
1433,42.927142,-85.609128,Burton St SE/Breton Rd SE
246,42.851518,-85.722975,/Byron Center Ave SW
160,43.155077,-85.569611,Scenic Pines Ct NE/Scenic Pines Dr NE
276,42.975313,-85.732702,Burritt St NW/Oakhurst Ave NW
943,42.927988,-85.692948,Denwood Ave SW/Burton St SW
445,42.893085,-85.712952,Groveland Ave SW/Iowa St SW
160,42.920403,-85.509803,Cascade Pt/Burton St SE
968,42.928924,-85.666724,Division Ave S/Stewart St SW
160,43.148037,-85.705698,Clark St NW
160,42.833111,-85.666268,Lichfield Dr SW
246,42.988203,-85.684393,Myrtle St NW/Muskegon Ave NW
160,42.986607,-85.711606,Hillmount St NW/Derby Dr NW
499,42.968136,-85.644638,Diamond Ave NE/Innes St NE
499,42.950295,-85.656617,College Ave SE/Thomas St SE
160,43.119202,-85.574004,Coral Dr NE
185,42.935207,-85.358018,Carol Lynne Dr/Elizabeth Dean Dr
472,42.884101,-85.673900,44th St SW/Stafford Ave SW
362,42.988308,-85.675483,Front Ave NW/Myrtle St NW
160,42.938735,-85.550010,Greenhill Ct SE/Patterson Ave SE
499,42.969085,-85.644662,Diamond Ave NE/Crescent St NE
788,42.971427,-85.650828,Harlan Ave NE
499,42.946526,-85.646396,Prince St SE/Kalamazoo Ave SE
160,42.917316,-85.746522,Viaduct St SW
305,42.929288,-85.673553,Stewart St SW/Darwin Ave SW
865,42.919349,-85.583950,E Beltline Ave SE
246,42.904499,-85.529302,Kraft Ave SE
246,43.219814,-85.575425,US Hwy 131/17 Mile Rd NE
160,42.842282,-85.602678,Gracepoint Dr SE/Passons Ct SE
246,42.953589,-85.595385,Reeds Lake Blvd SE/Manhattan Rd SE
185,42.956503,-85.693099,Krakow Pl SW
362,42.800101,-85.508186,Glengarry Dr SE/S Rodgers SE
579,42.922417,-85.719571,Lee St SW/Clarion Ave SW
246,42.994138,-85.631189,Wakely St NE/Edith NE
185,43.000728,-85.650991,Rowe Ave NE/Graceland St NE
276,42.918919,-85.597835,Belleglade Ct SE
526,42.956715,-85.590815,Cascade Rd SE
684,42.974837,-85.590706,/E Beltline Ave NE
276,42.802730,-85.707337,Nostalgia Dr SW/Restoration Dr SW
246,42.969078,-85.642190,Crescent St NE/Alfred Ave NE
334,42.860639,-85.706119,Crossroads Commerce Pkwy SW/Gezon Pkwy SW/Keegan Ave SW
788,42.960426,-85.661700,Lafayette Ave SE/State St SE
499,42.898741,-85.679617,36th St SW/Highgate Ave SW
160,43.219678,-85.673195,17 Mile Rd
813,42.886920,-85.609098,S Castle Ridge Dr SE
246,43.010734,-85.647933,Kelsey St NE/Plainfield Ave NE
216,42.873927,-85.749328,Tanana River Ave
160,42.942200,-85.629054,Gladstone Dr SE/Seminole Rd SE
472,42.953119,-85.672301,US Hwy 131
390,42.918314,-85.719321,Audobon St SW/Boulevard Dr SW
788,42.976649,-85.677519,US Hwy 131
160,43.025593,-85.655727,Elmdale St NE/College Ave NE
185,43.010601,-85.696479,Powers Ave NW
276,42.881814,-85.590899,Lantana Ct SE/Lantana Dr SE
276,42.954988,-85.618381,Edgemere Dr SE
160,42.903690,-85.637059,Brooklyn Ave SE/Fuller Ave SE
710,42.963915,-85.701497,/W Fulton St
216,42.863851,-85.703557,/Burlingame Ave SW
418,42.974536,-85.629497,I- 196
276,43.031897,-85.631456,Ruth Ln NE/Roma Ln NE
418,42.892333,-85.742242,Honeywood Ct SW
160,42.999333,-85.764910,/Remembrance Rd NW/Stark Ave NW
185,42.924882,-85.335580,Grand River Dr SE
418,42.993704,-85.670506,Monroe Ave NW/Travis St NW
472,42.936350,-85.646411,Marshall Ave SE/Evergreen St SE
631,42.967120,-85.686325,Sibley St NW/National Ave NW
246,42.902316,-85.697034,Raven Ave SW
472,42.906036,-85.681671,32nd St SW/Longstreet Ave SW
185,42.976965,-85.766576,Kinney Ave NW/Marlboro St NW
185,42.838470,-85.437237,Enchantment Dr SE/Enchantment Dr/Enchantment Ct SE
390,42.985675,-85.701617,Leonard St NW/Frederick Ave NW
736,42.868581,-85.728909,Palmaire Dr SW
684,42.954715,-85.487946,Thornapple River Dr SE/Ada Dr SE
362,42.850961,-85.639659,/Woodfield East Dr SE
216,43.028172,-85.597057,Summit View Dr NE/4 Mile Rd NE
276,42.931560,-85.633391,Giddings Ave SE/Ballard St SE
362,42.954302,-85.570014,Cascade West Pkwy SE
334,42.933369,-85.343026,W Main St SE/W Main St/Lincoln Lake
216,42.915735,-85.747881,I- 196 Bus/Vine St SW
579,42.959364,-85.631063,Norwood Ave SE/Milton St SE
185,43.134692,-85.670363,N Division Ave
246,42.952933,-85.519203,Buttonwood Ct SE/Adaway Ave SE
418,42.881235,-85.729699,Waterloo St SW/Winnipeg Ave SW
472,42.948007,-85.677783,Caulfield Ave SW/Stone St SW
276,42.904165,-85.765572,Fayette Ave SW
813,42.951868,-85.626995,Sherman St SE/Cambridge Blvd SE
160,43.143068,-85.674949,Whistling Pines Ln NW
160,42.979095,-85.643095,Maybelle St NE/Spring Ave NE
185,43.290438,-85.520705,S 7th St/Cherry St
390,42.957596,-85.705316,Standard Ave SW/Butterworth St SW
216,42.952905,-85.487202,River St SE/Bronson St SE/Fase St SE
362,42.977762,-85.619589,Bradford St NE
160,43.251637,-85.611243,Shepard View Dr/Algoma Ave NE
160,43.277388,-85.614023,21 Mile Rd NE
1511,42.849641,-85.629172,Saffron Ln
216,42.866613,-85.701529,Mulligan Dr
276,42.943761,-85.613961,el Dorado SE
160,43.112883,-85.557076,Krause St
276,42.992353,-85.604679,I- 96
185,43.038335,-85.738823,Peach Ridge Ave NW/Raap Dr
1097,42.962712,-85.633762,Lowell Ave NE/Fulton St E
246,43.016952,-85.685651,/I- 96
160,43.026417,-85.697361,High Point Dr NW
185,42.818738,-85.715500,Amber Creek Dr SW/Creekside Dr SW
246,42.993241,-85.716549,Richmond St NW/Hillcrest Ave NW
362,42.920118,-85.652519,Union Ave SE/Alger St SE
216,42.962749,-85.613994,Fulton St E/Somerset Dr NE
605,42.950099,-85.663988,Jefferson Ave SE/Sycamore St SE
499,42.948196,-85.702037,/Market Ave SW
736,42.894632,-85.729100,Wedgewood Ct SW
305,42.963004,-85.564187,Peartree Ln
418,42.972866,-85.682764,Seward Ave NW/2nd St NW
605,42.942763,-85.647014,Marshall Ave SE/Isabella Ct SE
216,42.911397,-85.497137,Cascade Rd SE
305,42.944870,-85.546464,Cascade Rd SE/Clifford Ave SE
160,43.208042,-85.552155,Beckett Blvd
160,42.937138,-85.346791,/Elizabeth St SE
160,42.905385,-85.476031,Whitburn Dr SE/Buckhaven Dr SE
160,43.172412,-85.500818,Stout Ave NE
160,42.979473,-85.772158,Waybury St NW
305,42.869976,-85.713601,52nd St SW
185,42.875580,-85.617090,Gerda St SE
305,42.843854,-85.627411,Smith Farm Ct SE
390,42.976979,-85.682725,6th St NW/Sixth St NW
246,42.808899,-85.728201,Maple Creek Ln SW/Troy St SW
526,42.975352,-85.748695,Bayberry Pointe Dr NW
185,43.133628,-85.618609,Booth Bay Cir NE/Nantucket Ct NE
305,43.095814,-85.507714,Valencia Dr NE
418,42.981453,-85.683065,Seward Ave NW/Eleventh St NW/Seward St NW/11th St NW
185,43.013184,-85.596857,3 Mile Rd NE/Johnathan Ave NE
276,42.930548,-85.579123,Griggs St SE/Observatory Ave SE
185,43.222293,-85.714468,Western Dr
246,43.171703,-85.392025,Wabasis Ave NE/Richards Ln/Angel Pond Dr NE
185,42.866029,-85.630134,Stuart Ave SE/54th St SE
4874,42.962281,-85.667865,S Division Ave/Division Ave S/Weston St SW
362,42.902246,-85.607430,Breton Rd SE
160,42.937579,-85.523935,Hallmark Ln
246,42.996633,-85.703102,Preston Ave NW/Dunlap St NW
160,43.071591,-85.599605,Rogue River Rd/Verta Dr NE/Rogue River Rd NE
246,42.905620,-85.652086,Union Ave SE/32nd St SE
160,42.979897,-85.438428,Conservation St NE
276,42.984849,-85.765866,W Avery Ct
160,42.968818,-85.709006,Sibley St NW/Graham Rd NW
276,42.858931,-85.659499,Jefferson Ave SE/58th St SE
445,43.086261,-85.500250,Belding Rd NE/Myers Lake Ave NE
305,42.906651,-85.777822,I- 196
762,42.927138,-85.611615,Burton St SE/Osceola Dr SE
334,42.966906,-85.650253,East Pl NE
362,42.880609,-85.727909,Valleyridge Ave SW/Ancient Dr SW
445,43.008577,-85.649404,Plainfield Ave NE/Beechwood St NE
334,42.849081,-85.679242,/State Hwy 6
185,42.933835,-85.550978,Bluegrass Dr SE/Riva Ridge Dr SE
472,42.887914,-85.690215,42nd St SW/Dunbar Ave SW
185,43.046733,-85.576028,Webber Pines Dr Prrd
160,43.062131,-85.554367,Goldfinch Dr NE/Canary Ct
160,42.959095,-85.507067,Grayfield Ct SE/Scarborough Dr SE/N Grayfield Ct SE
160,42.977116,-85.702564,Calvary Ave NW
216,42.855915,-85.762368,Wilson Ave SW
160,43.014144,-85.531036,3 Mile Rd NE/Pettis Ave NE
839,42.975335,-85.696637,Fourth NW/Lincoln Ave NW
160,43.185915,-85.667259,Hull St NE
472,42.984328,-85.592649,Leonard St NE
160,43.001320,-85.460024,2 Mile Rd NE
390,42.793883,-85.506931,Cherry Valley Ave SE
185,42.995015,-85.703047,/Preston Ave NW
1824,42.881794,-85.758080,Mall Dr
445,42.847553,-85.763834,State Hwy 6
390,42.943850,-85.604304,Princeton Blvd SE/Lake Dr SE/Conlon Ave SE
185,42.792352,-85.510419,North St SE
160,43.222283,-85.770969,State Hwy 37/Fruit Ridge Ave
216,42.834156,-85.638763,Harvester St SE
216,43.082480,-85.369706,Belding Rd NE
160,42.942911,-85.585631,Reeds Lake SE
160,43.116781,-85.632631,10 Mile Rd NE
160,43.091114,-85.500284,Myers Lake Ave NE/Bella Vista Dr NE
160,42.965741,-85.345498,Foleys Grade/Burroughs St NE
185,42.863701,-85.676057,Clay Ave SW
185,42.807992,-85.499112,Fence Row Ct/Green Valley Rd
160,42.871219,-85.752395,Copper River Ave/Vistula Ct
160,43.197519,-85.730881,Indian Lakes Rd
216,42.983701,-85.769864,Kennsington NW
390,43.095649,-85.513357,Las Palmas NE
185,42.871113,-85.683327,Brian Dr SW/Leisure Dr SW
246,43.076431,-85.609328,/Belmont Ave NE
160,43.016654,-85.657056,Wright St NE/Paris Ave NE
1046,42.913899,-85.722473,28th St SW/Central Ave SW
305,43.063118,-85.579911,Northland Dr NE
160,43.152228,-85.332055,/Morgan Mills Ave NE
246,42.907843,-85.652120,Van Allen St SE
246,42.886487,-85.724198,43rd St SW/Byron Center Ave SW
246,42.938976,-85.568419,Lake Dr SE
526,42.887155,-85.686560,Burr Ave SW
418,42.972843,-85.650833,Hake Rd NE/Harlan Ave NE
216,43.047619,-85.675189,Lantern Dr NW
216,42.891885,-85.610359,Merrimack Way SE
418,42.916517,-85.724889,Wrenwood St SW/Byron Center Ave SW
185,42.841663,-85.719311,Glen Pond SW
185,43.051139,-85.686672,Hansel St NW/Beuregard Ave
185,42.812185,-85.644305,Eastern Ave SE
216,42.921497,-85.589870,Raybrook St SE/Raybrook Ave SE
362,42.983591,-85.654665,Barnett St NE/Union Ave NE
160,43.231624,-85.559090,Pioneer Dr
185,43.213547,-85.571121,/White Creek Ave NE
246,43.023412,-85.658333,Hubbard St NE/Cottage Row NE
276,42.995545,-85.688348,Sylvia St NW/Alpine Ave NW
216,42.932645,-85.396192,Deerwood Dr SE/Woodgate Dr SE
305,43.124680,-85.706122,Country View Ct
185,42.983779,-85.662074,Barnett St NE/Lafayette Ave NE
160,42.841056,-85.485100,Orlee St SE
2895,42.959530,-85.647015,Cherry St SE
185,42.929256,-85.343890,Bowes Rd
160,42.816074,-85.624665,Crescent Pointe SE/Kalamazoo Ave SE
185,42.891567,-85.695143,40th St SW/Michael Ave SW
246,42.861641,-85.640619,Bellewood Dr SE/Greenboro Dr SE
736,42.948818,-85.674735,Franklin St SW/I- 196 Bus/US Hwy 131
943,42.914310,-85.705294,/Burlingame Ave SW
216,42.891838,-85.645907,Eastern Ave SE
472,42.937105,-85.667138,Garden St SE/Division Ave S
305,43.117401,-85.540511,Courtland Dr NE
762,42.850685,-85.633216,/Cobb Dr SE
813,42.948293,-85.639440,Franklin St SE/Fuller Ave SE
499,42.930227,-85.690752,Joosten St SW/Galewood Ave SW
185,42.909464,-85.624489,Rosewood Ave SE/Shangrai-la Dr SE
943,43.119779,-85.562281,W Bridge St NE
658,42.852648,-85.647560,/Woodfield Dr SE
334,42.986429,-85.662035,Lafayette Ave NE/Page St NE
276,42.880159,-85.583343,Quaker Hill Dr SE
216,42.932202,-85.390188,Fay St SE
185,42.876481,-85.748705,Stonewood River Ave
305,42.924788,-85.698539,Johanna Ave SW/Belfield St SW
736,42.927096,-85.621993,Burton St SE/Maumee Dr SE
390,42.841911,-85.632604,Rye Grass Ct SE/Canary Grass Dr SE
216,43.175643,-85.572750,/14 Mile Rd NE
216,42.989267,-85.654677,Quimby St NE/Rehoboth Dr NE/Union Ave NE
160,42.908878,-85.505489,Thornapple River Dr SE
160,43.108060,-85.534765,/Kies St NE
418,42.901617,-85.685150,Clyde Park Ave SW/Bryant St SW
160,43.196061,-85.667842,Blackall Blvd
418,42.902519,-85.698964,34th St SW/Heron Ave SW
185,43.124092,-85.575131,Arbor Dr/Glen Carin Dr NE
185,43.157097,-85.611050,Algoma Ave NE
334,42.934363,-85.617078,Boston St SE
1174,42.883568,-85.729673,Sherbrooke St SW
1149,42.866325,-85.727587,Sand Dune Ct/Pine Dunes Dr SW
334,43.047513,-85.604755,Plainfield Ave NE/Omega Dr NE
185,43.166406,-85.542939,Streamside Ct
658,42.918567,-85.575405,Camelot Ct SE
276,43.077091,-85.639503,US Hwy 131
390,42.954093,-85.629277,Gladstone Dr SE/Lake Dr SE
160,43.178997,-85.661342,/Stauffer Dr NE
631,42.975189,-85.666618,Fairbanks St NE/Hester Pl NE
362,42.914570,-85.538934,I- 96
160,43.087719,-85.582731,Childsdale Ave
362,42.904844,-85.725506,Kentfield St SW
1071,42.960464,-85.647303,Lake Dr SE/Dwight Ave SE
185,42.841104,-85.588561,68th St SE/Rosecrest Dr SE
216,42.916046,-85.529781,Sedgefield Ln SE/Kraft Ave SE/28 Ct SE
160,43.215775,-85.770910,Fruit Ridge Ave
390,42.948413,-85.651705,Henry Ave SE/Franklin St SE
390,42.926211,-85.679111,St Charles Ave SW/Cutler St SW
160,42.901607,-85.480440,Aspenwood Dr SE/Vinewood Ave SE
631,42.956617,-85.590467,Cascade Rd SE
160,43.082240,-85.510268,/Egypt Valley Ave NE
160,43.158471,-85.637837,Algoma Highlands Dr NE/Mieras Dr NE
216,42.826824,-85.716894,76th St SW
305,42.965075,-85.650082,Eastern Ave NE/Fountain St NE
445,42.972045,-85.689643,Pettibone Ave NW/1st St NW
160,43.187644,-85.312240,Stacey Rd/Montcalm Rd
276,42.928335,-85.773808,Wilson Ave SW/Burton St SW
185,42.956808,-85.516400,Remington Dr SE
185,42.935527,-85.653669,Union Ave SE/Cottage Grove St SE
160,42.943981,-85.471040,Dogwood Meadows Dr SE/Thornapple Club Dr SE
390,42.941061,-85.592687,Hall St SE/Woodshire Ave SE
684,42.973173,-85.679951,Broadway Ave NW/I- 196
362,42.999940,-85.626896,Sandpiper Pt NE/Aspen Lake Dr NE
276,42.983156,-85.755890,10th St NW
160,42.924940,-85.590446,Mallard Dr SE/Raybrook St SE
276,42.918758,-85.684661,Mc Kee Ave SW
246,42.939234,-85.621411,Kr Blvd SE/Kreiser St SE
418,42.951924,-85.642672,Sherman St SE/Neland Ave SE
246,43.096385,-85.481670,Silver Ridge Dr
160,43.031913,-85.630221,Ruth Ln NE/Hilltop Pl NE
185,42.805291,-85.565279,E Paris Ave SE
185,42.926401,-85.421889,Fulton St
185,42.818052,-85.742292,Crowley Dr SW
390,42.991734,-85.639877,Fuller Ave NE/Sweet St NE
160,43.291955,-85.522391,W Lake St NE/8th St
362,42.910142,-85.597502,29th St SE
160,42.925087,-85.342885,S Hudson St
246,42.849914,-85.634401,Saffron Ln
160,42.837329,-85.443493,/McCords Ave SE
160,42.828624,-85.533796,Hardwood St
185,43.093371,-85.555878,Kroes St NE/Northland Dr NE
246,43.024094,-85.631587,Jaclin Dr NE/Sherin Dr NE
160,43.158259,-85.523325,Terrace Park Dr
418,42.921259,-85.756346,Sanford Ave SW
246,43.012643,-85.696747,Lincoln Ave NW
276,42.837647,-85.637675,Belfast Ave SE/Brownell St SE
246,42.935009,-85.603489,Albert Dr SE/Conlon Ave SE
160,42.905249,-85.579631,32nd St SE
736,42.914599,-85.638131,Walsh St SE/Brooklyn Ave SE
185,43.087103,-85.520170,Bonita Vista Ct NE
160,42.914617,-85.610943,E Sauk Trl SE/S Saulk Trl SE
185,43.004044,-85.583729,Mason Lake Ct NE
276,43.125635,-85.545546,Castle Hill Ct NE/Courtland Dr NE
1046,42.962727,-85.636594,Fulton St E/Arthur Ave NE
246,42.819999,-85.732769,Beechtree Dr SW/Byron Station Dr SW
762,42.879257,-85.760581,Mall Dr
552,42.912887,-85.612997,Birchcrest Dr SE
526,42.983562,-85.676524,Scribner Ave NW
246,42.920917,-85.709197,Hague Ave SW/Porter St SW
185,43.146596,-85.704559,Edwards/Edward St NW
216,42.996439,-85.611966,Dunlin Ct NE
552,42.989904,-85.677701,Turner Ave NW/Webster St NW
1589,42.912215,-85.665943,Honeoye St SW/Division Ave S/Honeoye St SE
552,42.961555,-85.677348,US Hwy 131
216,42.839680,-85.635271,Bonnie Ave SE/Brooklyn Ave SE
185,43.219966,-85.559846,Eighth St/W Muskegon St NE
246,42.930324,-85.616853,Concord Ave SE/Griggs St SE
216,42.876655,-85.655135,48th St SE/Madison Ave SE
160,42.961855,-85.610351,Maryland Ave SE
334,42.979097,-85.644729,Diamond Ave NE/Maybelle St NE
160,42.879400,-85.706969,Sentinal St SW/Pinnacle Dr SW
499,42.917602,-85.598430,E Mulford Ct SE
305,42.953555,-85.486018,Thornapple River Dr SE
185,42.906434,-85.765292,Prairie St SW/Washington Ave SW
185,43.003731,-85.488442,Oak Haven Ct NE
762,42.939076,-85.642351,Temple St SE/Kalamazoo Ave SE
160,42.950583,-85.672462,Grant St SW/Buchanan Ave SW
160,42.932913,-85.596796,Hampshire Blvd SE/Ridgewood Ave SE
1304,42.869311,-85.644245,52nd St SE
305,43.006244,-85.670861,Guild Riverside Cutoff/Guild St NW
160,42.991279,-85.759716,Maplerow Ave NW
5851,42.964598,-85.678882,US Hwy 131
1355,42.927144,-85.633043,Giddings Ave SE/Burton St SE
917,42.970131,-85.654543,Michigan St NE/Union Ave NE
445,42.914801,-85.660499,Jefferson Ave SE/Spruce St SE
160,43.072899,-85.638791,English Ave NE
499,42.940259,-85.685305,Ritzema Ct SW
160,43.057091,-85.542062,Cannonsburg Rd NE/Bear Creek Trl NE
334,43.003352,-85.784237,Cider Mill Ct NW/Cider Mill Trl NW
813,42.972119,-85.760224,Lake Michigan Dr NW
390,42.796628,-85.508308,Dobber Wenger Memorial Dr SE/Kaechele SE
185,42.797715,-85.526814,Kraft Ave SE
246,42.961915,-85.619584,Fultonwood Dr SE
390,42.829235,-85.671369,Expressway Ct SW
305,42.919267,-85.567238,Kingbridge Ter SE
160,42.863857,-85.622675,Waterbury Pl SE
305,42.896984,-85.635261,Poinsettia Ave SE
246,42.969101,-85.617707,Lonsdale Dr NE/Lakeside Dr NE
160,43.000833,-85.718094,Walker Ave NW
865,42.888621,-85.629154,W Saxony Dr SE/N Saxony Dr SE
305,42.899477,-85.606409,Breton Valley Ct SE/Breton Valley Dr SE
418,42.914426,-85.642294,Blaine Ave SE
185,43.117784,-85.470511,Young Ave NE/10 Mile Rd NE
216,42.966346,-85.632615,Mayfield Ave NE/Lyon St NE
710,42.953868,-85.654197,Union Ave SE/Logan St SE
445,42.898325,-85.535176,36th St SE/Raleigh Dr SE
160,42.974150,-85.484745,Dogwood Ave NE
579,43.030887,-85.672736,Stowell St NW/Milla Ave NW
185,42.882300,-85.547075,Patterson Ave SE
216,42.959963,-85.595420,Park Hills Dr SE/Midland Dr SE
305,43.221784,-85.554512,W Beech St NE
552,42.928244,-85.655557,College Ave SE/Ardmore St SE
216,43.000772,-85.727890,Oakleigh Ave NW
472,42.898483,-85.694841,Milan Ave SW
2623,42.963146,-85.664193,Jefferson Ave SE/Fulton St E/E Fulton St
472,42.944621,-85.654129,Union Ave SE/Alexander St SE
276,42.869116,-85.701299,Meadow Run Ct
994,42.919715,-85.579682,Camelot Dr SE/Springbrook Pkwy SE
276,43.022911,-85.682996,Riverview Dr NW/Tamarak Trl
160,42.995342,-85.546042,Grand River Dr NE
276,42.993876,-85.757613,Remembrance Rd NW/Maplerow Ave NW
160,42.993833,-85.726288,Red Oak Ct NW
305,43.037525,-85.597887,Summit View Dr NE
276,42.992549,-85.633263,Waldorn Ave NE/Manton St NE
418,42.839649,-85.610571,Hartman Dr SE
1174,42.970386,-85.672281,Monroe Ave NW/Michigan St NW
246,42.897414,-85.767399,Blackfoot Dr SW/Aaron Ave SW
216,42.878003,-85.639444,Blaine Ave SE/Grantwood Ave SE
305,42.926635,-85.669636,Cutler St SW/Ionia Ave SW
334,42.857494,-85.577897,Lyn Haven Dr SE/W Grove Dr SE
185,42.934309,-85.384790,Barnsley Rd SE/Taunton SE
1123,42.973043,-85.678879,I- 196
499,42.957551,-85.646889,Eureka Ave SE/Fairmount St SE
499,42.936382,-85.694398,Freeman Ave SW/Rathbone St SW
418,42.915490,-85.553525,Trails-End Dr SE/Trails End Dr SE/Wrightwind Dr SE
472,42.856987,-85.728759,Scarsdale Dr SW/Thackery Ct SW
362,42.912811,-85.650424,28th St SE
160,43.256213,-85.550566,Egner St NE
216,42.895546,-85.630294,Grooters St SE
334,43.221789,-85.553644,W Beech St NE
2141,42.959567,-85.667768,Division Ave S/Cherry St SE
216,42.894084,-85.624213,Oldtown Rd SE
160,43.130261,-85.574883,/Orchard Dr
185,42.837898,-85.683505,Amber Ridge Dr SW/Clyde Park Ave SW
605,42.951166,-85.654179,Union Ave SE/Pleasant St SE
160,42.873115,-85.553374,50th St SE
362,42.914673,-85.648420,Walsh St SE/Martin Ave SE
185,42.957668,-85.600490,Pioneer Club Rd SE
276,42.988678,-85.747011,Benning Ave NW
216,42.988380,-85.747000,Trail Dr NW/Benning Ave NW
334,42.952956,-85.775888,Drakewood Ln/Kenowa Ave
246,42.915527,-85.525542,Chatham Woods Dr SE
276,43.022263,-85.780035,N Wilson Ct NW
185,42.960966,-85.614206,Mercer Dr SE
160,42.901726,-85.623090,Derbyshire St SE
4728,42.963661,-85.667924,Division Ave N/Monroe Center St NW/Monroe Center St NE
216,42.851094,-85.585265,State Hwy 6/Hanna Lake Ave SE
246,43.084784,-85.458999,Old Belding Rd NE
710,42.950117,-85.664880,Thompson Ave SE/Sycamore St SE
185,42.847895,-85.604381,Testify Ct
276,42.984437,-85.633760,Lewison Ave NE/Leonard St NE
276,42.939858,-85.780843,Juleon Dr SW/Su Lew Ave SW
185,42.905759,-85.485107,Woodvale St SE
552,42.931222,-85.360194,W Main St SE
552,42.918052,-85.666225,Division Ave S
276,42.881538,-85.709682,N Camrose Ct SW
710,42.989422,-85.664041,Quimby St NE/Plainfield Ave NE
276,42.998974,-85.647297,Knapp St NE/Emerald Ave NE
334,42.944448,-85.656588,Howard St SE/College Ave SE
362,42.920942,-85.710436,Beverly Ave SW/Porter St SW
276,42.844573,-85.607896,Spyglass Dr SE
631,42.875712,-85.650722,Victoria Ave SE/Garland St SE
160,42.935380,-85.359911,Faith Dr
362,42.923679,-85.610143,Ontonagon Ave SE
246,42.984533,-85.776760,Apple Blossom Dr NW/Wilson Ave NW
305,42.909012,-85.516599,Parview Ct SE
216,43.171700,-85.391893,Richards Ln
216,43.213556,-85.748881,Wyndsong Ct NW
579,42.862017,-85.644924,Eastern Ave SE
445,43.042727,-85.601872,Northvale Dr NE/5 Mile Rd NE
216,42.777270,-85.669647,US Hwy 131
160,43.027920,-85.566647,4 Mile Rd NE
160,42.829147,-85.719369,Whistlehill Dr
526,42.880133,-85.613240,Highlander Dr SE
631,42.905412,-85.618300,/32nd St SE
1174,43.120882,-85.559531,N Main St NE/Squires Street Sq NE/Courtland St NE
216,42.873098,-85.704743,Glenboro Ct SW
246,43.021164,-85.647406,I- 96/Cheney Ave NE
216,42.866462,-85.569950,/Elm Dr
216,42.988770,-85.754694,Walker Village Dr NW
185,42.996322,-85.760868,Remembrance Rd NW/Ryan Ave NW
246,42.949532,-85.482588,Thornapple River Dr SE/Buttrick Ave SE
276,42.801981,-85.722911,Conifer Ridge Dr SW/Byron Center Ave SW
160,42.977898,-85.683959,Muskegon Ave NW/Seventh St NW
185,43.076599,-85.638888,English Ave NE
216,42.838188,-85.601799,Terra Cotta Ave SE/Sienna Dr SE
160,42.987366,-85.668653,Grove St NE/Taylor Ave N
185,43.007968,-85.570739,Maguire Ave NE
246,42.882572,-85.532355,/Freight Dr SE
526,42.969107,-85.647115,Crescent St NE/Houseman Ave NE
160,42.871249,-85.459021,Whitneyville Ave SE
185,43.228218,-85.784076,State Hwy 37
185,42.833126,-85.666661,Lichfield Dr SW
160,42.891581,-85.697109,40th St SW/Raven Ave SW
334,43.219790,-85.579623,Edgerton Ave NE/17 Mile Rd NE
185,42.826383,-85.682245,76th St SW
334,42.898422,-85.692316,Illinois Ave SW
418,42.898480,-85.698884,Heron Ave SW
736,42.911963,-85.695005,Rogers Plz SW
276,42.948910,-85.530942,Bridge Crest Dr/Ada Dr SE
362,42.894959,-85.667280,Loraine Ave SW
472,42.920539,-85.575603,Camelot Woods Apt Dr SE
160,42.998810,-85.608591,/Knapp St NE
552,42.902354,-85.580500,Broadmoor Ave SE
246,42.919297,-85.599936,Parkridge Dr SE/Alger St SE
160,42.792384,-85.583927,Woodsview Hills Ct
216,43.060464,-85.652837,Pendelton Ct
276,42.861016,-85.575473,W Grove Dr SE
305,42.866908,-85.741402,Beckie Ct SW
390,42.951874,-85.629779,Sherman St SE
526,42.884685,-85.734705,44th St SW
6886,42.964973,-85.672142,Louis St NW/Monroe Ave NW/Louis Campau Promenade NW
185,42.839979,-85.477091,68th St SE
276,42.977620,-85.704965,Maridell Ave NW/6th St NW
710,42.927377,-85.655484,College Ave SE/Burton St SE
334,42.983178,-85.764622,Macey Dr
276,42.833763,-85.671372,Friarway Ave SW
246,42.822515,-85.705268,Westminster Dr SW/Athearn Dr SW
418,42.976670,-85.670889,Newberry St NW
472,42.840751,-85.643530,68th St SE
160,43.175387,-85.604819,14 Mile Rd NE/Little Cedar Cir
334,42.999163,-85.670347,Monroe Ave NW/Ext/Knapp St NW
185,42.857057,-85.635550,Bonnie Ave SE/59th St SE
334,42.848696,-85.762626,Wilson Ave SW/64th St SW
276,43.068953,-85.690142,Vitality Dr/Alpine Ave NW
305,42.928918,-85.626531,Elliott St SE/Rosewood Ave SE
160,43.011465,-85.655234,College Ave NE/Conger St NE
1355,42.966217,-85.686303,Lake Michigan Dr NW/National Ave NW
276,42.894645,-85.734998,Shady Oaks Ct SW
160,42.935556,-85.341404,Elm St SE/Riverside Dr SE
160,42.896417,-85.490043,Aqua Fria Ct SE
246,43.019003,-85.661081,Monroe Ave NE
1563,42.966187,-85.685067,Gold Ave NW/Lake Michigan Dr NW
160,43.164668,-85.327254,Meadowoak Dr/Morgan Mills Ave NE
185,43.125482,-85.704025,Meadow Park Dr NW/Glenside Dr
185,43.145175,-85.548345,Hollow Ridge Dr NE/Townsend Trl NE
160,42.933904,-85.710915,Stanton St
160,42.971039,-85.585686,Pleasant Ridge St NE/Michigan St NE
334,42.869914,-85.709706,52nd St SW/Olen Ct
185,42.930725,-85.620548,Griggs St SE/Chamberlain Ave SE
160,43.090555,-85.511523,Buena Vista Ct NE
472,42.923019,-85.647051,Ottillia St SE/S Ottillia St SE/N Ottillia St SE
334,42.916650,-85.599853,Mulford Dr SE
160,43.073986,-85.632502,Marblehead NE
8139,42.955506,-85.631640,Norwood Ave SE/Lake Dr SE/Wealthy St SE
839,43.011928,-85.771100,Chaska Ct NW
526,42.975577,-85.763535,Hampton Ln NW
160,43.117108,-85.587709,Windstone Dr NE/10 Mile Rd NE
305,43.004391,-85.626872,Rodney Cir NE
185,43.089751,-85.636527,Palmetto Ct NE/Belhurst Ave NE
185,43.012376,-85.737351,Valleydale Dr/Valleydale Dr NW
788,42.903601,-85.665545,Division Ave S/Clements St SE
246,42.932281,-85.505087,Donnegal Ct SE/Tammarron Ave SE
185,42.985963,-85.711591,Leonard St NW/Derby Dr NW
390,42.967480,-85.702530,I- 196
246,42.977384,-85.655808,Paris Ave NE
736,42.940096,-85.643788,Hancock St SE/Kalamazoo Ave SE
552,42.929189,-85.589742,/Knollcrest Cir SE
160,42.948495,-85.488471,Windy Hill Dr SE
216,42.935769,-85.335887,N Washington St SE/Avery St
185,42.921790,-85.658721,Prospect Ave SE
276,42.807668,-85.712365,Woodruff Dr SW
631,43.009106,-85.597872,Winesap Dr NE/Johnathan Ave NE
305,42.982984,-85.782655,Wolf River Ct NW/Pippin Dr NW
246,43.024309,-85.644384,Elmdale St NE/Statesman Ct NE
276,42.953712,-85.532625,Longwood Dr SE/Hartfield Dr SE
216,42.841020,-85.486710,Thornapple Hills Dr SE/Orlee St SE
276,42.938041,-85.699669,Martindale Ave SW/Marquette St SW
160,42.983779,-85.666144,Barnett St NE/Clancy Ave NE/Gill Ave NE
362,42.914313,-85.747485,Olivet St SW
246,42.886715,-85.552026,Danvers Dr SE/Danvers Ct SE
185,42.839885,-85.476173,68th St SE/Alaska Ave SE
305,42.932539,-85.618926,Orville St SE/Warwick Rd SE
334,42.859101,-85.745847,Hickory Ridge Dr SW/Cherry Ridge Dr SW
276,42.928980,-85.671644,Stewart St SW/Buchanan Ave SW
160,43.016158,-85.606058,Woodsboro Dr NE/Ashville Dr NE
185,42.932942,-85.714091,Schneider Ave SW/Marble Ave SW
160,42.979863,-85.439478,Conservation St NE
579,42.978432,-85.679393,Eighth St NW/Broadway Ave NW
418,42.994372,-85.644824,Diamond Ave NE/Kentwood St NE
839,42.936192,-85.686424,/I- 196 Bus
216,42.992410,-85.686268,Richmond St NW/Davis Ave NW
334,42.912815,-85.536356,I- 96/28th St SE
185,42.878354,-85.720385,Treasure Trl SW
2381,42.862782,-85.723167,Byron Center Ave SW/56th St SW
160,43.009437,-85.579881,Atwater Hills
160,42.811967,-85.512995,84th St SE/Deer Forest Meadows SE
185,43.146035,-85.695542,12 Mile Rd NW
305,42.916796,-85.735799,Lee St SW
160,43.235084,-85.790543,E Division St/N Main St
185,43.220102,-85.540271,17 Mile Rd NE
362,42.966645,-85.628691,Wallinwood Ave NE/Lyon St NE
390,42.866895,-85.737431,Beckie Dr SW/S Horseshoe Dr SW/N Horseshoe Dr SW
246,42.857802,-85.620676,Jeffrey St SE/Penny Farm Dr SE
472,42.884562,-85.715021,44th St SW/Idlewood Dr
185,42.896014,-85.612291,Eddington Dr/Edington Dr SE/Deer Hollow Dr SE
160,43.275636,-85.521838,/Park Dr
1071,42.982060,-85.698388,White Ave NW/Walker Ave NW
276,43.241179,-85.353636,Hillway/Wildwood Way NE
499,42.897290,-85.687873,Pine Oak Ave SW
334,42.995342,-85.644840,Diamond Ave NE/Washtenaw St NE
579,42.961827,-85.635948,Grace St SE/Carlton Ave SE
1046,42.974878,-85.677930,/US Hwy 131
246,43.013866,-85.613653,Dylan Ct
246,43.023650,-85.603611,Olderidge Dr NE
305,43.026078,-85.608872,Manderley Dr NE/4 Mile Rd NE
552,42.989892,-85.679484,Webster St NW
552,42.870241,-85.681033,Ivy Ln SW
334,42.903567,-85.529916,33rd St SE
216,42.834322,-85.667886,Lichfield Dr SW/Tewkesbury Dr SW
160,42.982401,-85.724006,Parmelee Ct NW/Parmelee Ave NW
3005,42.970596,-85.680195,Bridge St NW/Broadway Ave NW
276,42.830122,-85.628446,Kings Crossing Ct/Kings Crossing Dr SE
185,42.995957,-85.743212,Pheasant Ave NW
160,43.093376,-85.552388,Kroes St NE/Black Forest
552,42.953647,-85.630395,Glenwood Ave SE/Logan St SE
185,43.161070,-85.563040,Wellington Dr/13 Mile Rd NE
305,42.937991,-85.686761,Coate Ct SW
185,43.103998,-85.557296,Winding Trl NE
216,42.869129,-85.702820,Rischow Ct
334,42.839632,-85.454292,Keiser St SE/Houston Ave SE
216,43.019240,-85.603630,Wildridge Ct NE/Wildridge Dr NE
185,43.042220,-85.555869,Oak Arbor Dr NE
362,42.879239,-85.469212,Buttrick Ave SE
216,42.856827,-85.618170,Pinetree Ave SE/Glenmoor Dr SE
160,42.844934,-85.594840,Leisure Creek Dr SE
246,42.908650,-85.627429,Forrester St SE/Kalamazoo Ave SE
160,43.042269,-85.626851,/Ambrose Ave NE
160,43.082346,-85.562802,Thimbleweed Ln NE/Wintercress Dr NE
1226,42.888057,-85.629221,W Saxony Dr SE/S Saxony Dr SE
865,42.911483,-85.705193,Burlingame Ave SW
499,42.905984,-85.676989,US Hwy 131/32nd St SW
246,42.941001,-85.632327,Hall St SE/Allerton Ave SE/W Chippewa Dr SE
160,43.083495,-85.453991,Monitok Trl NE/Naontah Trl NE
418,42.826398,-85.683465,Clyde Park Ave SW/76th St SW
185,43.025797,-85.657668,Elmdale St NE/Briggs Blvd NE
160,43.063574,-85.636298,Skyhills Dr NE/Riverlook Dr NE
246,42.977699,-85.751224,Hazelnut Dr NW/Kommer Ct NW
276,42.976687,-85.674351,Newberry St NW
276,42.906615,-85.728245,Nursrey Ave SW/Prairie St SW
160,43.220908,-85.549921,S 1st St/E Church St NE
968,42.991051,-85.663785,Saunders St NE
276,42.804702,-85.705808,Mycah Dr SW/Hightree Dr SW
472,42.972075,-85.666518,Hastings St NE/Hester Pl NE
216,42.911466,-85.505203,Thornbrook St SE/Jack Smith Ave SE
246,42.925423,-85.583057,Burton Ridge Dr SE
246,42.886868,-85.623007,Langley St SE
160,43.126177,-85.567007,Kinross Ct NE/Kinross Dr NE
160,43.043535,-85.674787,Lamoreaux Dr NW/Hattus Ave NW
526,42.995826,-85.637375,Dean St NE
246,43.051274,-85.688079,Hansel St NW/Heide Ave NW
276,42.779522,-85.668829,/US Hwy 131
1433,42.964419,-85.687474,Straight Ave NW/Veto St NW
185,42.796438,-85.432560,Binder Ct/Andrew Farms Dr
185,43.225417,-85.549958,E Maple St NE/N 1st St
160,42.968078,-85.540272,Rollingbrook Dr NE
185,43.090920,-85.469009,Silverwick Ct NE
216,43.008267,-85.597705,Appleleaf Ct NE
390,42.913008,-85.528271,Foremost Dr SE/28th St SE
684,42.991900,-85.670567,Sweet St NW/Monroe Ave NW
160,43.022885,-85.625724,Dorais Ct NE
185,42.950653,-85.682339,Godfrey Ave SW/Rumsey St SW
334,42.885029,-85.673464,Murray St SW
246,42.932019,-85.386201,Eleanor/Denise St SE
305,42.955080,-85.615880,Durant Dr SE
185,42.979349,-85.664462,Matilda St NE/Coit Ave NE
1381,42.877216,-85.664476,/Division Ave S
762,42.961698,-85.651266,Packard Ave SE/Lake Dr SE
994,42.884668,-85.743963,/Rivertown Pkwy
246,42.962820,-85.545237,Taos Ave NE/Ta Ave NE/Fulton St E
362,42.912691,-85.634355,Vineland Ave SE/28th St SE
160,43.290939,-85.515051,E Oak St NE/S 3rd St
499,42.927104,-85.616649,Concord Ave SE/Burton St SE
472,42.918487,-85.653617,Paris Ave SE/Mulford Dr SE
891,42.926034,-85.683215,Cutler St SW
526,43.157138,-85.710079,E Gardner St/W Gardner St NW/S State St
160,42.946792,-85.632275,Chippewa Dr SE/Pontiac Dr SE/Pontiac Rd SE
216,43.003791,-85.762131,Kinnrow Ave NW/Kinnrow Ct
276,42.861458,-85.626338,Gatewood Dr SE/Gentian Dr SE
605,42.976895,-85.652076,Lydia St NE/Grand Ave NE
246,43.217883,-85.550471,Holton Dr
185,42.918215,-85.523296,Tall Timber St SE/Tallgrass Ave SE
185,42.868432,-85.573723,Stonebriar Ct
185,43.174644,-85.581043,Edgerton Ave NE/Edgerton Ct
276,42.999703,-85.666014,Riverview Ter NE/Philpot Ave NE
160,42.899005,-85.620775,Rosewood Ave SE/Millbrook St SE
305,42.993234,-85.715899,/Richmond St NW/Walker Ave NW
276,42.898015,-85.641223,Steel Case Dr SE
160,42.791165,-85.519626,Casey Ct SE
160,42.830790,-85.539095,N Trotter Trl SE/S Trotter Trl SE
390,42.931524,-85.584852,E Beltline Ave SE/Calvin College Entrance SE
216,43.082086,-85.636830,/US Hwy 131
605,42.957547,-85.644447,Fairmount St SE/Diamond Ave SE
160,42.955644,-85.518874,Winthrop Ct SE
160,43.043190,-85.642119,Coit Ave NE/Rifle Range Rd NE
305,42.863047,-85.614896,Brattleboro Dr SE
185,42.943207,-85.570574,E Paris Ave SE/Cook Valley Blvd SE
362,42.995827,-85.636811,Dean St NE/Benjamin Ave NE
216,42.871645,-85.618796,Sunny Creek St SE
160,43.045364,-85.594224,Chandy Ct NE/Chandy Dr NE
445,43.145188,-85.710036,State St NW
418,42.984432,-85.634941,Carlton Ave NE/Leonard St NE
160,42.812153,-85.483388,84th St SE
160,42.803339,-85.711610,Restoration Dr SW
276,42.993125,-85.706635,Richmond St NW/Ira Ave NW
185,43.114720,-85.558169,S Monroe St NE/Louise St NE
445,43.117420,-85.544683,10 Mile Rd NE
160,43.175595,-85.578344,/14 Mile Rd NE
185,42.988222,-85.683065,Myrtle St NW
160,43.020807,-85.623503,Shadyside Dr NE
216,42.983162,-85.631469,Edith Ave NE
334,42.844997,-85.458440,Whitneyville Ave SE/66th St SE
160,42.964693,-85.721320,Valley Forge St NW/Monticello Dr NW
390,42.889475,-85.750149,Piute Dr/Peshtigo Dr SW
276,42.873826,-85.773872,Maple Tree Ct SW
552,42.798664,-85.515585,Alanada Dr SE/Statler Dr SE/Statler Ct SE
160,43.074219,-85.634411,Millwood/Safety Dr NE
185,42.991308,-85.584880,Falcon Bluff Dr NE
334,43.001159,-85.755175,Richmond St NW/Awixa Ave NW
605,42.862612,-85.728620,Bayberry Farms Dr SW
334,42.900724,-85.706116,35th St SW/Minnie Ave SW
185,43.190677,-85.677399,Winter Pines Ct
246,42.902759,-85.503045,Brookhills Ct SE
185,42.902430,-85.494858,Goodwood Dr SE/Burger Dr SE
185,43.218114,-85.550189,/Holton Dr
390,42.941217,-85.655120,Hall St SE/Paris Ave SE
246,42.902477,-85.694207,34th St SW
185,42.891093,-85.644154,Steelcase Dr SE
160,42.836698,-85.677955,Pinespar Dr SW/Gardenview SW
684,42.965531,-85.694895,California St NW/Marion Ave NW
334,42.874497,-85.773864,Red Maple Dr SW/Maple Tree Ct SW
185,42.977746,-85.647995,Emerald Ave NE/Arbor St NE
185,43.156751,-85.716465,W Gardner St NW/Ida Red Ave NW
334,42.915600,-85.549152,Patterson Ave SE/Starr St SE/Wrightwind Dr SE
390,43.036089,-85.589796,E Beltline Ave NE/Platinum NE
418,42.980327,-85.758288,Maplerow Ave NW
526,42.988853,-85.688169,Myrtle St NW/Alpine Ave NW
362,42.945171,-85.690636,Merrill Ave SW
1329,42.970238,-85.660351,Prospect Ave NE/Michigan St NE
418,42.922078,-85.608792,Breton Rd SE/Onekama Dr SE
160,42.889884,-85.582437,Mesa Verde Ct SE
710,43.019095,-85.637051,/Plainfield Ave NE
552,42.914311,-85.744061,Olivet St SW/Ivanrest Ave SW
684,42.945954,-85.620824,San Lucia Dr SE
160,42.899964,-85.400592,Hilton Ave SE/36th St SE
276,42.860634,-85.618983,Pineknoll Dr SE/Gentian Dr SE
216,43.125990,-85.545540,Courtland Dr NE
445,42.859516,-85.625009,Ellora Dr SE/Kalamazoo Ave SE
160,42.893545,-85.769217,Mc Intyre Ct SW
305,43.143588,-85.548184,Shaw Estates Dr NE/Shaw Ct NE
762,42.923592,-85.633469,Hoyt St SE/Kalamazoo Ave SE
579,42.986974,-85.664206,Shanahan St NE/Carman Ave NE
216,42.861625,-85.641783,Bellewood Dr SE/Edgelawn Dr SE
1485,42.995637,-85.675451,Ann St NW/
246,42.855728,-85.658187,Runido Dr SE
445,42.973863,-85.649621,Frontage Rd NE/Capen St NE/Eastern Ave NE
246,43.015083,-85.655222,Botsford Ave NE/Wolverine Dr NE
334,42.889132,-85.634600,Norman Dr SE/Poinsettia Ave SE/Tangle Circle Dr SE
334,42.887299,-85.721753,Greenview Dr SW/Holliday Dr SW
216,43.152459,-85.710052,/S State St
684,42.878129,-85.664513,Division Ave S/Elwell St SW
185,42.983540,-85.779651,Old Farm Dr NW
736,42.960324,-85.640984,Luton Ave SE/Fitzhugh Ave SE
185,42.846109,-85.604221,Peer Pointe Dr SE/Avalon Dr
246,43.042167,-85.584852,Valley Rim Dr NE
185,42.924857,-85.631095,Oakfield Ave SE/Louise St SE
276,42.977513,-85.617578,Chesapeake Dr NE
216,43.088276,-85.580078,Windwood Dr NE/Childsdale Ave NE
334,42.852817,-85.541006,Broadmoor Ave SE
605,42.936755,-85.611108,Rosalind Rd SE
160,42.975522,-85.739920,Marsh Ridge Dr NW/Burritt St NW
185,42.956522,-85.473443,Pettis Ave SE
160,42.930736,-85.625350,Griggs St SE/Cambridge Dr SE
160,42.955039,-85.558634,Arrowhead Ave SE/Braeburn St SE
1071,42.965866,-85.661812,Willow Ct NE/Lafayette Ave NE
246,42.994397,-85.717396,Covell Ave NW/Walker Ave NW
390,42.846951,-85.628548,/State Hwy 6
3087,42.970645,-85.682748,Seward Ave NW/Bridge St NW
216,42.919789,-85.553514,Burton St SE
185,43.009050,-85.634860,Carlton Ave NE/Oaklawn St NE
160,42.879770,-85.588339,Terry Dr SE/Terry Ct
185,43.009778,-85.698370,Glenaire Dr NW
631,42.917599,-85.716991,Sharon Ave SW
216,42.811692,-85.648677,Hawkshead Ave SE/84th St SE
305,42.893717,-85.592500,Creek Way Dr SE/Pheiffer Woods Dr SE
334,42.903092,-85.640235,33rd St SE
246,43.013801,-85.699228,Emerson Ave NW
160,43.061260,-85.612177,Riverbank Ave NE
216,42.941733,-85.688010,Hall St SW
390,43.053150,-85.596983,Wabash Dr NE/Coit Ave NE
418,42.883078,-85.705355,R W Berends Dr SW/Burlingame Ave SW
216,42.886449,-85.635765,Langley St SE/Fuller Ave SE
552,42.976749,-85.675332,6th St NW
216,42.859661,-85.650204,Kelekent Ave SE
216,42.783062,-85.506770,Cherry Valley Ave SE/100th St SE
185,42.895384,-85.612383,Deer Hollow Dr SE
160,43.024704,-85.673255,Bayberry Dr NW/Greenridge Dr NW
305,42.932907,-85.593583,Hampshire Blvd SE/Woodcliff Ave SE
305,43.013384,-85.640527,Winston Way NE/3 Mile Rd NE
246,42.914308,-85.749668,I- 196 Bus/Olivet St SW
276,42.939658,-85.343151,Riverside Dr SE/Suffolk St
418,43.020726,-85.668235,/US Hwy 131
160,42.935496,-85.522598,Sterling Manor Ct/Manchester Hills Dr
943,42.884414,-85.704230,44th St SW
334,43.159242,-85.710083,Centennial St/S State St
185,42.830780,-85.697752,Cactus Cove SW
472,42.940683,-85.684257,Shamrock St SW
445,42.879719,-85.725750,Caspian Ave SW/Chassell St SW
605,42.972478,-85.742198,Clover Ridge Ct NW
276,42.952944,-85.619498,Sherman St SE/Belvedere Dr SE/Edgemere Dr SE
305,42.870746,-85.703851,Burlingame Ave SW
631,42.953078,-85.667597,Buckley St SE/Division Ave S/Buckley St SW
185,43.181988,-85.523521,Schaap Woods
160,43.162089,-85.334547,/Simpson West Private Dr
334,42.928918,-85.617956,Elliott St SE/Englewood Dr SE
216,42.992010,-85.722125,Clover Dr NW/Blythe Dr NW
246,42.878616,-85.619530,Tradewinds Dr SE
160,42.941520,-85.351484,Hunt St SE
185,42.930684,-85.343238,Grand/Maple St
334,43.028137,-85.589904,E Beltline Ave NE/4 Mile Rd NE
334,42.959974,-85.760448,Deena Dr/Kara Ave
839,42.954220,-85.671745,/US Hwy 131
305,42.844816,-85.614732,Marketplace Dr SE
526,42.876347,-85.668346,Walton Ave SW/Jean St SW
276,42.941506,-85.346079,Hunt St SE/Lincoln Lake
246,42.826816,-85.716458,76th St SW
160,43.260042,-85.336213,Cottage View Ct
445,42.877051,-85.602315,S Breton Ct SE/Breton Rd SE
160,43.020287,-85.692983,Needham Ct NW
160,42.993786,-85.351702,/Lincoln Lake Ave NE
839,42.909671,-85.761481,30th St SW/Church Ave SW
305,43.025793,-85.684837,N Center Dr NW
305,42.935713,-85.616551,Heather St SE/Laurel Ave SE
445,42.973780,-85.696609,Hiaschutter Pl NW/Lincoln Ave NW
390,42.863581,-85.546191,Patterson Ave SE/Corporate Exchange Blvd SE
305,42.989887,-85.680090,Webster St NW/Hamilton Ave NW
305,42.867411,-85.572617,Old Elm Dr SE
276,42.914683,-85.765966,28th St SW/Indian Mounds Dr SW
1123,42.877515,-85.762543,Wilson Ave SW
579,42.860527,-85.574357,W Falling Leaf Dr SE/S Falling Leaf Dr SE
305,42.812189,-85.734861,84th St SW
762,42.953660,-85.632903,Ethel Ave SE/Logan St SE
160,43.104454,-85.519927,Robertsons Run
185,43.234174,-85.744849,18 Mile Rd
305,42.926321,-85.639058,Nelson Ave SE/Merritt St SE
185,42.877505,-85.638645,Burgis Ave SE/Slobey St SE
185,43.173997,-85.579070,Edgerton Ct
362,42.839237,-85.529989,Broadmoor Ave SE/Broadmoor 68th Turnaround Turn
160,43.116841,-85.695155,10 Mile Rd NW
334,42.883514,-85.586656,44th St SE/Shaffer Ave SE
160,42.802981,-85.711608,Pavilion Dr SW
185,43.064873,-85.659053,Pine Island Dr NE
362,43.013677,-85.708408,Bristol Ave NW/Bryanwood Dr NW
276,42.845626,-85.663703,Southbrook St SE/Division Ave S
160,42.950393,-85.511773,Dunbarton St SE
185,42.801443,-85.716143,Plantation Dr SW
160,43.073504,-85.584968,Blythefield Ave NE/Meadowlark Dr NE
418,42.929656,-85.659335,Beulah St SE/Prospect Ave SE
418,42.882743,-85.672677,Farnham St SW/Magnolia Ave SW
216,42.943823,-85.613340,Eldorado Dr SE/Lakeside Dr SE
246,42.856867,-85.571090,Timberlake Ln SE/Timberlake Dr SE
185,42.826716,-85.533558,Wade St SE
917,42.971756,-85.661144,I- 196
160,42.876710,-85.775340,Fox Ridge Ct SW
216,42.990013,-85.750791,Rypens Dr NW/Marlin Ave NW
185,42.930317,-85.542920,Abbeydale Dr SE/Abbeydale Ln SE
631,42.840928,-85.678006,68th St SW/US Hwy 131
246,42.915339,-85.609287,E Highland View Cir SE/Highland View Dr SE
788,42.950099,-85.642915,Neland Ave SE/Thomas St SE
160,43.085155,-85.624017,Post Dr NE/Chandler Dr NE
216,42.865048,-85.737357,Pleasant Valley Ct SW
526,42.859820,-85.630402,Gunnink St SE/Loftwood Dr SE
526,42.909296,-85.634058,Vineland Ave SE
185,42.969946,-85.704123,Cayuga St NW/Ball Park Blvd NW/N Ball Park Blvd NW
246,42.984436,-85.632529,Mayfield Ave NE/Leonard St NE
658,43.023485,-85.632411,Lamberton Lake Dr NE
160,42.826296,-85.637109,76th St SE
160,42.826427,-85.623551,76th St SE
185,42.982697,-85.652832,Hubert St NE
246,42.916960,-85.739122,Dixie Ave SW/Gable St SW
305,42.973317,-85.633806,I- 196
891,42.971009,-85.655119,Calder St NE/Dudley Pl NE
246,42.808889,-85.729705,Maple Creek Ln SW/Sunny Ln SW
160,43.212942,-85.582310,Hollyfield Dr/Larkspur Ln
185,42.900546,-85.509503,Thornapple River Dr SE
276,43.053729,-85.679651,Biddeford Dr NW
160,42.940371,-85.619123,Willshire Dr SE
185,42.842650,-85.667317,Palma St SW/Cutler Park Dr SW
185,42.948722,-85.775572,Kenowa Ave
276,42.959968,-85.597066,Midland Dr SE/Lakeview Dr SE
445,42.970939,-85.694730,Marion Pl NW/Bridge St NW
185,42.854275,-85.590290,Wing Ave SE
160,42.833455,-85.663622,Division Ave S/72nd St SE
305,42.902938,-85.716996,Sharon Ave SW/34th St SW
499,42.959037,-85.641789,Lake Dr SE/Calkins Ave SE
305,42.988765,-85.685729,/Myrtle St NW/Davis Ave NW
362,42.899544,-85.775842,Fairlane Ave SW/36th St SW
185,43.227137,-85.573395,US Hwy 131
276,42.883532,-85.575224,44th St SE/Airlane Dr SE
185,42.968040,-85.718419,Luray Ave NW/Sibley St NW
185,42.844383,-85.632600,Rye Grass Ct SE
305,42.937031,-85.663440,Garden St SE/Jefferson Ave SE
185,42.788562,-85.526734,Johnson St SE/Kraft Ave SE
160,43.005750,-85.541919,Knapp St NE
605,42.922735,-85.642343,Ottillia St SE/E Blaine Ave SE
499,42.907952,-85.695245,Den Hertog St SW/Michael Ave SW
499,42.916433,-85.647310,Eastern Ave SE/Billantau St SE
276,42.894396,-85.712980,/Groveland Ave SW
362,42.960723,-85.604823,Cascade Rd SE/el Centro Blvd SE
160,43.098604,-85.517695,Arroyo Vista Dr NE/Decosta Dr
160,42.968023,-85.720189,Sibley St NW/Centennial Ave NW
788,42.980684,-85.591438,Cornerstone College Dr NE
185,42.863126,-85.539056,Executive Pkwy SE/Corporate Exchange Blvd SE
526,43.018420,-85.688954,/Alpine Ave NW
276,42.897263,-85.753943,Shoshone Dr SW/Earle Ave SW
276,42.873373,-85.656196,Vindale St SE/Marlette Ave SE
160,42.887933,-85.611639,Eastcastle Dr SE
185,42.930969,-85.542932,Abbeydale Dr SE
185,43.081355,-85.690229,M 37 Marway Turnaround/Alpine Ave NW
160,42.961980,-85.527537,Wildwood Dr SE/Forest Glen Dr SE
246,43.054544,-85.662650,US Hwy 131
276,42.897952,-85.653653,/Roger B Chaffee Memorial Blvd SE
390,42.972950,-85.620129,Briar Ln NE
160,42.804504,-85.526762,Kraft Ave SE
499,42.980647,-85.687930,Tenth St NW/Alpine Ave NW
160,43.129097,-85.720016,Baumhoff Ave NW
160,42.962619,-85.761805,Jason Ridge Ln
160,43.005029,-85.712948,Vinecroft St NW/Tuller Ave NW
216,43.062423,-85.669946,Division Ave N/Chicory St NE
445,42.927092,-85.618994,Burton St SE/Hutchinson Ave SE
216,43.159773,-85.713029,Pleasant St/Nash St
334,42.976729,-85.666669,Newberry St NE/Hester Pl NE
305,42.800331,-85.512753,Glengarry Dr SE/Costner Dr SE
305,42.847036,-85.608106,Vantage Dr SE
216,43.075591,-85.577146,Pine Meadows Ct NE/Pine Meadows Dr NE
334,42.984708,-85.709221,McDonald St NW/Ida Ave NW
362,42.868976,-85.771757,Applewood Dr SW/Applewood Ct SW
305,42.932201,-85.674243,Brown St SW/Feakin Ave SW
276,42.941013,-85.613949,Hall St SE/Orchard Ave SE
445,42.989414,-85.663266,Buffalo Ave NE/Quimby St NE
160,42.892551,-85.653000,/Roger B Chaffee Memorial Blvd SE
185,42.934365,-85.628102,Gladstone Dr SE/Boston St SE
185,42.891153,-85.645962,40th St SE
305,43.219145,-85.545046,Ronald St NE/S Linda St NE
185,42.839102,-85.712152,Byron Shores Dr SW
445,42.889785,-85.778705,/I- 196
305,43.034551,-85.669757,Leland Ave NW/Leland Ave NE
160,43.162991,-85.717102,Chary Ln NW
160,42.955690,-85.776019,Fennessey St SW/Wilson Ave SW/Kenowa Ave
185,42.947209,-85.632975,Pontiac Dr SE/Iroquois Dr SE
185,43.095956,-85.355797,Bordeau Dr/Byrne Park Dr NE/Pineridge Dr NE
216,43.153473,-85.703752,Maple St NW
160,42.980280,-85.748674,Cassandra Ct NW
185,42.930190,-85.357346,Francesca Ct/Elandra Ave
418,42.865654,-85.717327,Palm Dale Dr SW
579,42.949351,-85.654162,Union Ave SE/Bates St SE
276,42.837111,-85.649409,Union Ave SE/70th St SE
684,42.885042,-85.778011,/44th St SW
246,43.128757,-85.563307,Greystone Ct NE
472,42.859838,-85.575827,W Grove Dr SE
334,42.977514,-85.700580,Sixth NW/Valley Ave NW
216,42.845437,-85.577792,Mill Run SE/Cobbler Ct SE
418,42.922547,-85.547753,S Quail Crest Dr SE/Teal Ct SE
185,43.218770,-85.552363,Marley Park
499,42.903971,-85.567054,Woodland Creek Dr SE
390,43.113578,-85.544205,Peach Tree Ave NE/Surf Dr NE
472,42.944666,-85.641058,Cooper Ave SE/Alexander St SE
305,42.881050,-85.611855,Applewood Dr SE
631,42.912721,-85.637984,Brooklyn Ave SE/28th St SE
276,42.810647,-85.499237,Green Valley Rd
216,42.965902,-85.617675,Lakeside Dr NE/Academy Dr NE
216,42.896899,-85.506843,Forest Valley Dr SE/Oakmont Dr SE
216,43.019980,-85.610120,Woodsboro Dr NE/Maryland Ave NE
216,42.980552,-85.717258,Covell Ave NW/Gordon St NW
185,42.858216,-85.762977,Delmar Village Dr/del Mar Village Ct
472,42.867556,-85.679957,US Hwy 131
334,42.895951,-85.748792,Oskaloosa Dr SW/Cheyenne Dr SW
943,42.962924,-85.698709,Hovey St SW/Valley Ave SW
710,42.887701,-85.609379,S Castle Ridge Dr SE
246,42.803959,-85.705779,Hightree Dr SW/Planters Row Dr SW
276,42.940076,-85.626966,Hiawatha Rd SE/Rosewood Ave SE
305,42.856664,-85.657153,Barkway Dr SE
160,42.787213,-85.511799,S Maple St SE
185,42.869060,-85.577948,52nd St SE
185,43.061549,-85.653846,Pine Island Dr NE
216,42.873901,-85.603867,Mapleview St SE/Mapleview Ct SE
276,42.906821,-85.617554,W Maple Villa Dr SE
1020,42.984638,-85.667353,Plainfield Ave NE/Leonard St NE
185,43.066917,-85.690125,M 37 Vinton Turnaround/Alpine Ave NW
813,42.960077,-85.635852,Hope St SE/Carlton Ave SE
418,42.914621,-85.640379,Walsh St SE/Almont Ave SE
472,42.948584,-85.660389,Prospect Ave SE/Franklin St SE
418,42.988134,-85.666186,Grove Pl NE
552,42.935005,-85.337089,N Monroe St
185,43.048698,-85.687457,Marlene St NW
334,42.919765,-85.592545,Alger St SE
445,42.890506,-85.601084,Briarwood Ct SE
762,42.927487,-85.665370,Burton St SE/Horton Ave SE
813,43.003662,-85.590461,E Beltline Ave NE/Peregrine Dr NE
276,43.005601,-85.760257,Ashcreek Ct NW
526,42.970944,-85.697604,Bridge St NW/Garfield Ave NW
305,42.812668,-85.429686,84th St SE/Dygert Dr SE
216,42.881831,-85.615290,Woodrose Ct SE/Woodshire Pl SE
160,42.963417,-85.607511,Westboro Dr NE
305,42.976490,-85.661260,Mohrhardt St NE
160,43.006276,-85.658899,Sinclair Ave NE/Comstock Blvd NE
185,42.869415,-85.773937,McCormick Dr SW/Canal Ave SW
418,42.950080,-85.634616,Giddings Ave SE/Thomas St SE
334,42.903438,-85.772203,Indian Spring Dr SW/Canal Ave SW
185,42.999568,-85.634707,Lewison Ave NE
362,42.929981,-85.655664,College Ave SE/Storrs St SE
865,42.940106,-85.645690,W Butler Ave SE/Hancock St SE
1226,42.884975,-85.664764,Division Ave S/Murray St SW
736,42.976972,-85.679530,Broadway Ave NW/Sixth St NW
1149,42.885023,-85.664730,Murray St SE
246,42.862900,-85.613655,Stowehill Dr SE
160,42.896525,-85.611446,Bonita View Dr SE
334,42.883525,-85.583527,44th St SE/Middlebury Dr SE
160,42.890484,-85.371037,Alden Nash Ave SE
160,43.264452,-85.372288,20 Mile Rd NE/Meddler Ave NE
216,43.227180,-85.556195,W Pine St NE/N 5th St NE
185,42.927411,-85.564414,Sabal Pointe Ct SE
185,42.930184,-85.552570,Forest Lake Dr SE/Middleground Dr SE
305,42.917196,-85.649801,Mulford Dr SE
160,43.039533,-85.645247,Pure St NE
185,42.923765,-85.714794,Avon Ave SW/Farragut St SW
185,43.174391,-85.559039,/Summit Forest Dr Pvt
658,42.861939,-85.644920,Eastern Ave SE
246,42.999041,-85.777278,/Wilson Ave NW
305,42.961234,-85.602855,Robinson Rd SE/Alta Vista Dr SE
276,43.085694,-85.452505,Sunset Grove
160,43.190061,-85.535672,15 Mile Rd NE
185,42.869015,-85.567715,52nd St SE
160,43.047739,-85.673744,Lantern Dr NW
276,42.889842,-85.585214,Mesa Verde Ct SE/Rainier Ct SE
276,42.880868,-85.709174,Camrose Ct SW/Chateau Dr SW
552,42.940532,-85.678728,/Century Ave SW
276,42.899900,-85.709737,Hubal Ave SW/Chapel St SW
891,42.937298,-85.686401,/Van Raalte Dr SW
160,43.029048,-85.669393,Bertha St NW/W River Dr NW/W River Dr NE
684,42.914785,-85.647206,Eastern Ave SE/Walsh St SE
160,43.266685,-85.353658,Findley Dr
185,42.831564,-85.535874,Polo Pl/Palamino Pl
216,43.080487,-85.687861,Marway NW
246,42.912279,-85.717461,Boone Ave SW
2542,42.916479,-85.581086,/E Mall Dr SE
185,43.036355,-85.608840,Lakehurst Dr NE/Northville Dr NE
160,42.768257,-85.604991,108th St
865,42.958639,-85.647036,N Blodgett Aly SE
276,42.966651,-85.627368,Holmdene Blvd NE/Lyon St NE
631,42.896269,-85.626615,Kalamazoo Ave SE
334,42.889212,-85.762457,Blackhawk Dr SW/Wilson Ave SW
216,42.872305,-85.597929,Rum Creek Dr SE/Rum Creek Ct SE
305,42.845208,-85.664917,Maya Dr SW
499,42.977605,-85.630029,Bradford St NE/Ball Ave NE
276,43.006647,-85.616962,Friesian Ct
305,43.011171,-85.579858,Atwater Hills
305,42.986273,-85.734574,Leonard St NW/Carpenter Ave NW
216,42.967188,-85.767381,Bulrush Dr NW
276,42.832533,-85.721616,Whistlevale Dr/N Whistlevale Dr SW
246,43.132780,-85.657933,Shady Ridge Dr NE
185,42.928260,-85.728740,I- 196 Bus
216,42.966370,-85.632985,Mayfield Ave NE/Lyon St NE
2732,42.966132,-85.682659,Seward Ave NW/Lake Michigan Dr NW
185,42.971292,-85.705616,Glenhaven Ave NW/Bridge St NW
160,42.944615,-85.587357,Duchess Ave SE/McCoy Ave SE
418,42.884641,-85.597268,Hidden Lake Dr SE/Starbord Ct SE
216,43.004823,-85.709452,Vinecroft St NW/E Oak St NW
216,42.948264,-85.632834,Iroquois Dr SE/Ethel Ave SE/Franklin St SE
445,42.840734,-85.651275,68th St SE/Paris Ave SE
362,43.010970,-85.772233,Nolan Ave NW/Champlin Dr NW
472,42.901139,-85.773228,Fairwood Ct
185,42.826854,-85.458136,76th St SE/Whitneyville Ave SE
160,42.944977,-85.586875,Duchess Ave SE/Reeds Lake SE
185,42.933031,-85.615207,Amberely Ct
185,43.000858,-85.726841,Longmeadow St NW
334,42.870960,-85.642198,/Southglow Ct SE
472,42.826244,-85.671308,/76th St SW
216,43.073253,-85.577513,Northland Dr NE
160,43.049632,-85.569888,Sundial Ct NE
917,42.985115,-85.684405,Leonard St NW/Muskegon Ave NW
276,42.919224,-85.615862,Okemos Dr SE
185,43.011309,-85.736968,Sandy Ridge Dr NW/Sandy Ridge
160,42.951494,-85.335201,Washington Rd SE
185,43.194117,-85.554614,Evergreen Farms Dr NE
276,42.866879,-85.546323,Patterson Ave SE
658,42.972725,-85.675651,/I- 196
276,43.022881,-85.683320,Tamarak Trl
276,42.902581,-85.603225,Breton Creek Ct SE
185,43.034340,-85.588729,Township Dump Rd NE
362,43.011302,-85.674703,US Hwy 131
994,42.984663,-85.604766,/I- 96
216,42.845627,-85.604034,Peerpoint Dr
160,43.011574,-85.638465,Ellsmere St NE/Dawson Ave NE
552,42.899285,-85.729925,36th St SW/Wedgewood Dr SW
160,42.873936,-85.703975,50th St SW/Burlingame Ave SW
710,42.898814,-85.687493,Burr Ave SW/36th St SW
160,42.958672,-85.509422,Scarborough Dr SE/Drumlin Ct SE
160,42.914991,-85.542895,Horizon Dr SE
185,42.987087,-85.609878,Dewberry Ct NE/Midvale St NE
185,42.971221,-85.613185,Baltimore Dr NE
160,42.941137,-85.587271,Reeds Lake Blvd SE
185,42.812429,-85.444143,84th St SE/Woodland Forest Dr SE
1071,42.964341,-85.683805,Lexington Ave NW/Veto St NW
185,43.097848,-85.358725,Ravine Dr NE/Pineridge Ct
185,42.963803,-85.584265,Lauderdale Ave NE/Devon Dr NE
185,42.978721,-85.718309,/7th St NW
160,42.876857,-85.686089,/Pickett St SW
160,42.891883,-85.477085,Cascade Rd SE/Cascade Hollow
216,42.922677,-85.617785,Tekonsha Rd SE/Shawnee Dr SE
160,42.866610,-85.702320,Mulligan Dr/Meadow Run
160,42.928305,-85.478794,Timber Ridge Dr SE
185,42.906437,-85.765407,Prairie St SW/Wedgewood Ct SW
246,42.883543,-85.544323,John J Oostema Blvd SE/Air Farm Dr SE
160,42.826708,-85.622452,Barn Swallow Ct SE/Meadow Rue Dr SE
305,42.876520,-85.341157,I- 96
390,42.907577,-85.705069,Den Hertog St SW/Burlingame Ave SW
185,42.941477,-85.561269,Downing St SE/Farnsworth Ave SE
160,43.146535,-85.520545,12 Mile Rd NE/Tefft Ave NE
605,42.965201,-85.655329,Portsmouth Pl NE/Fountain St NE
276,42.944999,-85.679471,Caulfield Ave SW/Beacon St SW
418,42.941056,-85.594016,Hall St SE/Woodcliff Cir SE/Woodcliff Dr SE
185,42.803083,-85.526771,Kraft Ave SE
160,42.921575,-85.489051,Thornapple Park Dr SE
185,42.922412,-85.684499,Baylis St SW/McKee Ave SW
185,43.065920,-85.669989,Division Ave N
160,42.885782,-85.561134,Brockton Ct SE
160,43.026805,-85.698270,English Ridge Ct/English Hills Dr NW
472,43.019781,-85.730485,I- 96
216,42.998871,-85.579866,Knapp St NE/Timber Valley Dr NE
185,42.917580,-85.505961,Hunter Green Ct SE
2328,42.879572,-85.761505,Century Center St SW
334,42.963545,-85.580160,I- 96
216,42.900813,-85.563393,Forest Creek Ct SE/Forest Creek Dr SE
1537,42.912937,-85.531194,28th St SE/Meijer Dr SE
160,42.925704,-85.462092,Brookhaven Dr SE
334,42.829406,-85.627644,Old Lantern Dr
418,43.013407,-85.649646,3 Mile Rd NE/Cheney Ave NE
246,42.986227,-85.732389,Leonard St NW/Woodland Ave NW
1304,43.028353,-85.689345,Alpine Ave NW
160,43.154946,-85.582938,Edgerton Ave NE
160,42.958296,-85.383618,Wildview St/Vergennes St SE
185,42.862647,-85.607448,Stowevalley Dr SE
305,42.855135,-85.573441,Autumn Crest Dr SE
334,42.803772,-85.728740,Conifer Ridge Dr SW/Conifer Ct SW
185,43.152840,-85.560083,Moonlite Ln NE/Milky Way
552,42.935469,-85.697997,Wendler Ave SW/I- 196 Bus
418,42.942827,-85.614411,Orchard Ave SE/Burchard St SE
216,42.899996,-85.631094,Giddings Ave SE/Yorkshire St SE
160,42.920197,-85.661063,Jefferson Ave SE/Alger St SE
710,42.851958,-85.651705,Minosa Dr SE/E Kippen Dr SE
418,42.885785,-85.712986,Idlewood Dr/Timber Ridge Trl SW
185,42.957241,-85.736309,O Brien St SW
390,42.862540,-85.578565,W Meadowgrove Dr SE/N Meadowgrove Dr SE
418,42.877927,-85.370977,/Alden Nash Ave SE
160,42.822291,-85.663589,Arcadia St SW/Division Ave S
216,42.872398,-85.607751,Stauffer Ave SE/Southgate Dr SE
710,42.971613,-85.650822,Harvey St NE/Harlan Ave NE
445,42.892819,-85.746760,Sante Fe Ct SW
160,43.008802,-85.739599,Elmridge Dr NW
362,43.150939,-85.710048,S State St/Spartan Dr
445,42.986559,-85.749395,Allison Ave NW/Leonard St NW
390,42.943371,-85.684601,Godfrey Ave SW/Curve St SW
160,42.938412,-85.517820,Marsman Ave SE
552,42.866085,-85.690200,Golfcrest Dr SW/Golfwood Ct SW
4010,42.959696,-85.670886,Cherry St SW
246,42.960683,-85.501122,Grand River Dr SE/Fulton St
216,43.016778,-85.701389,Vista View Dr NW/Valley Ave NW
362,42.977612,-85.632289,Mayfield Ave NE/Bradford St NE
362,42.920670,-85.556372,Farm Ct SE
246,43.047417,-85.625139,/Rahn Dr NE
305,42.864705,-85.614748,Wolfboro Dr SE/Brattleboro Dr SE
418,42.933552,-85.660601,Lafayette Ave SE/Montgomery St SE
390,43.006699,-85.736050,Westwinde Ct NW/Westwinde St NW
160,42.833745,-85.635244,Brooklyn Ave SE
472,42.928779,-85.682460,/Century Ave SW
160,42.908444,-85.513385,Tahoe Ln SE
160,43.126066,-85.567673,Kinross Ct NE
185,42.893953,-85.597674,White Bud Ct SE
160,43.280037,-85.541248,US Hwy 131
445,42.958620,-85.618892,Robinwood Ave SE/Robinson Rd SE
185,42.910500,-85.470270,Buttrick Ave SE
185,42.951210,-85.321803,/Grindle Dr SE
305,43.233163,-85.545260,18 Mile Rd/Fieldstone Meadow Dr
160,42.956474,-85.697362,/Garfield Ave SW/Wealthy St SW
160,43.149265,-85.582342,Rogues Edge Dr NE
160,42.982676,-85.780905,Shiwassee Dr NW
788,42.941135,-85.649170,Hall St SE/Eastern Ave SE
160,43.119278,-85.515327,Woodmark Dr NE/Longacre St NE
185,43.079276,-85.433320,Fricke Ct NE
246,42.911219,-85.758290,Barrett Ave SW/I- 196 Bus
216,42.859526,-85.619341,Pineknoll Ct SE
736,42.937250,-85.646479,Marshall Ave SE/Oakdale St SE
305,43.008112,-85.639801,Beechwood St NE/Fuller Ave NE
160,43.081395,-85.585175,Las Vegas Dr NE/Blythefield Ave NE
305,42.998951,-85.634692,Lewison Ave NE/Knapp St NE
160,42.838632,-85.690487,Amber Springs Dr SW/Amber Ridge Dr SW
185,42.903021,-85.634589,Poinsettia Ave SE/Van Auken St SE
160,42.839738,-85.474843,68th St SE
185,43.063019,-85.689840,Main St NW/Alpine Ave NW
216,42.926943,-85.592144,Burton St SE/Radcliff Ave SE
305,42.897035,-85.502035,Oak Bluff Ct
185,42.923572,-85.602133,Meadowbrook St SE/Glen Echo Dr SE
216,42.896414,-85.777189,Missaukee Ave SW/Thunderbird Ave SW
526,42.967418,-85.660226,Prospect Ave NE/Lyon St NE
445,42.843728,-85.723021,Ranchland Dr SW/Byron Center Ave SW/Ranchland Dr
160,42.813099,-85.331906,84th St SE/Erma Ln SE
305,42.941983,-85.631734,Chippewa Dr SE/Seminole Rd SE
362,42.999465,-85.626892,Aspen Lake Dr NE/Sandpiper Pt NE
185,42.977706,-85.707424,Bristol Ave NW/6th St NW
1174,42.971238,-85.658313,Sinclair Ave NE
334,42.857031,-85.639205,Blaine Ave SE/59th St SE
276,43.028149,-85.602742,4 Mile Rd NE/Siebers Ln NE
246,43.134975,-85.686307,Jack Pine Ave/Schultz St NW
658,42.951895,-85.624863,Plymouth Ave SE/Lake Dr SE
160,42.854910,-85.382898,Depot St SE/Linfield Ave SE
362,42.934635,-85.653670,Union Ave SE/Crofton St SE
246,42.895521,-85.480301,Cascade Rd SE/Whispering Rdg St SE
276,43.010534,-85.605843,Winesap Dr NE
160,43.011439,-85.737053,Royal Vista Dr NW/Sandy Ridge Dr NW
658,42.896652,-85.626642,Kalamazoo Ave SE
216,42.866232,-85.700482,Lillyview Ave
305,43.114356,-85.544192,Peach Tree Ct NE/Peach Tree Ave NE
216,43.025976,-85.667894,Mill Creek Ave NE/N Park St NE
185,42.868312,-85.638517,Blaine Ave SE/Burgis Ave SE
813,42.884430,-85.706304,44th St SW
246,42.877208,-85.619123,Steam Engine St/Whistle Stop Dr SE
160,43.033601,-85.532856,Cannon Meadows Ct NE
185,42.932496,-85.631248,Orville St SE/Rossman Ave SE
276,42.862476,-85.634377,Christie Ave SE/Katrina Dr SE
216,42.918968,-85.503824,Cascade Rd SE/School Land Dr SE
246,42.927937,-85.601441,Ardmore St SE/Covington Dr SE
526,43.160748,-85.707124,E Division St/N Union St/S Union St
658,42.939693,-85.642886,Noble St SE/Kalamazoo Ave SE
160,42.954786,-85.533115,Longwood Ct SE/Longwood Dr SE
160,43.110335,-85.540120,Courtland Dr NE/Tiamo Ln Pvt
185,42.879784,-85.709989,Deepwood Dr SW/Chateau Dr SW
362,42.869167,-85.611244,52nd St SE/Discovery Dr SE
305,42.958833,-85.616611,Robinson Rd SE/Lakeside Dr SE
788,42.913278,-85.680083,28th St SW/Charlesgate Ave SW
160,42.920153,-85.536839,Burton St SE/Burton Pointe Blvd SE
658,42.855613,-85.624575,Pennybrook Ln SE
1693,42.970011,-85.644684,Diamond Ave NE/Michigan St NE
276,42.993682,-85.745059,Milo St NW/Lamont Ave NW
579,42.973221,-85.590722,/E Beltline Ave NE
418,42.916473,-85.723700,Wrenwood St SW/Forest Grove Ave SW
216,43.216389,-85.554721,South
362,42.921013,-85.713627,Berwyn Ave SW/Porter St SW
185,42.910702,-85.674461,Hillcroft Ave SW
185,42.955324,-85.475316,Fulton St
276,42.939637,-85.634612,Giddings Ave SE/Noble St SE
185,42.862913,-85.641527,Birchview Dr SE/Edgelawn Dr SE
445,42.862275,-85.713481,Gezon Ct SW
160,43.067335,-85.670003,Division Ave N
160,43.101661,-85.565664,Peter Creek Dr
185,42.940135,-85.339036,Pine St/N Monroe St
552,42.885611,-85.728056,Stonebridge Dr SW
216,42.812215,-85.731072,84th St SW/Woodhaven Dr SW
472,42.847975,-85.663706,Division Ave S
305,43.021310,-85.637427,Soft Water Lake Dr NE/Lake Forest St NE
160,42.981901,-85.351678,Skyhigh Dr/Lincoln Lake Ave NE
684,42.982160,-85.622220,Stonebrooke Ct NE/Stonebrook Dr NE/Stonebrook Cir NE
305,43.021382,-85.663600,I- 96
160,43.003104,-85.664582,Coit Ave NE/Bowne St NE
362,42.986640,-85.755590,Blythe Ellen Ct NW/Leonard St NW
160,42.829120,-85.690460,Ardith Ct SW
445,42.861323,-85.578650,/Meadowgrove Dr SE
526,42.928031,-85.696567,Burton St SW/de Hoop Ave SW
658,42.896041,-85.664636,Spanish Ct SE
526,42.939544,-85.666105,Home St SE/Euclid Ave SE
185,43.064914,-85.612161,W River Dr NE
185,42.893952,-85.725652,Tioga Dr SW
710,42.975130,-85.670230,Fairbanks St NW/Ottawa Ave NW
499,42.973056,-85.669119,/Ionia Ave NW
216,43.221649,-85.558627,S 7th St NE/W Beech St NE
445,42.937275,-85.681127,High St SW
185,42.918187,-85.490512,Thornapple River Dr SE
160,42.845073,-85.450265,Jack Ave SE/66th St SE
216,43.003448,-85.532099,Grand Valley Dr NE/Knollpoint Dr NE
216,43.013290,-85.671017,Riverside Park Dr NW
418,42.873201,-85.671868,Cisne Ave SW/50th St SW
185,42.782758,-85.702854,100th St SW/Burlingame Ave SW
305,42.901028,-85.595596,Hampton Downs Dr SE/Daventry Ct SE
246,42.826342,-85.679077,76th St SW
160,43.242141,-85.353300,Laketon St NE/Silver Beach Dr NE
160,43.097763,-85.460542,Northport Dr NE/Heron View Dr NE
160,42.997168,-85.613125,Turnstone Ln NE/Dunlin Ct NE
917,42.886947,-85.690194,Dunbar Ave SW
362,42.873241,-85.674527,50th St SW
160,43.196827,-85.677577,Indian Lakes Rd NW/Running Water Dr NW
185,42.967631,-85.766622,Tallman Creek Dr NW
1097,42.852230,-85.623692,Overfield Dr/Alfalfa Ln
246,42.907994,-85.771870,Broadway Ave SW
3280,42.882588,-85.752848,Rivertown Pkwy/Potomac Dr
1278,42.969065,-85.640209,Crescent St NE
526,42.957568,-85.647580,Hollister Ave SE/Fairmount St SE
276,42.991731,-85.641014,Herrick Ave NE/Sweet St NE
276,42.880738,-85.615863,Woodshire Ct SE
185,43.024087,-85.631126,Sandy Dr NE/Sherin Dr NE
160,42.990125,-85.722322,Lanco Ct NW/Lanco Dr NW
