Estimated daily crossings,Latitude,Longitude,Name
160,35.906442,-80.553232,Campbell Rd/Hillcrest St
246,35.900897,-80.554981,N Main St
526,35.892202,-80.565293,Locust St
185,35.940460,-80.409649,State Hwy 801
160,35.958217,-80.413356,Potts Rd
185,36.009685,-80.457398,Creekwood Dr
216,35.971172,-80.496874,Tims Trl
160,35.992740,-80.494230,Rainbow Rd
185,35.978916,-80.434335,Isleworth Dr
160,35.949549,-80.559977,Clairmont Ln
160,35.906417,-80.613427,Shuler Rd/Wilkesboro St
216,35.839581,-80.543440,US Hwy 601
305,35.985854,-80.437471,Keswick Dr
160,35.893768,-80.559798,Chaffin St
305,35.985144,-80.493501,I- 40/Rainbow Rd
216,35.904282,-80.531805,Wright Ln
160,35.974338,-80.626728,Wagner Rd
160,35.919591,-80.397742,Peoples Creek Rd
160,35.966486,-80.434483,Hagen Rd
246,36.005839,-80.433646,Ivy Cir
160,35.867895,-80.602808,Ricketon Rd
160,35.903421,-80.574403,Yadkinville Rd
605,35.892479,-80.564639,Sanford Ave
160,35.886327,-80.423136,State Hwy 801/White Tail Ln
185,35.975990,-80.438971,Lonetree Dr/Lonetree Ct
276,35.896416,-80.564430,Wilkesboro St
552,35.917855,-80.583994,Yadkinville Rd
276,36.014101,-80.454099,Claybon Dr
160,35.808229,-80.553746,Grove St
216,35.967650,-80.695545,Sheffield Farms Trl
246,35.905593,-80.530466,Morse St
160,35.881202,-80.675317,Felker Rd
160,35.841868,-80.555416,Gladstone Rd
160,35.951224,-80.458423,Baltimore Rd
160,35.978326,-80.416887,Underpass Rd
276,35.847765,-80.545933,Excaliber Ln/Excalibur Ln
185,36.014941,-80.434581,Park View Ln/Parkview Ln
160,35.865460,-80.531915,Deadmon Rd
160,35.989334,-80.438640,Talwood Dr
276,36.014204,-80.435893,Townpark Dr
362,35.900217,-80.527273,Windward Cir
160,35.986134,-80.499266,Dare Ln
185,35.812777,-80.555680,Duke St
185,36.005652,-80.528410,Mallard Rd/Kennen Krest Rd
160,36.016047,-80.534064,State Hwy 801/Johnson Ln
185,35.927630,-80.475254,Cornatzer Rd
185,35.813148,-80.557940,Erwin St
246,35.889320,-80.548633,Lexington Rd
185,35.921952,-80.538776,W Knoll Brook Dr
185,35.824682,-80.533263,Hobson Dr
160,35.921489,-80.398284,W Rollingmeadow Rd
160,35.888223,-80.519510,US Hwy 64
246,35.814862,-80.553330,Joyner St
160,35.902960,-80.537028,Bethel Church Rd/Milling Rd
216,35.954267,-80.536359,I- 40
216,35.987254,-80.451575,N Hiddenbrooke Dr
1381,36.004607,-80.440395,US Hwy 158
185,35.841647,-80.545557,US Hwy 601
160,35.845275,-80.437657,Riverview Rd
160,36.011815,-80.452822,State Hwy 801
160,35.819726,-80.560448,Flat Rock Rd
160,35.905130,-80.576410,Yadkinville Rd
185,35.890269,-80.558774,E Maple Ave
160,35.976511,-80.495302,Fox Run Dr
160,36.012364,-80.619865,Fostall Dr
185,35.881826,-80.462083,US Hwy 64
185,36.002986,-80.422804,Golfview Dr
185,35.883596,-80.490230,Hawthorne Rd
390,35.925346,-80.592726,US Hwy 601
216,35.900294,-80.529148,Windsong Rd
160,35.915540,-80.482725,Cornatzer Rd
160,36.004369,-80.445780,Dogwood Dr
216,35.886527,-80.477724,Oakshire Ct/S Hazelwood Dr
185,35.887919,-80.530042,US Hwy 64
160,36.019506,-80.448907,Hall Walker Ln
216,35.878053,-80.705088,Wilkesboro St/Hartness Rd
160,35.994600,-80.439098,Sycamore Ridge Dr/Orchard Park Dr
160,35.828319,-80.566377,Stonewood Rd
185,35.963607,-80.503697,US Hwy 158
160,35.955244,-80.533096,Buck Miller Rd
216,35.886710,-80.553546,Cloister Dr
160,36.009402,-80.528843,Bobbit Rd
185,35.997316,-80.431075,St George Pl
185,36.010944,-80.477450,Redland Rd
160,35.974865,-80.439227,Lonetree Dr
185,35.886620,-80.575523,Holly Ln
160,35.925242,-80.533582,Old Hanford Ave
160,35.868278,-80.415122,US Hwy 64
160,35.878332,-80.519401,Dalton Rd
246,35.905315,-80.532163,Whitney Rd
160,35.819787,-80.560446,Flat Rock Rd
160,35.866987,-80.600586,Jericho Church Rd
160,35.808291,-80.553517,Grove St
526,35.874232,-80.555134,Salisbury Rd
160,35.982357,-80.459207,Baltimore Rd
160,35.989532,-80.438705,Fieldwood Dr/Talwood Dr
185,35.818647,-80.562174,Clark Rd
185,35.905469,-80.579428,Marketplace Dr
185,35.868864,-80.596277,Sunset Cir/Dover Ln
216,35.844281,-80.547652,US Hwy 601
185,35.905748,-80.541397,Northridge Ct
246,35.983912,-80.445620,Scottsdale Dr
276,35.916808,-80.583338,Yadkinville Rd
160,35.809629,-80.556245,Duke St
246,35.947746,-80.443949,McDaniel Rd
246,35.987657,-80.436842,Hidden Creek Dr
246,35.977269,-80.438421,Kingsmill Dr
216,35.878416,-80.704872,Wilkesboro St
216,35.980656,-80.424945,Oakbrook Dr
185,35.931171,-80.545797,Oak Grove Church Rd/US Hwy 158
216,35.784222,-80.508243,US Hwy 601
160,35.925459,-80.526770,Sain Rd
185,35.817429,-80.549933,Neely Rd
160,35.964777,-80.436290,S High Field Rd
160,36.013119,-80.474615,Wood Ln
216,35.981430,-80.485167,Howardtown Cir
160,35.819868,-80.548125,Jerusalem Ave
246,35.905970,-80.530851,Morse St
246,35.901025,-80.533287,Hollow Hill Ct
185,35.987420,-80.438364,Hidden Creek Dr/Talwood Dr
276,35.830220,-80.532017,Coventry Ln
160,35.911221,-80.553760,Etchison St
418,35.900568,-80.531353,Windward Cir/Mountview Dr
216,35.928757,-80.405157,Shady Grove Ln
160,35.883423,-80.476036,Aubrey Merrell Rd
185,35.888254,-80.519315,US Hwy 64
160,35.948840,-80.534434,US Hwy 158
185,35.906947,-80.580356,N Wentworth Dr/Tumberry Dr/S Wentworth Dr
185,35.963925,-80.503247,US Hwy 158
185,35.904543,-80.480968,Williams Rd
185,35.987379,-80.473956,US Hwy 158/Redland Rd
276,36.006303,-80.438168,Medical Dr
185,35.980184,-80.434506,Isleworth Ct
160,35.887566,-80.551789,Charleston Ridge Dr
160,35.866369,-80.707037,Midway Dr
185,35.899887,-80.563231,W Church St
276,35.890648,-80.561315,E Maple Ave
362,35.827286,-80.545612,Rick Way/Michaels Rd
185,35.840912,-80.522615,State Hwy 801
160,35.852199,-80.550874,Mc Cullough Rd
160,35.979667,-80.459278,Baltimore Rd/Robbie Ln/Beauchamp Rd
276,35.890775,-80.562235,W Maple Ave
216,35.975021,-80.607946,Cabana Ln
160,35.921018,-80.630564,Wilkesboro St
160,36.015781,-80.437740,Rosewalk Ln/N Field Dr
246,35.946036,-80.442583,Cornatzer Rd
160,35.923654,-80.532498,Bradford Pl
160,35.932013,-80.491972,Milling Rd
160,36.003296,-80.619208,US Hwy 601
160,35.944352,-80.602929,Chaucer Ln
160,35.974037,-80.468324,Riverstone Trl/Junie Beauchamp Rd
334,36.014339,-80.422838,I- 40
418,35.911630,-80.613261,I- 40
579,35.894097,-80.562695,W Depot St
160,35.858981,-80.524813,Hoose Ln/Will Boone Rd
160,35.904058,-80.596921,Wilkesboro St
605,35.892056,-80.563604,S Salisbury St/Sanford Ave/W Lexington Rd/Salisbury Rd
185,36.005748,-80.437194,US Hwy 158
185,35.899741,-80.529356,Windward Cir
160,35.961967,-80.421875,Mocks Church Rd
185,35.945222,-80.411730,James Smile Ln
160,35.992930,-80.445897,Hiddenbrooke Dr
160,35.963959,-80.456319,Quail Hollow Rd
185,35.975296,-80.493468,Lincoln Ln
246,35.976587,-80.437088,Lonetree Cir
185,35.884215,-80.539131,Doe Trl
160,35.962009,-80.429447,Greystone Way/Beauchamp Rd/Mocks Church Rd
185,36.015792,-80.531508,State Hwy 801
579,35.897255,-80.565353,Wilkesboro St
160,35.873075,-80.434482,US Hwy 64
160,35.840715,-80.544605,US Hwy 601
160,35.941646,-80.400937,Peoples Creek Rd
160,35.919230,-80.629664,Powell Rd
185,35.783118,-80.510403,Mohegan Trl
185,35.920177,-80.628751,Powell Rd/Wilkesboro St
160,35.867726,-80.603299,Ricketon Rd/Jericho Church Rd
658,35.894355,-80.561523,Court Sq
216,35.882684,-80.591844,Prison Camp Rd
216,35.889957,-80.562067,S Main St
160,36.007143,-80.460738,Charlotte Pl
334,35.894850,-80.563333,N Salisbury St
362,35.920664,-80.588732,Madison Rd
216,35.984354,-80.438047,Aviara Dr
216,35.976158,-80.459362,Baltimore Rd
216,35.903332,-80.572085,Mumford Dr
160,35.821751,-80.551167,Orchard St
160,35.922568,-80.638907,Center Cir
160,35.942999,-80.539731,US Hwy 158
160,36.002158,-80.477954,Southland Way/Redland Rd
305,35.862180,-80.545384,Deadmon Rd
160,35.990525,-80.446587,Oak Valley Blvd
246,35.881973,-80.561167,S Main St
160,35.955063,-80.419352,State Hwy 801
276,35.944751,-80.538170,Bare Ln/US Hwy 158
160,35.892063,-80.474802,Hickory Tree Rd
185,35.983280,-80.449969,Middleton Ln/Gun Club Rd
160,35.985845,-80.430943,Underpass Rd
305,35.981806,-80.484209,Kinder Ln
276,35.932529,-80.494623,Dulin Rd/Milling Rd
185,35.990146,-80.465824,US Hwy 158
160,35.817681,-80.550361,Wall St/Neely Rd
185,35.964224,-80.502831,US Hwy 158
418,35.910823,-80.579569,Yadkinville Rd
216,35.826622,-80.532025,Hobson Dr
160,36.026876,-80.478676,Yadkin Valley Rd
246,35.893870,-80.556979,Pine St/E Depot St
185,35.900564,-80.569087,Wilkesboro St
305,35.827772,-80.545608,Michaels Rd
216,36.002904,-80.661071,Duard Reavis Rd
216,36.002398,-80.422891,Golfview Dr
185,35.903902,-80.596551,Wilkesboro St
160,36.016377,-80.462918,E Robin Dr
418,35.910517,-80.579367,Yadkinville Rd
160,35.932568,-80.471244,Falcon Ln/Cornatzer Rd
185,35.919104,-80.626670,Wilkesboro St/Bryant Ln
160,35.883356,-80.539496,Deer Run Dr
390,35.903890,-80.578204,Valley Rd
185,35.975483,-80.493989,Lincoln Ln
216,35.826525,-80.563954,Gladstone Rd
216,35.999061,-80.434452,Pembrooke Ridge Ct
216,35.912644,-80.558706,Campbell Rd
160,35.902916,-80.524172,Foxdale Ct
334,35.984330,-80.434651,Suntree Dr/Oak Valley Blvd
216,35.844603,-80.547826,Gladstone Rd/US Hwy 601
160,35.974099,-80.621931,US Hwy 601
160,35.995649,-80.433978,Holly Brook Dr
160,35.938436,-80.549194,S Angell Rd
160,35.926413,-80.544054,Sain Rd
216,35.797347,-80.504493,Boxwood Church Rd
246,36.012972,-80.455241,Claybon Dr
160,35.999612,-80.423401,Riverbend Dr
160,36.017935,-80.504070,State Hwy 801
160,35.817941,-80.533181,Hobson Dr
334,35.918829,-80.593198,Madison Rd
185,35.987312,-80.474170,US Hwy 158
160,35.913059,-80.563462,Summit Dr
160,35.865934,-80.707004,Midway Dr
160,35.926256,-80.547331,Plott Ln
216,35.971680,-80.426678,Brave Ln
246,35.998663,-80.433402,Pembrooke Ridge Ct
216,35.846622,-80.546206,Fireside Ln
362,35.875118,-80.554789,Single Ln
216,35.887691,-80.562184,S Main St
185,35.899753,-80.528565,Windward Cir
160,36.011868,-80.459725,Forest Dr/Woodburn Pl
246,35.896376,-80.571537,Grey St
185,36.001402,-80.419843,Bent St
160,35.902084,-80.555897,Hallander Dr
185,35.822044,-80.491768,Hartley Rd/Cherry Hill Rd
160,35.869456,-80.583492,Jericho Church Rd/Brown Dr
185,36.002011,-80.423501,Golfview Dr
216,35.967667,-80.695466,Sheffield Farms Trl
160,36.036148,-80.638608,Chinquapin Rd
216,35.899068,-80.568976,Gwyn St
246,35.900557,-80.528272,Blue Bonnett Ct
185,36.002016,-80.423422,Golfview Dr
160,35.964010,-80.458083,Quail Hollow Rd
185,36.010651,-80.457148,Creekwood Dr
160,35.994476,-80.439177,Orchard Park Dr
160,35.973788,-80.468182,Junie Beauchamp Rd
216,36.002453,-80.422893,Golfview Dr
246,35.889615,-80.555871,Mill St
185,35.999382,-80.446071,US Hwy 158
160,35.814494,-80.557732,Yadkin St
185,36.018590,-80.488536,State Hwy 801/Willow Oak Ln/McKnight Rd
160,35.936740,-80.403022,Shutt Rd
185,35.962475,-80.429920,Graystone Ln
160,35.891473,-80.533063,Acres Ln/Deck Cir
160,36.002280,-80.619261,Elmore Rd/US Hwy 601
246,35.936516,-80.544522,US Hwy 158
160,35.969398,-80.457754,Baltimore Rd
160,35.940116,-80.624775,Ijames Church Rd
185,35.983784,-80.445088,Scottsdale Dr
160,35.880821,-80.443858,Fork Bixby Rd
160,35.970250,-80.497476,Jessica Trl
185,35.886187,-80.670111,I- 40
185,35.902875,-80.564633,Park Ave
160,35.962007,-80.428298,Mocks Church Rd
445,35.897279,-80.559705,N Main St
160,35.880524,-80.570893,Jericho Church Rd/New Hampshire Trl
418,35.897883,-80.569135,Raymond St
216,35.902743,-80.551344,Spring St
185,35.883024,-80.510982,Dalton Rd
185,35.902618,-80.561593,Lakewood Dr
276,35.832509,-80.535396,US Hwy 601
160,35.976483,-80.495210,Fox Run Dr
185,35.903884,-80.544028,Milling Rd
160,35.903624,-80.574643,Yadkinville Rd
160,35.900118,-80.563368,W Church St
390,35.907100,-80.577781,Yadkinville Rd
305,35.882368,-80.566112,Duke St
160,35.892885,-80.532133,John Crotts Rd
216,35.909343,-80.548179,N Main St
160,35.946725,-80.650869,Sheffield Rd
160,35.814058,-80.497967,Houston Rd
160,35.933761,-80.552534,Farmland Rd
185,35.862158,-80.551880,Lakewood Ave
216,35.913421,-80.484690,Cornatzer Rd
160,35.826093,-80.549417,Cook Trl
160,35.871503,-80.601040,Ricketon Rd
185,35.833631,-80.530529,State Hwy 801
160,35.839695,-80.543556,US Hwy 601
160,35.849125,-80.601042,Tara Ct
160,35.957237,-80.512560,US Hwy 158
246,36.006378,-80.528804,Kennen Krest Rd
185,35.826183,-80.563947,Gladstone Rd
185,35.882207,-80.511243,Eric Rd
216,35.899997,-80.530481,Windward Cir
160,35.875932,-80.519861,Dalton Rd/Faith Ln/Cockerham Ln
216,35.944845,-80.412689,State Hwy 801/Fire Station Rd
160,35.884415,-80.491401,Cedar Ridge Rd
160,35.849136,-80.601458,Tara Ct
472,36.015818,-80.419414,I- 40
160,35.894003,-80.490946,Lakeview Rd
160,35.964011,-80.458123,Quail Hollow Rd
246,35.902239,-80.528593,Blue Bonnet Ct/Mountview Dr
185,35.902491,-80.541580,Saytoe St
246,35.888620,-80.549559,E Lake Dr
185,35.963707,-80.503555,US Hwy 158
185,35.892751,-80.552803,Bailey St
185,35.802618,-80.486464,Singleton Rd
160,35.859559,-80.549362,US Hwy 601
185,35.890271,-80.551547,Lexington Rd/Charleston Ridge Dr
185,35.818131,-80.564190,Clark Rd
160,35.819600,-80.565016,Clark Rd
276,35.884099,-80.563519,Salisbury Rd
160,35.857822,-80.445344,State Hwy 801
160,35.962962,-80.504602,US Hwy 158
160,35.959303,-80.413142,Potts Rd
160,35.937274,-80.463168,Cornatzer Rd
160,35.882386,-80.513009,Dalton Rd
160,35.988910,-80.446202,Eagle Watch Ct
185,35.901584,-80.528291,Blue Bonnet Ct
160,35.925007,-80.532415,Bradford Pl
305,35.985723,-80.437280,Keswick Ct/Keswick Dr
185,35.863395,-80.537436,Deadmon Rd
276,35.983978,-80.447398,Scottsdale Dr
276,35.883836,-80.510231,US Hwy 64
160,35.937909,-80.408970,State Hwy 801
216,35.908211,-80.578251,Yadkinville Rd
160,35.903364,-80.689096,Davie Academy Rd
160,35.974450,-80.466762,Pardue Loop
160,35.969165,-80.514999,Pinebrook School Rd
160,35.851198,-80.643644,Ketchie Creek Rd
185,35.958976,-80.451373,Brushy Mountain Trl/Montclair Dr
160,35.995104,-80.437917,Cedar Ln
160,35.933729,-80.552562,Farmland Rd
160,35.808349,-80.553309,Grove St
160,35.955425,-80.419538,State Hwy 801
185,35.843834,-80.548087,Gladstone Rd
631,35.897550,-80.559311,N Main St
216,35.944095,-80.608818,Northbrook Dr
160,36.013094,-80.434739,Parkview Ln
579,35.920652,-80.587218,Yadkinville Rd
160,35.971441,-80.425015,State Hwy 801
526,35.870279,-80.552730,Salisbury Rd
390,35.900490,-80.555407,N Main St
160,35.959629,-80.413072,Potts Rd
160,35.849123,-80.600987,Tara Ct
160,35.820196,-80.548938,Jerusalem Ave/Wall St
160,35.990248,-80.468120,Longwood Dr
216,35.992461,-80.457853,US Hwy 158
160,35.804343,-80.511608,US Hwy 601
160,35.997195,-80.423894,Spyglass Dr
185,35.937663,-80.601053,Chance Ln/US Hwy 601
276,35.903622,-80.530650,Marconi St
160,35.885736,-80.553065,Winding Creek Rd
160,35.846002,-80.437147,Hilltop Dr
160,35.915209,-80.544074,Rosewood Ln
276,35.904935,-80.579440,Valley Rd
160,35.998833,-80.430763,Warwick Pl
160,35.818078,-80.548890,State Hwy 801
185,35.914835,-80.602808,Evans Rd
246,35.895381,-80.556626,Ken D Wiggens
216,35.975097,-80.607951,Cabana Ln
185,35.999205,-80.423461,Riverbend Dr
216,36.004823,-80.616564,Greenfield Rd
185,35.989903,-80.457004,Gun Club Rd
160,35.904098,-80.597015,Wilkesboro St
160,35.816782,-80.567248,Junction Rd
246,35.985628,-80.492885,I- 40
160,35.941513,-80.588167,Main Church Rd
185,35.841886,-80.545793,US Hwy 601
160,36.016972,-80.533332,Cemetery Rd
160,36.033413,-80.459086,Yadkin Valley Rd
160,36.023392,-80.580799,Pino Rd
160,35.890735,-80.563990,Salisbury Rd
445,35.896280,-80.570089,Tot St
160,35.984164,-80.448341,Scottsdale Dr
246,35.895849,-80.556833,Pine St
160,35.893455,-80.517726,John Crotts Rd
445,35.895603,-80.555253,Railroad St
185,35.899793,-80.529765,Windward Cir
185,35.916149,-80.578360,Country Ln
216,35.965547,-80.484928,Shaggy Bark Ln
216,35.899363,-80.569312,Gwyn St
160,35.853323,-80.442004,Riverview Rd
160,35.869657,-80.582266,Jericho Church Rd
216,35.903066,-80.538347,Milling Rd
160,35.928700,-80.556997,Farmland Rd
246,35.879438,-80.559595,Eaton Rd/Salisbury Rd
160,35.977845,-80.416518,Underpass Rd
185,35.814500,-80.554349,Watt St
160,35.887160,-80.551797,Charleston Ridge Dr
185,35.890444,-80.559947,E Maple Ave
185,35.992295,-80.474081,Redland Rd
160,36.018540,-80.489560,State Hwy 801
160,36.012094,-80.441773,Townpark Dr/Old Towne Dr
472,35.891625,-80.563679,Salisbury Rd
185,35.992601,-80.457527,US Hwy 158
160,35.929368,-80.448775,Baileys Chapel Rd
160,35.806411,-80.555853,State Hwy 801
160,35.884348,-80.563725,Salisbury Rd
160,35.888277,-80.536955,US Hwy 64
185,35.882677,-80.564124,Howard St
160,35.971995,-80.478072,Irish Ln/Glenn Allen Rd
160,35.991456,-80.439780,Seldom Farm Ln
185,35.912560,-80.544879,N Main St
160,35.897255,-80.579003,Marlene St
160,35.843266,-80.548102,Gladstone Rd
160,35.889239,-80.555874,Mill St/Graham St
185,35.911603,-80.555939,Campbell Rd
246,35.896084,-80.556818,Pine St
305,35.894292,-80.556182,Foster St
185,35.888355,-80.564910,Salisbury Rd
185,35.989940,-80.467934,Longwood Dr
216,35.886918,-80.554925,Cloister Dr
185,36.032644,-80.457843,Yadkin Valley Rd
246,35.948305,-80.545479,I- 40
160,35.884100,-80.539097,Doe Trl
216,36.003289,-80.660653,Duard Reavis Rd
246,36.015089,-80.532425,Farmington Rd
160,35.872253,-80.431176,US Hwy 64
216,35.890421,-80.559792,E Maple Ave
160,36.000730,-80.429779,Fescue Dr/Riverbend Dr
160,35.872814,-80.595175,Towery Rd
160,35.949324,-80.443121,Sonora Dr
185,35.949384,-80.533995,US Hwy 158
246,35.816283,-80.562659,Westview Ave
185,35.928093,-80.405218,Shady Grove Ln
160,35.907453,-80.614568,Wilkesboro St
710,35.893854,-80.562192,Court Sq
160,35.913125,-80.562066,Ash Dr
160,35.954670,-80.457743,Montclair Dr
160,35.959334,-80.533885,Farmstead Ln/Farmington Rd
160,35.999314,-80.436279,State Hwy 801
276,35.975383,-80.436980,Kingsmill Dr
160,35.992666,-80.445656,Hiddenbrooke Dr
185,35.889792,-80.550289,Lexington Rd
216,35.980497,-80.442216,N Saint Andrews Dr
160,35.919436,-80.397423,Peoples Creek Rd
246,35.832361,-80.534204,State Hwy 801
185,35.820283,-80.522540,US Hwy 601
276,35.902716,-80.553262,Cemetery St/N Main St
246,35.816665,-80.554787,Rocky Hill Trl
276,35.984515,-80.447258,Broadmoor Dr
160,35.949487,-80.611606,Candi Ln
160,35.891466,-80.533127,Deck Cir
160,35.902874,-80.525421,Leila Ct
246,35.839169,-80.543017,Grassy Cove Trl/US Hwy 601
160,35.820517,-80.533779,Hobson Dr
246,35.897745,-80.570285,Avon St
246,35.981574,-80.444023,Silverod Rd/Seay Dr
160,35.969855,-80.497737,Jessica Trl
160,35.974841,-80.432865,Kingsmill Dr
160,35.986924,-80.472614,Junie Beauchamp Rd
160,35.938708,-80.480207,Pamela Ln
216,35.976523,-80.431399,Kingsmill Dr
160,35.998638,-80.427276,Juniper Cir
160,35.933566,-80.552693,Farmland Rd
160,35.898607,-80.571835,Hospital St Exd/Ridgeview Dr
246,35.989959,-80.466607,US Hwy 158
334,35.892737,-80.555510,Bailey St/E Depot St
216,35.901354,-80.554501,N Main St
185,35.941605,-80.409985,State Hwy 801
246,35.816282,-80.562241,Westview Ave
216,35.941096,-80.408942,Peoples Creek Rd
160,35.902287,-80.549729,Spring St
185,35.903643,-80.595937,Wilkesboro St
160,35.913016,-80.562060,Ash Dr
160,35.885951,-80.560953,Harding St
305,36.000260,-80.467170,I- 40
276,36.000831,-80.444047,US Hwy 158
160,35.836191,-80.539541,US Hwy 601
334,35.883602,-80.561789,S Main St
334,35.893302,-80.563454,S Salisbury St
185,35.878922,-80.570189,North Carolina Cir
160,35.962284,-80.505537,US Hwy 158
216,35.987924,-80.450304,Broadmoor Dr
160,35.908352,-80.528451,Milling Rd
160,35.816683,-80.567239,Junction Rd
185,35.810989,-80.554983,Watt St
185,35.902255,-80.578371,Wilkesboro St
185,36.010401,-80.426494,Dornach Way/Kinderton Blvd
160,35.903327,-80.522802,Whitney Rd
185,36.033088,-80.480164,Natalies Way
160,35.944274,-80.603420,Cranberry Ln
185,35.907689,-80.549538,N Main St
160,35.915634,-80.659343,Vanzant Rd
246,35.981196,-80.443175,N Saint Andrews Dr
160,36.023112,-80.618107,US Hwy 601
185,35.921474,-80.397751,W Rollingmeadow Rd
216,35.985764,-80.448088,Broadmoor Dr
185,35.893708,-80.552037,Cartner St
216,35.904933,-80.540947,Northridge Ct
246,35.877298,-80.557749,Salisbury Rd
160,35.951300,-80.532251,US Hwy 158
160,35.847694,-80.547530,Excalibur Ln/Fireside Ln
305,35.894982,-80.561058,Horn St
160,35.852925,-80.598107,Junction Rd
160,36.030106,-80.618222,US Hwy 601
216,35.844106,-80.547545,US Hwy 601
305,35.890859,-80.554825,Lexington Rd
160,35.979522,-80.422732,Hillcrest Dr
246,36.043856,-80.626868,US Hwy 601
246,36.011350,-80.421208,Bermuda Run Dr/Ivy Cir
276,35.981076,-80.424204,Oakbrook Dr
246,35.860271,-80.549024,Dinks Way
185,35.879623,-80.605095,Greenhill Rd
418,35.869686,-80.510347,Turrentine Church Rd
216,35.919899,-80.398522,Peoples Creek Rd
160,35.975540,-80.439245,Lonetree Dr
185,35.814836,-80.566061,Junction Rd
246,35.900375,-80.570760,Dr Slate Dr/Meroney St
160,35.896418,-80.567490,Raymond St
276,35.965063,-80.436283,S High Field Rd
160,35.985862,-80.434870,Suntree Ct
160,36.013156,-80.473628,Wood Ln
160,35.875853,-80.519297,Cockerham Ln
160,35.964527,-80.617991,US Hwy 601
160,35.961135,-80.507217,US Hwy 158
305,35.897112,-80.570528,Avon St
185,36.007361,-80.458028,Creekwood Dr
160,35.818505,-80.533315,Hobson Dr
216,35.784486,-80.508206,US Hwy 601
160,35.945314,-80.409609,Fire Station Rd
216,35.918098,-80.594255,Evans Rd/Madison Rd
216,36.010680,-80.455540,S Claybon Dr
160,35.901892,-80.586780,Wilkesboro St
160,35.905711,-80.529038,Whitney Rd
185,35.860450,-80.553033,Lakewood Dr
160,35.894229,-80.680641,Davie Academy Rd
160,35.990178,-80.465680,US Hwy 158
390,35.892551,-80.566046,Sanford Ave
160,35.894390,-80.552009,Cartner St
216,35.898732,-80.570089,Raymond St
160,35.846057,-80.517009,Will Boone Rd
160,35.820764,-80.533814,Hobson Dr
185,35.900469,-80.529135,Windsong Rd
246,35.863944,-80.535737,Deadmon Rd
216,35.905883,-80.579289,Marketplace Dr
526,36.006211,-80.440640,State Hwy 801
160,35.883829,-80.486578,Pine Valley Rd
276,35.987346,-80.450023,Broadmoor Dr
276,35.884925,-80.489365,Cedar Ridge Rd
160,35.819563,-80.521796,US Hwy 601
160,35.889700,-80.575054,Sanford Ave
160,35.885695,-80.552813,Winding Creek Rd
160,35.785835,-80.508022,US Hwy 601
216,35.879017,-80.570369,New Hampshire Ct
160,35.866929,-80.603440,Junction Rd
160,35.853693,-80.598189,Junction Rd
160,35.944901,-80.455963,Baltimore Rd
185,35.892750,-80.495483,Cornatzer Rd
276,35.884958,-80.489284,Cedar Ridge Rd
216,36.015950,-80.533068,State Hwy 801
160,35.869430,-80.586399,Jericho Church Rd
276,35.899153,-80.562849,W Church St
160,35.841991,-80.552214,Gladstone Rd
216,35.882504,-80.511225,Eric Rd
185,35.843719,-80.547298,US Hwy 601
160,35.916358,-80.578657,Sterling Dr
160,35.989042,-80.473927,Redmeadow Dr/King Authur Ln/Redland Rd
216,35.975335,-80.413805,Underpass Rd
160,35.991269,-80.468588,Longwood Dr
216,35.931675,-80.651421,Fred Lanier Rd
160,35.808565,-80.552539,Grove St
160,36.037500,-80.622627,US Hwy 601
246,35.881898,-80.561138,S Main St
305,35.892576,-80.567176,Sanford Ave
160,35.979664,-80.459596,Robbie Ln
362,35.881886,-80.681395,Dorse Rd
160,35.932062,-80.598607,US Hwy 601
276,35.883966,-80.563407,Salisbury Rd
160,35.857168,-80.445553,State Hwy 801
185,35.912239,-80.562018,Ash Dr
160,35.970718,-80.424650,State Hwy 801/Brave Ln
579,35.894052,-80.561138,Horn St/E Depot St
185,35.902519,-80.562332,Park Ave
160,35.914144,-80.483492,Cornatzer Rd
305,35.903424,-80.547793,W Brick Walk Ct/Mill Run Dr/E Brick Walk Ct
160,35.999200,-80.427195,Juniper Cir
160,36.002638,-80.433840,Riverbend Dr
216,35.988051,-80.443975,Hiddenbrooke Dr
160,35.933125,-80.615927,Hidden Valley Ln
160,36.035341,-80.594410,Ryans Way
418,35.911801,-80.613504,I- 40
160,35.905890,-80.632279,Godbey Rd
246,35.981827,-80.489571,Frost Rd
246,35.899911,-80.527983,Windward Cir
305,35.905827,-80.578279,Valley Rd
185,35.898733,-80.567010,Wilkesboro St
185,35.975932,-80.432182,Kingsmill Pl
160,35.884308,-80.600492,Friendship Ct
160,35.865135,-80.532724,Deadmon Rd
216,35.810492,-80.556100,Duke St
160,36.001271,-80.451511,Gray Sheeks Rd
246,35.893831,-80.556777,E Depot St
160,35.849141,-80.601636,Tara Ct
160,35.879447,-80.509809,Grover Rd
160,35.909427,-80.554385,Hewitt Ln
160,35.951454,-80.416697,State Hwy 801
160,35.998051,-80.450559,Gray Sheeks Rd/US Hwy 158
362,35.875092,-80.554768,Single Ln
246,35.902343,-80.576588,Wilkesboro St
160,36.003715,-80.420415,Bermuda Run Dr
160,35.830726,-80.545139,Michaels Rd
216,36.006802,-80.470908,Gordon Dr
185,36.010355,-80.477293,Redland Rd
160,35.996401,-80.428708,Bing Crosby Blvd
276,36.010720,-80.442426,Fred Bahnson Dr
185,35.796545,-80.505557,Cherry Hill Rd
216,35.984434,-80.438524,Aviara Dr
216,35.813078,-80.554602,Watt St
160,35.951988,-80.608356,US Hwy 601
185,35.872810,-80.433437,US Hwy 64
216,35.900963,-80.533867,Mountview Dr
305,35.830044,-80.532243,Coventry Ln
160,35.986052,-80.484988,Shallowbrook Dr
185,35.963996,-80.457575,Quail Hollow Rd
276,35.883576,-80.563085,Salisbury Rd
276,35.913763,-80.581427,Yadkinville Rd
160,36.011464,-80.477577,Redland Rd
185,35.841806,-80.556409,Gladstone Rd
160,35.934916,-80.548806,Main Church Rd
160,35.918138,-80.660269,Vanzant Rd
216,36.002337,-80.461732,Buchin Ln
305,35.958471,-80.529209,I- 40
216,35.898320,-80.557705,Cherry St
185,35.938462,-80.501308,Glasgow Ln
276,35.927187,-80.593908,US Hwy 601
185,35.973558,-80.412414,Country Cir
160,35.958814,-80.538003,Dutchman Trl
246,35.887791,-80.560780,Forrest Ln/Forest Ln
185,35.834218,-80.562743,Gladstone Rd
160,35.979675,-80.460475,Robbie Ln
160,36.002282,-80.429341,Fescue Dr
160,36.002434,-80.661608,Duard Reavis Rd
160,35.911674,-80.594957,Madison Rd
185,36.012438,-80.456216,State Hwy 801
160,35.903874,-80.627063,Boone Farm Rd
160,35.933151,-80.650479,Fred Lanier Rd
579,36.016137,-80.418771,I- 40
216,35.870686,-80.702100,Midway Dr
160,35.890392,-80.564136,Salisbury Rd
216,35.980668,-80.442396,N Saint Andrews Dr
334,35.891682,-80.557259,Williams St
185,35.820524,-80.522795,US Hwy 601
216,35.998994,-80.432294,Warwick Pl
160,36.013134,-80.459610,State Hwy 801
160,35.932773,-80.393065,Oak Hill Rd/March Ferry Rd/Old March Rd
246,35.908203,-80.553617,Holman St
160,35.886450,-80.551811,Cloister Dr/Charleston Ridge Dr
160,35.843658,-80.556606,Huffman Rd
160,35.891372,-80.566203,W Maple Ave
160,35.982424,-80.432199,Oakmont Ct
160,35.975062,-80.430951,Kingsmill Ct
160,35.809737,-80.548449,Midway St/Grove St
160,35.961971,-80.422441,Mocks Church Rd
246,35.881708,-80.504028,US Hwy 64
160,36.000113,-80.477327,Redland Rd
246,35.987589,-80.436995,Hidden Creek Dr
160,35.923877,-80.546073,US Hwy 158
185,35.820848,-80.550478,Jerusalem Ave
246,35.896389,-80.555222,Railroad St/Cherry St
185,35.907048,-80.549939,Greenwood Ave/N Main St
160,35.993432,-80.444789,N Millbrooke Ct
160,36.011729,-80.461090,Woodburn Pl
160,35.788025,-80.507732,US Hwy 601
160,35.964173,-80.477845,Toggenburg Ln
216,35.933684,-80.649838,Fred Lanier Rd
160,36.002512,-80.429322,Fescue Dr
160,35.944069,-80.602420,Chaucer Ln
160,35.817666,-80.549131,State Hwy 801
160,35.989363,-80.473919,Redland Rd
160,35.982799,-80.449627,Gun Club Rd/Middleton Ln
185,35.880301,-80.560333,Salisbury Rd
160,35.882447,-80.512831,Dalton Rd
160,36.013122,-80.474267,Wood Ln
160,35.953328,-80.600129,Danner Rd
160,35.838837,-80.561270,Gladstone Rd
305,35.994660,-80.481809,Harper Rd
246,35.905573,-80.531804,Whitney Rd
160,35.862916,-80.556914,Lakewood Village Rd
472,35.878006,-80.558351,Salisbury Rd
160,35.928821,-80.449812,Fork Bixby Rd
334,35.888598,-80.663485,I- 40
276,35.860272,-80.549379,Dinks Way/US Hwy 601
216,35.944255,-80.538615,Bowles Rd/US Hwy 158
160,35.905014,-80.529760,Morse St
334,35.895716,-80.563653,Wilkesboro St
160,35.974426,-80.466710,Pardue Loop
160,35.916589,-80.578646,Sterling Dr
160,35.899245,-80.565365,Church St Exd
216,35.940618,-80.409659,State Hwy 801
160,35.886409,-80.599389,County Home Rd
216,35.902044,-80.551720,Hunt St
276,35.909803,-80.540028,Sunset Dr
160,35.992410,-80.473126,Bethlehem Dr
216,36.006726,-80.438349,Medical Dr
334,35.928964,-80.393079,March Ferry Rd
216,35.884956,-80.572234,Beechwood Dr
160,35.903626,-80.550386,Oak St
246,36.003840,-80.454340,I- 40
185,35.929615,-80.546371,Jasmine Ln
185,35.923706,-80.479663,Milling Rd/Cornatzer Rd
246,35.883961,-80.561927,S Main St
185,35.991549,-80.473869,Redland Rd
246,35.899683,-80.568092,Wilkesboro St
185,35.874341,-80.439236,US Hwy 64
185,36.013186,-80.455179,Claybon Dr
216,36.011043,-80.455439,Janlin Ln/S Claybon Dr
216,35.813450,-80.558112,Erwin St
160,36.004309,-80.465892,Ginny Ln
160,35.851483,-80.547693,Holy Cross Church Rd
246,35.876873,-80.691828,I- 40
185,35.945814,-80.598040,Main Church Rd Exd
160,36.016036,-80.461074,Matts Pl
216,35.935131,-80.390178,Old March Rd
185,35.900487,-80.568999,Wilkesboro St
160,36.013540,-80.434713,Parkview Ln
185,35.885204,-80.495531,Cornatzer Rd
185,35.884365,-80.539161,Doe Trl
160,35.908088,-80.615272,Wilkesboro St
160,35.968666,-80.513722,I- 40
216,35.890546,-80.552303,Lexington Rd
160,35.989623,-80.433523,Lybrook Rd
246,35.970855,-80.499012,Kae Ln
185,36.049033,-80.644408,Bell Branch Rd
246,35.924026,-80.413875,S Hemingway Ct
160,35.905309,-80.528571,Whitney Rd
160,35.996670,-80.428881,Bing Crosby Blvd/Lake Crossing Dr
185,35.874255,-80.524534,Turrentine Church Rd
160,36.026846,-80.478692,Yadkin Valley Rd
160,35.907349,-80.616645,Boone Farm Rd
160,35.961196,-80.534175,Farmington Rd
160,35.937068,-80.550180,S Angell Rd
160,35.950483,-80.415666,State Hwy 801
185,35.903544,-80.568144,Wandering Ln
216,35.899907,-80.530225,Windward Cir
160,35.971800,-80.425188,State Hwy 801/Brave Ln
160,35.963982,-80.457106,Quail Hollow Rd
276,36.012532,-80.422826,Bert's Way
276,35.859372,-80.550449,Mc Cullough Rd
552,35.897337,-80.565444,Wilkesboro St
160,35.841974,-80.552570,Gladstone Rd
160,36.034276,-80.479414,Sparks Rd
160,35.992585,-80.445179,Mill Cove Dr
216,35.976228,-80.431258,Kingsmill Dr
185,35.985540,-80.484596,Shallowbrook Dr
246,36.004320,-80.618172,Landis Ct
160,35.933115,-80.616977,Hidden Valley Ln
185,35.814014,-80.558436,Erwin St
185,35.819804,-80.522056,US Hwy 601
185,35.947776,-80.445948,Snoopy Trl
185,35.954666,-80.455644,Montclair Dr
185,35.980337,-80.442047,N Saint Andrews Dr
160,35.940832,-80.622102,Ijames Church Rd
160,35.916190,-80.622770,Wilkesboro St
160,35.903068,-80.573973,Yadkinville Rd
305,35.882359,-80.562063,Salisbury Rd
246,35.901233,-80.527056,Windward Cir
160,35.896609,-80.555524,Cherry St
418,35.882991,-80.562597,Salisbury Rd
160,35.903249,-80.540217,Milling Rd
246,35.900920,-80.564313,W Church St
160,35.972145,-80.506562,Brix Ln
185,35.919954,-80.628965,Powell Rd
160,36.015597,-80.570397,State Hwy 801
160,35.934468,-80.599122,US Hwy 601
185,35.919546,-80.662804,Vanzant Rd/Calahaln Rd/Wilkesboro St
185,35.904619,-80.481624,Williams Rd
160,35.932311,-80.471888,Cornatzer Rd
160,35.986928,-80.639801,Bear Creek Church Rd
216,35.998814,-80.434045,Pembrooke Ridge Ct
160,35.890573,-80.560836,E Maple Ave
246,35.911159,-80.612255,Shuler Rd
160,35.811199,-80.554946,Watt St
160,35.845628,-80.544907,Fairfield Rd
185,35.985418,-80.480577,US Hwy 158
185,35.900027,-80.538184,Funder Rd
160,36.001995,-80.429359,Fescue Dr
160,35.808507,-80.552740,Grove St
160,36.000199,-80.478020,Rainbow Rd
185,35.890456,-80.555770,Mill St
185,35.926281,-80.539541,Sain Rd
185,35.950113,-80.605685,Caravan Ln
246,35.901054,-80.564462,W Church St
185,35.828294,-80.566151,Stonewood Rd
160,35.881591,-80.700189,Ridge Rd
160,35.902453,-80.525249,Leila Ct
160,35.885037,-80.597541,Scenic Dr
160,35.990647,-80.439215,Talwood Dr
185,35.991442,-80.473868,Parsonage Dr/Redland Rd
160,35.983743,-80.553758,Cornwallis Dr
160,35.905027,-80.600234,Wilkesboro St
160,35.815203,-80.515825,US Hwy 601
185,36.002926,-80.422816,Golfview Dr
160,36.012684,-80.419958,US Hwy 158
185,35.968264,-80.514675,I- 40/Pinebrook School Rd
216,35.883240,-80.564188,Duke St
160,35.904919,-80.599387,Wilkesboro St
160,35.824351,-80.526652,US Hwy 601
658,36.004249,-80.440898,US Hwy 158
185,35.857118,-80.546804,Hinkle Dr
160,35.904034,-80.552200,N Main St
185,35.988094,-80.470885,Leona Way
160,35.975865,-80.431096,Kingsmill Dr
334,35.883217,-80.561641,S Main St
160,35.925363,-80.533939,Sain Rd
246,35.977557,-80.439501,Kingsmill Dr
445,35.976530,-80.504293,I- 40
418,35.862920,-80.549491,US Hwy 601
160,35.883400,-80.538194,Deer Run Dr
185,36.009535,-80.462131,Brentwood Dr
216,35.813871,-80.554464,Watt St
185,35.887904,-80.529710,US Hwy 64
160,35.912345,-80.652294,Dayspring Way
160,35.856857,-80.546304,Eve Ln
246,36.004042,-80.436141,Ivy Cir
334,36.008150,-80.438492,I- 40
305,35.901016,-80.526969,Windward Cir
185,35.980018,-80.441853,N Saint Andrews Dr
579,35.926439,-80.587281,Cooper Creek Dr
160,36.033974,-80.458504,Valley Oaks Dr
160,35.983623,-80.450224,Gun Club Rd
160,35.962009,-80.428875,Mocks Church Rd
185,35.857152,-80.547047,Eden Ln/Hinkle Dr
216,36.006614,-80.438304,Medical Dr
160,35.974479,-80.468553,Junie Beauchamp Rd/Pardue Loop
185,35.910707,-80.546114,N Main St
160,35.905981,-80.533583,Milling Rd
160,35.953257,-80.599258,Danner Rd
185,35.895439,-80.565611,Avon St
216,35.908427,-80.578349,Yadkinville Rd
185,36.012338,-80.455685,State Hwy 801
185,35.989814,-80.456931,Gun Club Rd
160,35.902082,-80.582251,Wilkesboro St
216,35.980951,-80.440948,Arnold Palmer Dr
160,35.961315,-80.429638,Beauchamp Rd
246,35.900825,-80.567319,Softley St/Garner St
160,35.872842,-80.433559,US Hwy 64
185,35.917785,-80.481729,Cornatzer Rd
246,36.003231,-80.436484,Ivy Cir
334,35.903524,-80.552621,N Main St
185,35.902164,-80.580449,Wilkesboro St
185,35.983458,-80.429136,Whitehead Dr
246,35.833376,-80.531237,State Hwy 801
160,35.980522,-80.484629,Manchester Ln/Howardtown Cir
160,35.868088,-80.529950,Turrentine Church Rd
160,35.818589,-80.548592,State Hwy 801
160,35.819107,-80.533458,Hobson Dr
160,35.897844,-80.555145,Poplar St/Railroad St
216,35.890212,-80.562054,S Main St
185,35.906444,-80.531063,Morse St
160,35.997374,-80.423822,Spyglass Dr
334,35.828069,-80.545593,Michaels Rd
160,35.950117,-80.503271,Dulin Rd
160,35.868778,-80.529868,Turrentine Church Rd
160,35.976369,-80.427395,State Hwy 801
160,35.922842,-80.522733,Arbor Hill Ave
185,35.922472,-80.479706,Cornatzer Rd
160,35.820166,-80.560435,Flat Rock Rd
216,35.936851,-80.544357,US Hwy 158
160,35.996995,-80.431104,Bing Crosby Blvd
160,35.906258,-80.523930,Creekside Dr
160,35.810774,-80.555021,Watt St
185,35.920410,-80.629250,Wilkesboro St
185,35.980166,-80.441906,N Saint Andrews Dr
631,35.902888,-80.570706,Garner St
160,35.907503,-80.527798,Hillcrest Ct
185,35.883024,-80.592746,Park Hill Ln
160,35.864969,-80.526795,Deadmon Rd
160,35.916468,-80.578652,Sterling Dr
185,35.877383,-80.442587,US Hwy 64
216,35.935288,-80.642913,Fred Lanier Rd/Sheffield Rd
160,35.838901,-80.503504,Cherry Hill Rd
185,36.032968,-80.458353,Yadkin Valley Rd
216,35.975178,-80.607956,Cabana Ln
160,35.856592,-80.546975,Eden Ln
185,35.929903,-80.473971,Cornatzer Rd
160,35.945341,-80.409239,Underpass Rd/Fire Station Rd/Old Mill Rd
160,35.895655,-80.611173,Greenhill Rd
160,35.976486,-80.609496,Angell Rd/Latham Farm Rd
185,35.985449,-80.512068,Gilbert Rd
160,35.912062,-80.448444,Fork Bixby Rd
160,35.987691,-80.485652,Shallowbrook Dr/Emily Dr
246,35.892752,-80.552558,Bailey St
185,35.895604,-80.565097,Gwyn St
160,35.958818,-80.537691,Dutchman Trl
160,35.862466,-80.540272,Deadmon Rd/Walt Wilson Rd
246,35.904956,-80.579530,Marketplace Dr/N Mocksville Ct/Valley Rd
185,35.986067,-80.451300,Ligonier Dr
246,36.007899,-80.435103,Commerce Pl
216,35.916383,-80.594683,Madison Rd
216,35.847717,-80.547092,Excalibur Ln
185,35.885242,-80.566430,Hardison St
276,35.814906,-80.552173,Marginal St
185,35.922518,-80.393169,Dublin Rd
160,35.991676,-80.484900,I- 40
160,35.845476,-80.437776,Riverview Rd/Hilltop Dr
160,35.964981,-80.618268,US Hwy 601
160,35.936478,-80.412239,Sowers Ln
160,35.942516,-80.541107,Lowder Ln
499,35.895022,-80.561800,N Main St
160,35.928435,-80.545699,US Hwy 158
246,35.915983,-80.582819,Yadkinville Rd
216,35.959446,-80.538417,Patricia Way
160,35.979345,-80.459281,Baltimore Rd
160,35.873795,-80.522111,Turrentine Church Rd
865,36.005231,-80.438785,US Hwy 158
160,35.996230,-80.434120,Mulberry Pl/Holly Brook Dr
160,35.870343,-80.581383,Jericho Church Rd
160,35.924339,-80.638470,Center Cir
160,35.858308,-80.549345,US Hwy 601
160,35.941783,-80.402064,Southern Magnolia Dr/Peoples Creek Rd
185,36.012520,-80.456654,State Hwy 801/Creekwood Dr
160,35.876591,-80.519442,New Calvary Church Way/Dalton Rd
246,35.918857,-80.583044,Koontz Rd
160,35.993159,-80.444579,N Millbrooke Ct
246,35.908576,-80.546574,Crowe St
185,35.841796,-80.556456,Gladstone Rd
216,35.901843,-80.553988,N Main St
160,35.886119,-80.538958,Deer Run Dr
216,36.002367,-80.461610,Buchin Ln
246,35.900046,-80.570086,Meroney St/Hospital St/Gwyn St
1381,36.005495,-80.439770,State Hwy 801
390,35.863095,-80.548424,Deadmon Rd
185,35.970338,-80.497416,Jessica Trl
579,35.901994,-80.573079,Wilkesboro St
305,35.831936,-80.534780,US Hwy 601
160,35.814071,-80.557509,Yadkin St
160,35.983600,-80.451939,Winchester Rd
246,35.983223,-80.451002,Middleton Ln
160,36.036182,-80.603869,State Hwy 801
185,35.846557,-80.548679,US Hwy 601
276,35.966061,-80.436263,N High Field Rd
160,35.954366,-80.418970,State Hwy 801
160,35.806810,-80.555781,State Hwy 801/Main St/Center St
305,35.896957,-80.557538,Pine St
216,36.015462,-80.424943,Twins Way
185,35.886661,-80.544015,Polaris Dr
499,36.005416,-80.438272,US Hwy 158
246,35.895657,-80.495477,Lakeview Rd
160,35.881814,-80.700624,Ridge Rd
160,35.821256,-80.533884,Hobson Dr
160,35.790178,-80.516611,Riverdale Rd
160,35.906098,-80.695629,County Line Rd
160,36.023189,-80.618103,R Shore Dr/US Hwy 601
160,35.862856,-80.551882,Lakewood Ave
160,35.932398,-80.553604,Farmland Rd
160,35.886531,-80.489159,Shadybrook Rd
160,35.938587,-80.549029,S Angell Rd
305,35.891571,-80.552546,Center St
246,35.927691,-80.594281,US Hwy 601
762,35.918443,-80.584441,Yadkinville Rd
216,35.984609,-80.450095,Scottsdale Dr
246,35.914271,-80.581750,Yadkinville Rd
160,35.998301,-80.449596,US Hwy 158
216,35.924391,-80.592531,Blaise Church Rd
185,35.987423,-80.438223,Hidden Creek Dr
160,35.883096,-80.577739,Magnolia Ave
185,35.938022,-80.549651,S Angell Rd
160,36.018397,-80.486659,State Hwy 801
160,35.882704,-80.577769,Magnolia Ave
216,35.913111,-80.610132,I- 40
418,35.900488,-80.531463,Mountview Dr
160,35.816279,-80.559744,Ruffin St/Gladstone Rd/Westview Ave
246,35.799640,-80.525183,Pine Ridge Rd
160,35.946525,-80.629896,Wagner Rd
160,36.009168,-80.474490,Little John Dr
216,35.986662,-80.450928,N Hiddenbrooke Dr
160,36.011951,-80.421224,US Hwy 158/Twins Way
160,35.950403,-80.533153,US Hwy 158
160,35.951441,-80.416684,State Hwy 801
276,35.900032,-80.527604,Windward Cir
994,35.873720,-80.554768,Salisbury Rd
185,36.005211,-80.420370,N Bermuda Run Dr
246,35.833504,-80.530883,State Hwy 801
185,35.901434,-80.570435,Wilkesboro St
160,35.915627,-80.564284,Campbell Rd
160,35.923434,-80.523790,Arbor Hill Ave/Blossom Hill Ct/Turning Leaf Dr
160,35.993374,-80.444745,N Millbrooke Ct
185,35.904049,-80.547547,Mill Run Dr
216,35.902186,-80.579996,Wilkesboro St
160,35.891526,-80.533179,Deck Cir
185,35.985075,-80.484244,Shallowbrook Dr
185,35.978758,-80.434597,Isleworth Dr
185,35.944148,-80.603143,Chaucer Ln
160,35.988517,-80.470424,US Hwy 158
160,35.945133,-80.449642,Barney Rd
216,35.837886,-80.564006,Cable Ln
160,36.014452,-80.434251,Oak Wind Dr
216,35.815169,-80.557870,Marginal St
160,35.800528,-80.523590,Pine Ridge Rd
160,35.961615,-80.506470,US Hwy 158
160,35.817448,-80.560446,Allen St
216,35.923625,-80.524024,Blossom Hill Ct
185,35.931659,-80.545827,US Hwy 158
185,35.814236,-80.553443,Joyner St
160,35.827223,-80.531639,Pearson Dr/Hobson Dr
160,36.035212,-80.637781,Chinquapin Rd
160,35.839934,-80.544324,Hayes Ln
216,35.891014,-80.563880,W Maple Ave/Salisbury Rd
160,35.839890,-80.544708,Hayes Ln
216,36.001165,-80.443739,Webb Way/US Hwy 158
185,35.918431,-80.593927,Madison Rd
160,35.905535,-80.696145,County Line Rd
160,35.855969,-80.600289,Junction Rd
185,35.886520,-80.671825,Davie Academy Rd/Landmark Dr
216,35.896191,-80.489250,Lakeview Rd
276,35.984592,-80.447273,Broadmoor Dr
216,35.944017,-80.608856,Northbrook Dr
160,35.874316,-80.558593,Avgol Dr
160,35.940730,-80.424220,Orrell Trl
185,35.928247,-80.405204,Shady Grove Ln
160,35.906527,-80.553364,Hillcrest St
216,35.976307,-80.437738,Kingsmill Dr
160,36.023396,-80.581417,Pino Rd
658,35.894364,-80.561834,Court Sq/N Main St
185,36.009378,-80.475137,Little John Dr
160,35.985994,-80.477204,Laird Rd
160,35.901052,-80.536520,Bethel Church Rd
160,35.921892,-80.479864,Cornatzer Rd
160,35.917031,-80.578625,Sterling Dr
160,35.882598,-80.472251,US Hwy 64
160,35.843712,-80.556409,Fletcher St
160,35.945460,-80.650249,Sheffield Rd
246,35.905921,-80.531325,Whitney Rd
216,35.987042,-80.451388,N Hiddenbrooke Dr
276,36.001268,-80.445632,Webb Way
276,35.929920,-80.392667,March Ferry Rd
216,35.796829,-80.504247,Boxwood Church Rd
160,35.986318,-80.442480,S Hiddenbrooke Dr
160,35.881601,-80.459109,US Hwy 64
160,35.990324,-80.464985,US Hwy 158
418,35.896762,-80.568993,Tot St
216,35.903004,-80.552200,Spring St
216,35.933793,-80.649666,Fred Lanier Rd
216,36.015076,-80.422572,Twins Way
390,35.869720,-80.509586,Turrentine Church Rd
185,35.814300,-80.554386,Watt St
185,35.845671,-80.548351,US Hwy 601
216,35.894667,-80.563349,N Salisbury St
185,35.948169,-80.444844,McDaniel Rd
185,35.834843,-80.528823,State Hwy 801
160,35.906468,-80.613483,Wilkesboro St
160,35.985412,-80.512831,Gilbert Rd/Sugar Valley Trl
276,35.903703,-80.530524,Marconi St
160,35.822585,-80.543076,Edgewood Cir
185,35.980939,-80.442685,N Saint Andrews Dr
246,35.846038,-80.546061,Fireside Ln
276,36.013139,-80.423214,Bert's Way
185,35.998949,-80.431724,Warwick Pl
185,35.908306,-80.615515,Wilkesboro St
185,35.890776,-80.555560,Lexington Rd
185,35.860376,-80.524342,Hoose Ln
160,35.989711,-80.446976,Woodlands Ct
216,35.999185,-80.434635,Pembrooke Ridge Ct
160,36.005953,-80.458395,Creekwood Dr
160,35.909397,-80.555880,Holman St
185,35.945792,-80.435337,Rabbit Farm Trl
684,35.893975,-80.562188,Court Sq
185,35.996768,-80.433886,Hollybrook Dr
246,35.816283,-80.561875,Westview Ave
185,35.884105,-80.539767,Deer Run Dr
160,35.906076,-80.533453,Milling Rd
160,35.995982,-80.428864,Laurel Pl
160,35.789097,-80.507175,Boxwood Church Rd
160,35.929331,-80.404958,Shady Grove Ln
160,35.960794,-80.400068,Underpass Rd
246,35.985309,-80.444712,Oak Valley Blvd
813,35.871580,-80.553486,Salisbury Rd
160,35.977258,-80.417879,Westridge Rd
160,35.990766,-80.468418,Longwood Dr
160,35.998769,-80.430383,Warwick Pl
216,35.890901,-80.563042,W Maple Ave
185,35.889457,-80.555888,Mill St
160,36.014469,-80.434483,Oak Wind Dr/Parkview Ln
160,35.941687,-80.605239,Ijames Church Rd
160,35.944143,-80.604058,Cranberry Ln
160,35.852278,-80.477163,State Hwy 801
160,35.990408,-80.444254,Hiddenbrooke Dr
185,35.997880,-80.423578,Spyglass Dr
216,36.019347,-80.466712,Norma Ln
276,35.892088,-80.476005,Hickory Tree Rd
185,35.812652,-80.558658,Davie St/Cross St
160,35.905623,-80.607018,Wilkesboro St
160,35.916918,-80.578630,Sterling Dr
160,35.885829,-80.575792,Holly Ln
185,35.818614,-80.552026,Neely Rd
160,35.789853,-80.516521,Riverdale Rd
579,35.897152,-80.565239,Wilkesboro St
160,35.908226,-80.530291,Rolling Hills Ln/Milling Rd
216,35.903123,-80.568354,Wandering Ln/W Church St
246,36.015130,-80.436775,Millstone Ln
185,35.974967,-80.436518,Kingsmill Dr
160,35.911978,-80.544111,Sunset Dr
362,35.911414,-80.579957,Yadkinville Rd
216,35.945279,-80.601642,US Hwy 601
418,35.921162,-80.587876,Yadkinville Rd
160,35.944263,-80.412174,State Hwy 801
185,35.883584,-80.592852,Pleasant Ln
216,36.010479,-80.455597,S Claybon Dr
160,35.991365,-80.468605,Longwood Dr
160,35.992340,-80.470858,Bethlehem Dr
216,35.901986,-80.553854,N Main St
160,35.901274,-80.536522,Bethel Church Rd/Mountview Dr
160,35.979204,-80.433619,Isleworth Dr
246,35.976519,-80.437829,Kingsmill Dr
305,35.909784,-80.617158,I- 40/Wilkesboro St
185,35.888589,-80.564828,Salisbury Rd
160,36.015751,-80.460436,Wills Rd
160,35.912987,-80.491448,Jamestowne Dr
185,36.009611,-80.436312,Pinewood Ln
160,35.990556,-80.468308,Longwood Dr/Conifer Ct
160,36.013096,-80.459475,Andrew Rd/State Hwy 801
185,35.911299,-80.541632,Sunset Dr
185,35.887811,-80.577420,Magnolia Ave
216,35.931809,-80.394143,Old March Rd
216,35.897442,-80.572641,Grey St/Ridgeview Dr
160,35.940940,-80.587845,Main Church Rd
276,35.895404,-80.556177,Foster St/Ken D Wiggens
276,36.001055,-80.419668,Bent St
160,35.898588,-80.572978,Hospital St Exd
160,35.925104,-80.441766,Baileys Chapel Rd
160,35.859489,-80.548812,Dinks Way
160,35.999486,-80.427611,Riverbend Dr
160,35.947726,-80.417486,Knight Ln
160,35.869444,-80.586927,Jericho Church Rd
160,35.915940,-80.390915,Peoples Creek Rd
246,35.984906,-80.443872,Oak Valley Blvd
160,35.973376,-80.425964,State Hwy 801
216,35.883766,-80.539652,Deer Run Dr
246,35.831013,-80.543696,Self Ln
160,36.035585,-80.481420,Sparks Rd
185,35.958783,-80.482231,Lera Ln
216,35.824655,-80.565769,Creason Rd/Bub's Way
246,35.981568,-80.431397,Monarch Ct
185,35.904850,-80.547959,Milling Rd/Carolina St
160,35.913304,-80.651058,Dayspring Way
160,35.818259,-80.561069,Gladstone Rd/Flat Rock Rd
185,35.998327,-80.433692,Pembrooke Ridge Ct/Bing Crosby Blvd
334,36.007955,-80.439178,I- 40
160,36.000183,-80.478429,Rainbow Rd
160,35.827031,-80.533132,Pearson Dr
160,35.886442,-80.546621,Sunny Dell Ln
160,35.907319,-80.614419,Boone Farm Rd/Wilkesboro St
185,35.901604,-80.688732,Oakridge Ln
276,35.885886,-80.671634,I- 40
246,35.895910,-80.558109,Neely St/Ken Dwiggins Dr
216,35.826695,-80.563958,Gladstone Rd
160,35.966503,-80.423428,Hillcrest Dr
246,35.992282,-80.432456,James Way
185,35.899793,-80.528354,Windward Cir
160,35.888760,-80.444229,Fork Bixby Rd
160,35.851581,-80.548366,Holy Cross Church Rd
216,35.945208,-80.601616,US Hwy 601
160,35.961076,-80.534185,Farmington Rd
418,35.878867,-80.559097,Salisbury Rd
160,35.973736,-80.621919,US Hwy 601
276,35.893295,-80.556083,E Depot St
185,35.842424,-80.546297,US Hwy 601
216,35.935251,-80.642867,Sheffield Rd
185,35.816277,-80.561316,Westview Ave
160,35.979672,-80.443076,Cartgate Ct/Old Course Dr
160,35.910046,-80.523519,Milling Rd
445,36.015856,-80.419335,I- 40/Twins Way
185,35.973642,-80.437311,Meadow Creek Ct
246,35.881200,-80.561127,Salisbury Rd
276,36.014042,-80.435658,Bridgewater Dr
160,35.974855,-80.430585,Kingsmill Ct
160,35.925535,-80.413726,S Hemingway Ct
160,35.883897,-80.595258,Scenic Dr
216,35.947039,-80.457091,Baltimore Rd
185,35.924964,-80.413628,S Hemingway Ct
160,35.902420,-80.590469,Wilkesboro St
160,35.900823,-80.495586,Cornatzer Rd
160,35.983510,-80.486424,Backdraft Trl
160,35.903325,-80.689002,Oakland Ave/Davie Academy Rd
334,35.900430,-80.532448,Mountview Dr
160,36.009480,-80.531843,Bobbit Rd/Farmington Rd
658,35.892003,-80.562900,S Clement St/W Lexington Rd
185,35.984089,-80.432098,Oakmont Dr
185,35.982929,-80.419398,River Rd/Jordan Ln
160,35.930774,-80.392080,Primrose Rd/March Ferry Rd
216,36.010977,-80.455457,S Claybon Dr
216,35.923261,-80.479668,Cornatzer Rd
788,35.919766,-80.586041,Yadkinville Rd
684,35.893805,-80.561856,Court Sq/S Main St
160,35.941908,-80.449396,Barney Rd
216,35.812359,-80.555757,Duke St
160,35.871233,-80.516337,Turrentine Church Rd
160,35.899501,-80.565215,Church St Exd
160,35.939714,-80.452311,Fork Bixby Rd
160,36.039614,-80.505786,Redfield Rd/Arrowhead Rd
185,35.972434,-80.495143,US Hwy 158
216,35.925699,-80.406925,State Hwy 801
418,35.911954,-80.580299,Yadkinville Rd
185,35.950113,-80.604618,US Hwy 601
185,35.884965,-80.545615,E Lake Dr
185,35.812950,-80.558826,Davie St
216,35.984666,-80.439241,Aviara Dr
160,35.989718,-80.447019,Woodlands Ct
216,35.885931,-80.565040,Salisbury Rd
160,35.904160,-80.446096,Williams Rd
216,35.928969,-80.405136,Shady Grove Ln
160,35.885269,-80.571150,Birchwood Ln
185,35.980896,-80.484851,Howardtown Cir
185,35.908583,-80.410528,State Hwy 801
160,35.912188,-80.466455,Papoose Trl
160,35.986161,-80.450356,N Hiddenbrooke Dr
160,36.032831,-80.466688,Lewis Ln
185,35.973807,-80.412025,Underpass Rd/Country Cir
185,35.884191,-80.539787,Deer Run Dr
160,35.852553,-80.551056,Mc Cullough Rd
246,35.889861,-80.555844,Mill St
185,35.896990,-80.556048,Cherry St
160,35.982989,-80.425808,Underpass Rd
185,36.033688,-80.458518,Valley Oaks Dr
160,35.968260,-80.620258,US Hwy 601
216,35.854606,-80.549285,US Hwy 601
216,35.905650,-80.579367,Marketplace Dr/Wesfield Dr
472,36.010925,-80.419663,River Dr
160,35.847687,-80.547671,Excalibur Ln
605,36.016418,-80.418562,I- 40
185,35.979181,-80.433713,Isleworth Ct/Isleworth Dr
160,35.959553,-80.413088,Potts Rd
160,36.034296,-80.580249,N Pino Rd
216,35.923259,-80.413904,S Hemingway Ct
526,35.892532,-80.565251,Sanford Ave/Locust St
160,35.982678,-80.490329,Frost Rd
185,35.778985,-80.507971,US Hwy 601
160,36.010484,-80.418750,River Bluff Ln
160,35.952432,-80.609474,US Hwy 601
160,35.881640,-80.459573,US Hwy 64
865,35.918678,-80.584647,Yadkinville Rd/Koontz Rd
185,35.974051,-80.577391,Cana Rd
160,35.992479,-80.474177,Redland Rd
185,35.838418,-80.542252,US Hwy 601
160,35.978657,-80.417146,Underpass Rd
246,35.987472,-80.473668,US Hwy 158
160,35.871890,-80.429769,US Hwy 64
160,35.983250,-80.451936,Winchester Rd
160,35.818307,-80.564330,Clark Rd
276,35.812457,-80.554717,Watt St
216,35.890775,-80.552991,Lexington Rd
334,35.881997,-80.682765,Crescent Dr
185,35.899764,-80.529559,Windward Cir
216,35.903625,-80.548707,W Brick Walk Ct
276,35.981266,-80.424068,Oakbrook Dr
185,36.002980,-80.429275,Fescue Dr
160,35.813608,-80.497573,Houston Rd
160,35.962368,-80.689501,Charlie Reeves Rd/Sheffield Rd/Sheffield Farms Trl
216,35.897348,-80.567036,Gwyn St
185,35.999266,-80.423460,Riverbend Dr
160,35.966008,-80.423763,Hillcrest Dr
276,35.897290,-80.558008,Pine St
160,36.001688,-80.429386,Fescue Dr
160,35.872986,-80.434127,US Hwy 64
185,35.913013,-80.560733,Elmwood St
305,35.891570,-80.557262,Williams St
160,35.948668,-80.603500,White Dove Way/US Hwy 601
185,35.912140,-80.467753,Papoose Trl
216,35.847545,-80.545936,Excaliber Ln
160,35.843062,-80.548105,Gladstone Rd
185,35.870092,-80.706957,I- 40
160,35.925983,-80.547963,Plott Ln
246,35.908047,-80.578177,Yadkinville Rd
160,35.911006,-80.554612,Campbell Rd
246,35.840332,-80.523188,State Hwy 801
160,35.934634,-80.647932,Fred Lanier Rd
160,35.999772,-80.427012,Riverbend Dr
390,35.892565,-80.557231,Williams St
185,35.886817,-80.532414,Triple J Ln
185,35.938137,-80.601457,Allen Rd
216,35.976829,-80.496474,Fox Run Dr
160,35.973472,-80.467971,Junie Beauchamp Rd
246,35.871829,-80.567445,Rhode Island Ct
185,35.977036,-80.497188,Fox Run Dr
160,35.886370,-80.546287,Sunny Dell Ln
160,35.864690,-80.533821,Deadmon Rd
160,35.986558,-80.477044,US Hwy 158
185,35.958810,-80.538283,Dutchman Trl
185,35.820565,-80.549832,Jerusalem Ave
160,36.010114,-80.477234,Autumn Ln/Redland Rd
579,35.903056,-80.571541,Garner St
185,35.923870,-80.536997,Meadow Ridge Dr
246,35.882313,-80.561298,S Main St
160,36.007811,-80.616826,Pen Ct
160,35.903732,-80.572349,Mumford Dr
160,35.884280,-80.503941,Garwood Rd
185,35.947272,-80.445940,McDaniel Rd
185,35.959457,-80.537709,Patricia Way
185,35.936815,-80.404602,Shutt Rd
160,35.937769,-80.408939,State Hwy 801/Shutt Rd
160,36.016552,-80.465944,W Robin Dr
160,35.849101,-80.600134,Tara Ct
216,35.976140,-80.439136,Lonetree Ct
185,35.887913,-80.529922,US Hwy 64/Phil Ln
246,35.977290,-80.438475,Kingsmill Dr
160,35.804748,-80.511775,Pine Ridge Rd/Boxwood Church Rd/US Hwy 601
185,35.986101,-80.493676,Rainbow Rd/Lee-Jackson Dr
246,35.890752,-80.556248,Lexington Rd/E Lexington Rd
658,35.894305,-80.561479,Court Sq
185,35.948054,-80.445102,McDaniel Rd
160,36.015727,-80.548240,State Hwy 801
185,35.973168,-80.430293,Meadows Edge Dr
160,35.936480,-80.551961,Main Church Rd
160,35.928561,-80.591407,Boyce Dr
185,35.948753,-80.610309,Caravan Ln
185,35.901206,-80.560417,Park Ave
160,35.948271,-80.429071,Cornatzer Rd
160,35.991196,-80.439901,Talwood Dr
216,35.984504,-80.438836,Aviara Dr
216,36.001982,-80.423693,Golfview Dr
216,35.947796,-80.443990,McDaniel Rd
216,35.945081,-80.601966,Cheyenne Ln
160,35.924882,-80.409357,Alexandria Ct
276,35.896091,-80.561396,Ken Dwiggins Dr/N Main St
276,35.918769,-80.593338,Madison Rd
160,35.874787,-80.669622,Cane Mill Dr
305,35.882393,-80.561329,S Main St
160,35.934764,-80.647661,Fred Lanier Rd
216,36.002793,-80.422844,Golfview Dr
216,35.992289,-80.484119,I- 40
390,35.925441,-80.592787,US Hwy 601
160,35.980646,-80.427212,Overlook Dr
160,35.933226,-80.394353,Oak Hill Rd
362,36.010567,-80.442355,Fred Bahnson Dr
160,35.794099,-80.508008,US Hwy 601
185,35.828698,-80.569079,Nolley Rd
185,35.922446,-80.479706,Cornatzer Rd/Ralph Rd
185,36.009219,-80.461642,Brentwood Dr
185,35.908740,-80.548843,N Main St
160,35.914930,-80.418470,Baileys Chapel Rd
160,35.800479,-80.531578,Pine Ridge Rd
246,35.949754,-80.604259,US Hwy 601
216,35.870857,-80.528094,Red Oak Trl/Turrentine Church Rd
472,35.924480,-80.592118,Blaise Church Rd
185,35.828016,-80.579325,Sycamore Ln
160,35.999748,-80.435291,Pembrooke Ridge Ct
216,35.999106,-80.434518,Pembrooke Ridge Ct
185,35.833127,-80.531950,State Hwy 801
160,35.995971,-80.428989,Laurel Pl
160,35.997196,-80.427029,Juniper Cir
276,35.928802,-80.393090,March Ferry Rd
160,35.959464,-80.537235,Patricia Way
216,35.999685,-80.433764,Pembrooke Ridge Ct
160,35.904123,-80.527287,Whitney Rd
185,36.013906,-80.433859,Townpark Dr
216,35.879246,-80.570345,New Hampshire Ct
362,36.007998,-80.438393,I- 40
185,35.852626,-80.545758,Holy Cross Church Rd
160,35.812365,-80.552458,State Hwy 801
216,35.950096,-80.442136,Casa Bella Dr
160,35.834890,-80.534772,Whetstone Dr
160,35.826112,-80.544854,Stacee Trl
362,35.921758,-80.392133,Irish Pl
276,35.967735,-80.514989,I- 40
160,35.870145,-80.706695,I- 40
160,35.785475,-80.508068,US Hwy 601
710,35.870826,-80.553047,Salisbury Rd
160,35.869271,-80.587897,Jericho Church Rd
216,35.998046,-80.435615,Hamilton Ct
160,35.916780,-80.594675,Madison Rd
160,35.994608,-80.441294,Sycamore Ridge Dr/Sycamore Commons Ln
160,35.920965,-80.402158,Peoples Creek Rd
160,35.954669,-80.457099,Montclair Dr
246,35.862200,-80.543897,Deadmon Rd
185,35.888396,-80.518437,US Hwy 64
160,35.907104,-80.614180,Wilkesboro St
216,35.828132,-80.565374,Stonewood Rd
160,35.992002,-80.458908,US Hwy 158
216,35.887873,-80.423478,White Tail Ln
658,35.894641,-80.561816,N Main St
362,35.910241,-80.579191,Yadkinville Rd
185,35.983996,-80.432057,Oakmont Dr
216,35.915010,-80.606696,I- 40
185,35.828846,-80.530581,Correll Rd
185,35.919277,-80.627005,Wilkesboro St
185,35.999239,-80.435046,Hamilton Ct/Bing Crosby Blvd
160,35.881373,-80.502517,US Hwy 64
216,35.920884,-80.630273,Wilkesboro St
160,36.011775,-80.461250,Woodburn Pl
185,35.904640,-80.481799,Williams Rd
185,35.983311,-80.449875,Tar Heel Dr
216,35.891382,-80.565386,W Maple Ave/Locust St
185,35.926482,-80.545854,Sain Rd/Plott Ln/US Hwy 158
246,35.799633,-80.525275,Tatum Rd/Pine Ridge Rd
185,35.979634,-80.433940,Isleworth Ct
185,36.023825,-80.597626,Howell Rd
185,35.824013,-80.540625,Edgewood Cir
185,35.818575,-80.561514,Gladstone Rd
185,35.893603,-80.525469,Pete Foster Rd/John Crotts Rd
160,35.921490,-80.398228,W Rollingmeadow Rd
160,35.886752,-80.533664,Triple J Ln
185,35.845508,-80.547094,Fairfield Rd
216,35.824041,-80.526342,US Hwy 601
160,35.912979,-80.563457,Summit Dr
160,35.865517,-80.541309,Redwood Dr
160,35.915698,-80.570600,Country Ln
160,35.923711,-80.480212,Milling Rd
160,36.034464,-80.580257,N Pino Rd
276,36.013666,-80.423791,I- 40/Bert's Way
185,35.902437,-80.543452,Industrial Blvd
185,35.900689,-80.533155,Mountview Dr
216,36.048187,-80.645303,Bell Branch Rd
160,35.967107,-80.480495,Howardtown Cir
276,35.932359,-80.450475,Brier Creek Rd
160,36.001222,-80.436754,State Hwy 801
160,35.991170,-80.468566,Longwood Dr
160,35.933489,-80.391611,Old March Rd
216,36.004607,-80.436217,Ivy Cir
185,35.901293,-80.535568,Mountview Dr
185,35.987939,-80.436389,Hidden Creek Dr
185,35.923795,-80.593197,Blaise Church Rd
185,35.883472,-80.489959,Meadowview Rd
160,35.975023,-80.430882,Kingsmill Ct
160,35.931998,-80.491908,Milling Rd
160,35.922779,-80.637113,Wilkesboro St
390,35.903135,-80.571937,Mumford Dr/Garner St
185,35.896979,-80.648814,I- 40
160,36.012780,-80.434689,Parkview Ln
185,35.898984,-80.557241,N Main St
246,35.903232,-80.546901,E Brick Walk Ct
185,35.905707,-80.576944,Yadkinville Rd
160,35.859157,-80.549356,US Hwy 601
160,36.033793,-80.599532,Shelton Ln
362,35.915575,-80.582567,Yadkinville Rd
160,35.918523,-80.625539,Wilkesboro St
160,35.974723,-80.434148,Kingsmill Dr
185,35.817253,-80.549371,State Hwy 801
185,35.911099,-80.560563,Gumtree Ct
185,35.932704,-80.553333,Long Meadow Rd/Farmland Rd
185,35.997289,-80.435093,Bayberry Pl
216,35.932172,-80.451695,Brier Creek Rd
246,35.984708,-80.443336,Oak Valley Blvd/Seay Dr
160,35.938569,-80.458789,Joe Myers Rd
276,35.901707,-80.571252,Wilkesboro St
160,36.012303,-80.419896,River Dr
160,36.011004,-80.425459,Dornach Way/Abercorn Way
185,35.902514,-80.527606,Windward Cir/Mountview Dr
160,35.939699,-80.409590,State Hwy 801
160,35.922371,-80.547153,Harvest Way
185,35.983273,-80.429047,Whitehead Dr
160,36.013869,-80.437580,Rosewalk Ln/Townpark Dr
160,35.918583,-80.645880,Wilkesboro St
160,35.839811,-80.545412,Hayes Ln
160,35.976050,-80.431178,Kingsmill Dr
216,35.998451,-80.433583,Pembrooke Ridge Ct
160,35.977515,-80.418081,Westridge Rd
160,35.834836,-80.534649,Whetstone Dr
160,35.993127,-80.636150,Elmore Rd
185,35.904534,-80.480875,Williams Rd
185,35.902885,-80.573749,Yadkinville Rd
160,36.004383,-80.419968,N Bermuda Run Dr
216,35.976230,-80.439236,Lonetree Ct
160,35.957681,-80.511931,US Hwy 158
160,35.906026,-80.613223,Greenhill Rd
418,35.903000,-80.567383,W Church St
185,35.992502,-80.431449,James Way
160,35.984795,-80.484039,Shallowbrook Dr
390,36.003684,-80.441477,US Hwy 158
160,36.003345,-80.478096,Redland Rd
160,35.862117,-80.402699,US Hwy 64
160,35.953434,-80.602106,Danner Rd
160,35.938320,-80.470392,Buddy Trl
305,35.887614,-80.560027,Forrest Ln
160,35.791283,-80.507810,US Hwy 601
185,35.882085,-80.465701,Merrells Lake Rd/US Hwy 64
216,35.886136,-80.544209,Polaris Dr
160,35.995520,-80.433928,Holly Brook Dr
160,35.897486,-80.543765,Industrial Blvd
160,35.842005,-80.551914,Gladstone Rd
160,35.985972,-80.450278,N Hiddenbrooke Dr
160,35.911887,-80.563398,Summit Dr
160,35.984525,-80.437438,Aviara Dr
160,36.036079,-80.612359,Mortgage Hill Way
160,35.807399,-80.555669,State Hwy 801
185,35.912322,-80.560673,Elmwood St
185,35.980080,-80.441867,N Saint Andrews Dr
160,35.905687,-80.590180,Horseshoe Trl
160,35.991377,-80.427254,Bing Crosby Blvd
334,35.895924,-80.555236,Railroad St
305,35.882559,-80.565626,Duke St
160,35.824836,-80.563920,Gladstone Rd
185,36.012328,-80.455632,State Hwy 801
305,35.867226,-80.599336,Jericho Church Rd
160,35.871641,-80.611643,Davie Academy Rd
160,35.936431,-80.408675,State Hwy 801
160,36.039581,-80.641307,Gunter Ln
160,35.840088,-80.559498,Gladstone Rd
185,35.895334,-80.567715,Avon St
160,36.006500,-80.430320,Ivy Cir
160,35.995786,-80.425500,Juniper Cir
160,35.974046,-80.468603,Riverstone Trl
418,35.883124,-80.562710,Salisbury Rd
216,36.013390,-80.438738,Townpark Dr
246,35.997277,-80.435758,State Hwy 801
185,35.862658,-80.551881,Lakewood Ave
160,36.014584,-80.475412,State Hwy 801
160,35.847256,-80.548879,US Hwy 601
246,35.888277,-80.549084,Crestview Dr
160,35.831030,-80.545085,Michaels Rd
185,35.913044,-80.544793,N Main St
160,35.887296,-80.551794,Charleston Ridge Dr
334,35.827720,-80.545608,Michaels Rd
276,35.812240,-80.554756,Watt St
160,36.011254,-80.444227,Yadkin Valley Rd
160,35.916125,-80.624720,Hampton Ln/Wharton Trl
160,35.900703,-80.529150,Windsong Rd
160,35.825228,-80.563928,Gladstone Rd
160,36.016033,-80.461291,Matts Pl
160,35.977733,-80.428701,Legacy Dr
334,35.894107,-80.562978,W Depot St
160,35.896589,-80.555216,Railroad St
185,35.902065,-80.527410,Windward Cir
216,35.886623,-80.545441,Fairmont Dr
216,35.831369,-80.534150,US Hwy 601
185,35.931118,-80.545794,US Hwy 158
216,35.944548,-80.602116,Chaucer Ln/Cheyenne Ln
246,35.855542,-80.549299,US Hwy 601
160,35.885536,-80.551839,Winding Creek Rd/Charleston Ridge Dr
185,36.009505,-80.475551,Little John Dr
684,35.891974,-80.562303,W Lexington Rd
246,35.992297,-80.432132,James Way
552,35.874467,-80.555314,Salisbury Rd
160,35.827188,-80.533590,Pearson Dr
160,35.893061,-80.495779,Cornatzer Rd
334,35.896276,-80.561141,N Main St
334,35.895401,-80.562455,Gaither St
185,35.813959,-80.558405,Erwin St
185,35.994760,-80.454533,US Hwy 158
160,35.948522,-80.534696,US Hwy 158
160,35.975500,-80.626233,Wagner Rd
160,35.911770,-80.454609,Indian Hills Rd
526,35.892544,-80.565706,Sanford Ave
216,35.992195,-80.458467,US Hwy 158
160,36.038705,-80.598055,Essic Rd
246,35.898837,-80.557451,N Main St
160,35.994135,-80.433531,Willowbrook Pl
160,35.894007,-80.560036,E Depot St
160,36.003181,-80.464417,Ada Ln
710,36.004350,-80.440765,US Hwy 158
160,36.019001,-80.488499,McKnight Rd
185,35.900036,-80.558090,Park Ave
160,35.964076,-80.478412,Toggenburg Ln
305,35.891488,-80.565373,Locust St
185,35.900438,-80.579562,Hospital St Exd
216,35.976931,-80.496823,Fox Run Dr
185,35.787014,-80.507868,US Hwy 601
160,35.875326,-80.669899,Cane Mill Dr
246,35.875800,-80.447019,Branchview Ln/Ruby Rd
185,35.950241,-80.605563,Caravan Ln
185,35.856025,-80.549308,US Hwy 601
160,36.012807,-80.419744,US Hwy 158
185,35.899015,-80.557193,N Main St
160,35.910238,-80.553758,Campbell Rd
160,36.018015,-80.504438,State Hwy 801
305,35.943028,-80.607882,Parkway Ct
305,35.899066,-80.571158,Hospital St Exd
160,35.980248,-80.551376,Cornwallis Dr
160,35.967057,-80.619524,US Hwy 601
160,35.841962,-80.552865,Gladstone Rd
246,35.911043,-80.461571,Comanche Dr
160,35.862380,-80.540542,Deadmon Rd
160,35.901509,-80.529570,Windsong Rd
246,35.911985,-80.491086,Jamestowne Dr
160,36.005084,-80.427524,Riverbend Dr
160,35.961522,-80.506598,US Hwy 158
160,35.904956,-80.576227,Yadkinville Rd
185,36.004095,-80.429583,Riverbend Dr
160,35.976361,-80.493627,Fox Run Dr
160,35.986028,-80.555577,Cornwallis Dr
160,35.996201,-80.475667,Daye Ln
185,35.999283,-80.435106,Bing Crosby Blvd/Access To Pembrook Ridge Ct
160,35.916788,-80.578636,Sterling Dr
276,35.892077,-80.475389,Hickory Tree Rd
160,35.831192,-80.545052,Self Ln/Michaels Rd
185,35.824698,-80.533568,Hobson Dr
160,35.819881,-80.550485,Lonnies Way
276,35.910584,-80.540585,Sunset Dr
390,35.827304,-80.546133,Rick Way
216,35.897616,-80.556879,Midland St/Cherry St
160,35.982939,-80.428884,Whitehead Dr
160,35.922207,-80.638346,Wilkesboro St
185,35.886604,-80.551808,Charleston Ridge Dr
216,35.970971,-80.632378,Paso Ln
160,35.915393,-80.569330,Country Ln
185,35.932049,-80.452460,Brier Creek Rd
160,35.838443,-80.544393,Grassy Cove Trl
160,35.870798,-80.600986,Harper Rd/Ricketon Rd
305,35.970715,-80.498163,Pierce Ln
160,35.945485,-80.409140,Underpass Rd
160,35.881425,-80.451401,US Hwy 64
276,35.907445,-80.410291,State Hwy 801
185,36.020202,-80.447488,Haywood Dr
334,35.946683,-80.443005,McDaniel Rd
185,35.816751,-80.549655,State Hwy 801
362,35.924238,-80.591791,Yadkinville Rd
160,35.932910,-80.449531,Fork Bixby Rd
160,35.943342,-80.540326,Bowles Rd
160,35.954715,-80.612047,US Hwy 601
160,35.847609,-80.548965,Excalibur Ln/US Hwy 601
216,35.890623,-80.561154,E Maple Ave
160,35.852096,-80.550818,Mc Cullough Rd
216,35.910923,-80.540513,Sunset Dr
160,36.005193,-80.455536,Gordon Dr/S Claybon Dr
160,35.799649,-80.525822,Pine Ridge Rd
216,35.814520,-80.560972,Junction Rd
276,36.013738,-80.439142,Windsor Cir
160,35.820428,-80.565231,Clark Rd
216,35.966378,-80.436260,N High Field Rd
216,35.796459,-80.504402,Boxwood Church Rd
185,35.902232,-80.633412,I- 40
216,35.888211,-80.535882,US Hwy 64
185,35.833659,-80.562992,Gladstone Rd
185,35.859444,-80.547908,Dinks Way
160,35.996756,-80.426761,Juniper Cir
246,35.983950,-80.446216,Scottsdale Dr
160,36.001783,-80.443177,Mooring Ln/US Hwy 158
788,35.918678,-80.584485,Koontz Rd
160,35.844924,-80.486387,State Hwy 801/Lancelot Ln
185,35.984120,-80.429455,Whitehead Dr
160,35.910313,-80.522787,Milling Rd
185,35.862332,-80.551880,Lakewood Ave
246,35.812036,-80.554794,Watt St
276,35.948205,-80.455303,Jetry Ln
185,35.951408,-80.606721,US Hwy 601
185,35.899731,-80.529216,Windward Cir/Windsong Rd
390,35.827075,-80.546266,Wilson Trl
216,35.896535,-80.555430,Cherry St
334,35.894041,-80.560841,E Depot St
160,35.951727,-80.400355,Bailey Rd
276,35.897125,-80.557777,Pine St
160,35.925719,-80.475925,Station Ln
160,35.814440,-80.557701,Yadkin St
684,35.894080,-80.562184,W Depot St/Court Sq
390,35.915097,-80.582272,Yadkinville Rd
185,35.896592,-80.566194,Gwyn St
185,35.884914,-80.545240,E Lake Dr
185,35.943241,-80.609121,Parkway Ct
185,35.870507,-80.699595,Midway Dr
160,35.904522,-80.595925,Madison Rd
160,36.000115,-80.480921,Rainbow Rd
160,35.966827,-80.619386,US Hwy 601
185,35.869718,-80.704928,Midway Dr
246,35.828399,-80.545560,Michaels Rd
160,36.017356,-80.511962,State Hwy 801
160,35.910038,-80.613789,Shuler Rd
185,35.985168,-80.447644,Broadmoor Dr
160,35.910475,-80.487694,Cornatzer Rd
185,35.870309,-80.705913,I- 40
216,35.997320,-80.435163,Bayberry Pl
160,36.002065,-80.477925,Redland Rd
552,35.920797,-80.587405,Yadkinville Rd
160,36.039489,-80.640057,Chinquapin Rd
185,35.983607,-80.431889,Oakmont Dr
185,36.018701,-80.465345,Brook Hill Ct
160,35.991029,-80.439693,Talwood Dr
160,35.977416,-80.533111,Farmington Rd
246,35.948820,-80.610626,Caravan Ln
160,35.936183,-80.408631,State Hwy 801
305,35.946387,-80.549569,Woodward Rd/I- 40
185,36.004251,-80.464457,Ginny Ln
160,35.882433,-80.475967,Joe Rd
160,35.929348,-80.596494,Ashley Brook Ln/US Hwy 601
160,35.966541,-80.434514,Hagen Rd
246,35.839313,-80.543165,US Hwy 601
185,35.841859,-80.555666,Gladstone Rd
216,35.926215,-80.593282,US Hwy 601
216,36.014447,-80.437829,Rosewalk Ln
276,35.907476,-80.553193,Campbell Rd
390,35.862963,-80.548050,Deadmon Rd
185,35.988340,-80.470962,US Hwy 158
216,35.923359,-80.413902,S Hemingway Ct
216,35.898864,-80.567158,Wilkesboro St
160,35.869373,-80.529598,Turrentine Church Rd
160,35.997219,-80.430058,St George Pl
160,35.925223,-80.413656,S Hemingway Ct
276,36.004131,-80.616289,Highland Rd
160,35.875854,-80.520445,Faith Ln
185,35.997734,-80.476608,Harper Rd/Redland Rd
160,35.929346,-80.450634,James Rd
216,35.944741,-80.602024,Cheyenne Ln
160,35.882830,-80.475280,US Hwy 64
246,35.811971,-80.554806,Watt St
160,35.877601,-80.519461,Dalton Rd
160,35.881742,-80.700488,Ridge Rd
246,35.881732,-80.504146,US Hwy 64
160,35.896389,-80.648261,I- 40
160,35.976542,-80.417330,Westridge Rd
216,35.976696,-80.496004,Fox Run Dr
185,36.002179,-80.422850,Golfview Dr
185,35.920505,-80.629455,Wilkesboro St
160,36.030457,-80.605953,Bramblewood Ln
160,35.818906,-80.533410,Hobson Dr
216,35.920753,-80.629990,Wilkesboro St
216,35.824486,-80.565898,Creason Rd
185,35.833283,-80.496922,Cherry Hill Rd
160,35.996256,-80.476169,Redland Rd
216,35.894431,-80.563366,N Salisbury St
276,35.891277,-80.564730,W Maple Ave
185,35.899924,-80.557725,Park Ave/Park Dr
160,35.991817,-80.484717,I- 40
160,35.864816,-80.526171,Deadmon Rd
276,36.012935,-80.440831,Townpark Dr
334,35.949786,-80.543311,I- 40
160,35.916134,-80.622730,Hampton Ln/Wilkesboro St
160,35.886586,-80.552718,Cloister Dr
334,36.003289,-80.441833,US Hwy 158
185,35.863246,-80.537897,Deadmon Rd
185,35.975878,-80.459370,Baltimore Rd
390,35.891509,-80.563712,Salisbury Rd
160,35.940202,-80.452529,Fork Bixby Rd/Cornatzer Rd
185,35.982958,-80.419712,River Rd
160,35.838479,-80.561585,Gladstone Rd
160,35.974759,-80.433959,Kingsmill Dr
185,35.998471,-80.434313,Hamilton Ct
160,35.990727,-80.658522,Bear Creek Church Rd
185,35.900803,-80.560083,Park Ave
246,35.998935,-80.433131,Pembrooke Ridge Ct
185,35.887102,-80.543793,Polaris Dr
160,35.925524,-80.695932,County Line Rd
216,35.897218,-80.556357,Cherry St
334,35.904788,-80.578791,Valley Rd
160,35.944496,-80.412388,State Hwy 801
631,35.869796,-80.552447,Salisbury Rd
276,36.000632,-80.419901,Riverbend Dr
246,35.892169,-80.654685,I- 40
160,35.869534,-80.582675,Jericho Church Rd
246,35.933053,-80.494550,Dulin Rd
185,35.820425,-80.549499,Jerusalem Ave
160,35.943152,-80.401551,Twisted Hill Dr/Tulip Magnolia Dr
160,35.925233,-80.442468,Baileys Chapel Rd
160,36.011463,-80.444218,Yadkin Valley Rd
160,35.884300,-80.503883,Garwood Rd
216,35.895652,-80.558141,Neely St
185,35.890375,-80.551832,Lexington Rd
160,36.038268,-80.623134,US Hwy 601
185,35.974871,-80.436395,Kingsmill Dr
160,35.937815,-80.549824,S Angell Rd
276,35.896502,-80.564524,Wilkesboro St
160,35.927471,-80.447897,Baileys Chapel Rd
160,35.982420,-80.432143,Oakmont Ct
246,36.014304,-80.436680,Millstone Ln
216,35.812162,-80.555793,Duke St
160,35.892256,-80.495162,Cornatzer Rd
658,35.894685,-80.561814,N Main St
160,35.932762,-80.576060,Colonial Ln
216,35.900513,-80.559693,Park Ave
499,35.861492,-80.549395,US Hwy 601
160,35.899031,-80.496043,Cornatzer Rd
305,35.889207,-80.562106,S Main St
216,35.837853,-80.563581,Cable Ln
160,35.994538,-80.441976,Sycamore Ridge Dr
185,35.810261,-80.556141,Duke St
185,35.929070,-80.545697,US Hwy 158
160,35.979944,-80.431045,Oak Valley Blvd/Kingsmill Dr/Oakmont Dr
185,36.012131,-80.618718,Fostall Dr/US Hwy 601
160,35.944489,-80.449418,Barney Rd
305,35.989796,-80.444098,Hiddenbrooke Dr
579,35.892213,-80.563581,S Salisbury St
216,35.910402,-80.616469,I- 40
160,35.982935,-80.485599,US Hwy 158
160,35.892102,-80.477023,Hickory Tree Rd
276,35.898672,-80.562598,W Church St
160,35.820601,-80.565232,Clark Rd
185,36.007217,-80.461525,Gordon Dr
1407,36.005393,-80.439646,State Hwy 801
362,35.900568,-80.555323,Hemlock St/N Main St
305,35.860459,-80.549447,Mc Cullough Rd
160,35.809183,-80.547347,Pine Ridge Rd
305,35.981880,-80.441901,Arnold Palmer Dr
246,36.000399,-80.420106,Riverbend Dr
362,35.921542,-80.395544,E Rollingmeadow Rd
160,35.953244,-80.533314,Buck Miller Rd
185,35.981988,-80.487498,US Hwy 158
160,35.885875,-80.597899,County Home Rd
160,35.885576,-80.488563,Cedar Ridge Rd/Shadybrook Rd
160,35.904401,-80.555668,Cemetery St
390,35.876375,-80.556943,Salisbury Rd
246,35.912243,-80.594841,Madison Rd
362,35.898317,-80.558206,N Main St
160,35.945137,-80.650065,Countess Ln/Sheffield Rd
160,35.903412,-80.410441,State Hwy 801
160,35.949232,-80.468019,Browder Ln
305,35.863259,-80.543553,Redwood Dr
160,35.939214,-80.543022,US Hwy 158
160,35.915611,-80.541508,Elm St
216,35.999512,-80.445798,US Hwy 158
216,35.828241,-80.565722,Stonewood Rd
160,35.929750,-80.449299,Fork Bixby Rd/James Rd
362,35.903377,-80.541781,Milling Rd/Northridge Ct
216,35.819374,-80.551764,Neely Rd
160,35.875087,-80.447380,Ruby Rd
160,35.899707,-80.579557,Hospital St Exd
160,35.907160,-80.554221,Hillcrest St
216,36.003005,-80.660963,Duard Reavis Rd
276,35.996776,-80.439178,Shoals Way
185,35.985034,-80.444162,Oak Valley Blvd
160,36.044095,-80.628145,Childrens Home Rd
185,35.886054,-80.575656,Holly Ln
684,35.894060,-80.561492,Court Sq/E Depot St
185,35.899968,-80.537525,Funder Rd
160,35.888024,-80.551780,Charleston Ridge Dr
216,35.999232,-80.434698,Pembrooke Ridge Ct
276,35.899286,-80.562917,W Church St
160,35.871470,-80.612034,Davie Academy Rd
160,35.904649,-80.527860,Whitney Rd
305,35.970962,-80.497587,Kae Ln
216,35.826442,-80.563953,Gladstone Rd
160,35.990878,-80.439504,Talwood Dr
185,35.989852,-80.431970,Lybrook Rd
185,36.013211,-80.439165,Townpark Dr
472,35.862111,-80.549407,US Hwy 601
216,35.830353,-80.531849,Coventry Ln
160,35.800714,-80.532722,Gibson Way/Pine Ridge Rd
160,35.930676,-80.409082,State Hwy 801
276,36.011729,-80.419668,River Dr
160,35.885266,-80.571028,Birchwood Ln
185,35.975904,-80.439065,Lonetree Dr
216,35.859926,-80.549369,US Hwy 601
185,35.984437,-80.450478,Scottsdale Dr
185,35.981732,-80.487999,US Hwy 158
185,36.010151,-80.457279,Creekwood Dr
276,35.825806,-80.532549,Hobson Dr
160,35.869858,-80.583486,Brown Dr
334,35.896396,-80.560967,N Main St
216,35.988327,-80.443942,Hiddenbrooke Dr
160,35.814130,-80.558504,Erwin St
185,35.962474,-80.429459,Graystone Ln/Beauchamp Rd
160,35.859396,-80.524683,Hoose Ln
552,36.006929,-80.434895,Commerce Pl
216,35.974395,-80.607908,Cabana Ln
160,35.974994,-80.439233,Lonetree Dr
185,35.900680,-80.569220,Wilkesboro St
246,35.903008,-80.531662,Marconi St
160,35.926435,-80.544826,Sain Rd
160,35.961673,-80.506388,US Hwy 158
216,36.013051,-80.442171,Glen Arbor Dr
160,35.836972,-80.562013,Gladstone Rd
185,35.900963,-80.569584,Wilkesboro St
185,35.869887,-80.581903,Jericho Church Rd
160,35.879032,-80.519037,Dalton Rd
185,35.932063,-80.492191,Milling Rd
160,35.819592,-80.551619,Lonnies Way/Neely Rd
160,36.017000,-80.534024,Johnson Ln/Cemetery Rd
362,35.890874,-80.553489,Lexington Rd
185,35.976605,-80.436324,Lonetree Cir
160,35.894156,-80.473891,No Creek Rd
246,35.985132,-80.437072,Oak Valley Blvd/Aviara Dr/Keswick Dr
160,35.972718,-80.425641,State Hwy 801
185,35.976889,-80.491947,Livingston Rd/US Hwy 158
185,35.901400,-80.688403,Oakridge Ln
185,35.937789,-80.601134,US Hwy 601
185,35.884649,-80.539719,Deer Run Dr
216,36.002179,-80.462520,Buchin Ln
246,35.886771,-80.553953,Cloister Dr
216,35.846085,-80.548518,US Hwy 601
216,35.932142,-80.451879,Brier Creek Rd
160,35.883205,-80.539400,Deer Run Dr
246,35.987976,-80.472092,US Hwy 158
185,35.852549,-80.549257,US Hwy 601
185,35.884638,-80.539125,Doe Trl
160,35.989681,-80.438754,Talwood Dr
305,36.006668,-80.430011,Ivy Cir
160,35.980446,-80.490803,Rainbow Rd
185,35.919896,-80.663452,Calahaln Rd
160,35.857345,-80.548174,Hinkle Dr
160,35.828526,-80.531033,Correll Rd/US Hwy 601
160,35.886039,-80.444390,Fork Bixby Rd
160,35.943968,-80.673144,Calahaln Rd
216,35.942794,-80.458532,Princeton Ct
185,36.002026,-80.422910,Golfview Dr
276,35.892095,-80.476340,Hickory Tree Rd
160,35.881198,-80.674258,Felker Rd
334,36.003494,-80.618155,Landis Ct
160,35.949121,-80.443124,Sonora Dr/Granada Dr
185,35.905455,-80.540736,Northridge Ct
160,35.995012,-80.475781,Redland Rd
216,35.979852,-80.442790,Old Course Dr
160,36.011665,-80.617934,Macy Langston Ln
185,35.894178,-80.651626,I- 40
216,35.905276,-80.534305,Milling Rd
246,35.899504,-80.563033,W Church St
160,35.978044,-80.416302,Eastridge Ct
246,35.862197,-80.544230,Deadmon Rd
160,35.826016,-80.545660,Michaels Rd
160,36.005107,-80.455569,Gordon Dr
160,35.978851,-80.632643,Tittle Trl
216,35.976373,-80.439393,Lonetree Ct
160,35.970806,-80.496403,US Hwy 158
216,35.811819,-80.554834,Watt St
216,35.871117,-80.527905,Turrentine Church Rd
185,35.989013,-80.449996,Broadmoor Dr
160,36.019018,-80.550582,Wyo Rd
246,35.908197,-80.552749,Campbell Rd
160,36.015550,-80.460442,Wills Rd
185,35.954680,-80.451464,Brushy Mountain Trl/Montclair Dr
185,35.904925,-80.528158,Whitney Rd
160,36.011608,-80.437459,Brookstone Dr/Lakepoint Dr
160,36.000086,-80.423396,Riverbend Dr
160,35.958815,-80.537923,Dutchman Trl
185,35.953929,-80.458816,Baltimore Rd/Brushy Mountain Trl
160,35.989648,-80.446601,Oak Valley Blvd/Woodlands Ct
160,36.014669,-80.477224,State Hwy 801
185,35.822425,-80.550304,Orchard St/Link Rd
334,35.997623,-80.475253,I- 40
160,35.806910,-80.555406,Center St
185,35.920569,-80.629591,Wilkesboro St
362,35.921667,-80.392475,Irish Pl
246,35.833452,-80.531027,State Hwy 801
160,36.000166,-80.426887,Riverbend Dr
246,36.005977,-80.433441,US Hwy 158
246,35.885316,-80.572618,Birchwood Ln
160,35.852589,-80.506696,Stonegate Ln
160,35.982534,-80.449531,Gun Club Rd
160,36.035981,-80.604752,State Hwy 801
216,35.999631,-80.433472,Pembrooke Ridge Ct
160,35.841986,-80.552330,Gladstone Rd
362,35.881487,-80.682627,I- 40
246,35.801038,-80.523125,Pine Ridge Rd/Miller Rd
362,35.921565,-80.396260,E Rollingmeadow Rd
160,35.972618,-80.431555,Brookmead Ct
185,35.904696,-80.556082,Cemetery St
185,35.784836,-80.508158,US Hwy 601
246,35.886020,-80.561268,Harding St
160,35.995656,-80.431680,Willow Brook Ln
216,35.900322,-80.554502,Hemlock St
160,35.869461,-80.529539,Turrentine Church Rd
246,35.998991,-80.433026,Pembrooke Ridge Ct
185,35.887916,-80.529970,US Hwy 64
246,35.879711,-80.559830,Salisbury Rd
246,35.900992,-80.528174,Blue Bonnet Ct
246,35.829601,-80.539714,Rocky Knoll Ln
305,35.946594,-80.549685,Woodward Rd/I- 40
185,35.817460,-80.549251,State Hwy 801
658,35.894379,-80.562173,Court Sq
160,35.940050,-80.452461,Fork Bixby Rd
160,35.902188,-80.549376,Spring St/Oak St
160,36.013639,-80.444120,Yadkin Valley Rd
216,35.908776,-80.578507,Yadkinville Rd
216,35.987410,-80.439003,Hidden Creek Dr
160,35.881679,-80.700362,Ridge Rd
160,35.874523,-80.439583,US Hwy 64
216,35.975256,-80.607961,Cabana Ln
160,35.899745,-80.451533,Sandy Ln
216,35.863086,-80.538392,Goldman Ln/Deadmon Rd
160,35.990574,-80.463802,Armsworthy Rd/US Hwy 158
216,35.982736,-80.450894,Middleton Ln
160,35.922993,-80.533543,Old Hanford Ave
216,35.976734,-80.431503,Kingsmill Dr
185,35.900243,-80.579561,Hospital St Exd
276,36.004787,-80.449366,I- 40
185,35.899867,-80.557667,Park Ave
185,35.938574,-80.499942,Hepler Rd
185,35.833005,-80.563295,Gladstone Rd
216,35.985538,-80.448998,Foxmoor Ct
185,36.005111,-80.456920,Gordon Dr/Westview Ct
160,35.979063,-80.434038,Isleworth Dr
160,36.018557,-80.489390,State Hwy 801
160,36.035834,-80.605376,State Hwy 801
160,35.932603,-80.598748,US Hwy 601
160,35.886611,-80.552882,Cloister Dr
160,35.906129,-80.524129,Creekside Dr/Meta Breeze Ln
185,35.813469,-80.557458,Yadkin St
160,35.976734,-80.417476,Westridge Rd
185,36.006249,-80.430883,Ivy Cir
160,35.917789,-80.597468,Evans Rd
160,35.931685,-80.598466,US Hwy 601
276,35.909371,-80.578775,Yadkinville Rd
216,35.881414,-80.448585,US Hwy 64
185,35.973802,-80.431625,Brookmead Ct/Meadows Edge Dr
216,35.981160,-80.442984,N Saint Andrews Dr
160,35.999789,-80.423728,Mimosa Pl
445,35.976327,-80.503967,Boger Rd
160,35.972534,-80.425551,State Hwy 801
216,35.837917,-80.564394,Cable Ln
445,35.874808,-80.555586,Salisbury Rd
160,35.869233,-80.588046,Jericho Church Rd
684,35.920179,-80.586581,Yadkinville Rd
216,35.824616,-80.565842,Creason Rd
185,36.010941,-80.454843,Janlin Ln
305,36.006191,-80.444472,I- 40
160,35.902825,-80.688089,Davie Academy Rd
276,35.902601,-80.553354,N Main St
160,35.823137,-80.525428,US Hwy 601
334,35.989457,-80.496474,Dare Ln
185,35.893280,-80.552057,Cartner St
160,35.876486,-80.519485,Dalton Rd
185,35.904008,-80.446698,Williams Rd
216,35.983845,-80.445307,Scottsdale Dr
216,35.834388,-80.529284,State Hwy 801
160,35.941733,-80.401648,Peoples Creek Rd
160,35.925386,-80.527601,Sain Rd
216,35.896345,-80.489343,Lakeview Rd
160,35.911991,-80.448378,Fork Bixby Rd
160,35.952117,-80.608714,US Hwy 601
160,35.984239,-80.451935,Winchester Rd
185,35.824105,-80.540529,Edgewood Cir
362,35.894068,-80.494132,Lakeview Rd
216,35.971137,-80.496560,Jessica Trl
160,35.959460,-80.537472,Patricia Way
216,35.903100,-80.538709,Milling Rd
276,35.981638,-80.483603,Kinder Ln
160,35.881153,-80.443914,Fork Bixby Rd
160,35.924865,-80.409782,Alexandria Ct
160,36.010851,-80.454319,Janlin Ln
185,35.942045,-80.409686,Underpass Rd
185,35.980238,-80.441960,N Saint Andrews Dr
185,35.816274,-80.561125,Westview Ave
762,35.920281,-80.586715,Yadkinville Rd
160,35.876535,-80.573078,Virginia Ct/North Carolina Cir
160,35.938263,-80.460220,Cornatzer Rd
160,36.002999,-80.465387,Buchin Ln/Riddle Cir
216,35.919682,-80.597558,Blaise Church Rd
216,35.882131,-80.702763,Wilkesboro St
160,35.883198,-80.538975,Deer Run Dr
216,35.894877,-80.496688,Cornatzer Rd
216,35.949450,-80.604010,US Hwy 601
185,35.992053,-80.458793,US Hwy 158
216,35.886221,-80.545316,Sunny Dell Ln
185,35.817419,-80.549276,State Hwy 801
160,35.853459,-80.535745,N Benson Ln/Walt Wilson Rd/S Benson
160,35.827300,-80.532958,Pearson Dr
160,35.959380,-80.413125,Potts Rd
160,35.941851,-80.617070,Ijames Church Rd
160,35.888105,-80.533726,Triple J Ln/US Hwy 64
246,35.908258,-80.553688,Holman St
185,35.902568,-80.527425,Mountview Dr
160,35.916071,-80.390326,Peoples Creek Rd
305,35.920907,-80.397284,Falling Creek Dr
160,35.885416,-80.538326,Buck Hill Rd/Doe Trl
362,35.898353,-80.558153,N Main St
185,35.974272,-80.607901,Cabana Ln
216,35.959452,-80.538240,Patricia Way
185,36.008950,-80.461340,Brentwood Dr
160,36.003858,-80.430410,Riverbend Dr
246,35.890071,-80.555822,Mill St
185,35.973589,-80.412365,Country Cir
216,36.018584,-80.488256,State Hwy 801
160,35.828617,-80.531131,US Hwy 601
160,35.908338,-80.527509,Milling Rd
334,35.904043,-80.567944,Wandering Ln
246,35.984794,-80.443582,Oak Valley Blvd
160,36.000112,-80.426906,Riverbend Dr
160,35.987796,-80.440083,Hidden Creek Dr
216,35.987417,-80.438664,Hidden Creek Dr
160,35.999390,-80.631875,McBride Ln
305,35.901455,-80.568025,Garner St
216,35.908502,-80.546597,Crowe St
160,35.944036,-80.602645,Chaucer Ln
390,35.894738,-80.557551,Honeysuckle St
216,35.890375,-80.559483,E Maple Ave
276,35.903703,-80.554690,Cemetery St
160,35.866596,-80.603447,Junction Rd
216,35.829131,-80.567997,Stonewood Rd
305,35.939109,-80.564877,I- 40/Main Church Rd
160,35.916036,-80.571868,Quail Ridge Ln/Country Ln
185,35.826596,-80.570048,Nolley Rd
185,35.976617,-80.436089,Lonetree Cir
216,35.985532,-80.448933,Foxmoor Ct
246,35.899814,-80.568241,Wilkesboro St
160,35.897252,-80.410968,State Hwy 801
160,35.916322,-80.577137,Country Ln
160,35.962650,-80.505033,US Hwy 158
160,35.899304,-80.565288,Church St Exd/Garner St
160,35.977763,-80.459318,Baltimore Rd
246,35.896774,-80.571757,Grey St
160,36.002589,-80.478061,Redland Rd
216,36.006881,-80.470653,Gordon Dr
160,36.000146,-80.423416,Riverbend Dr
185,35.908443,-80.615287,Dallas Ln
276,35.885055,-80.489102,Cedar Ridge Rd
185,35.904923,-80.548262,Milling Rd
160,35.996036,-80.425854,Juniper Cir
216,36.001997,-80.423595,Golfview Dr
160,35.999316,-80.472585,Fairway Rd
160,35.924032,-80.407281,Covington Dr
276,35.895471,-80.560334,E Church St
160,35.882405,-80.563901,Howard St
160,35.938285,-80.549370,S Angell Rd
334,35.814396,-80.560210,Main St/Marginal St/Junction Rd
362,35.875534,-80.556209,Salisbury Rd
160,35.882962,-80.477016,US Hwy 64
160,36.013537,-80.435742,Bridgewater Dr
216,35.983840,-80.553857,Cornwallis Dr
160,35.991020,-80.461698,US Hwy 158
472,35.890943,-80.562010,S Main St
185,35.906729,-80.580972,Willhaven Dr
216,35.811674,-80.555883,Duke St
185,36.010205,-80.455677,S Claybon Dr
160,35.941678,-80.604583,Ijames Church Rd
246,36.012848,-80.441844,Glen Arbor Dr
390,35.894485,-80.556182,Foster St
160,35.857653,-80.445396,State Hwy 801
216,35.976424,-80.437789,Lonetree Dr/Lonetree Cir/Kingsmill Dr
246,35.899756,-80.567106,Edison St
762,35.891985,-80.562552,W Lexington Rd
185,35.984988,-80.447509,Broadmoor Dr
276,36.000142,-80.466740,I- 40
216,35.902550,-80.633454,I- 40
216,35.913320,-80.610285,I- 40
160,36.005821,-80.457109,Westview Ct
160,35.976577,-80.495516,Fox Run Dr
160,35.904257,-80.597394,Wilkesboro St
160,35.959460,-80.537539,Patricia Way
160,35.984397,-80.437688,Aviara Dr
216,35.996366,-80.453068,Hillsdale West Dr/US Hwy 158
246,35.927034,-80.476204,Cornatzer Rd
499,36.005440,-80.438203,US Hwy 158
276,35.890746,-80.562027,E Maple Ave/W Maple Ave/S Main St
185,35.848536,-80.545009,Twin Cedars Dr
185,35.980880,-80.442622,N Saint Andrews Dr
160,35.915657,-80.570437,Country Ln
185,35.972552,-80.495051,US Hwy 158
185,35.968888,-80.513839,I- 40
185,35.998983,-80.435046,Hamilton Ct
362,35.831740,-80.535410,State Hwy 801
160,35.993913,-80.433391,Willowbrook Pl
276,35.946865,-80.443191,McDaniel Rd
216,35.980814,-80.489200,Allen Farm Ln/US Hwy 158
185,36.005915,-80.435695,US Hwy 158
246,35.799731,-80.524642,Pine Ridge Rd
160,35.901583,-80.667193,Cookson Ln
185,35.888284,-80.577212,Magnolia Ave
185,35.912228,-80.557971,Campbell Rd
246,35.896866,-80.561676,N Clement St/W Church St
276,35.898093,-80.566286,Wilkesboro St
160,35.906009,-80.695708,County Line Rd
185,35.902032,-80.527396,Windward Cir
160,35.853288,-80.461814,State Hwy 801
305,35.882669,-80.565343,Duke St
216,35.886268,-80.577327,Magnolia Ave
160,36.021320,-80.618208,US Hwy 601
185,35.902706,-80.566298,Wandering Ln/W Church St
160,36.011530,-80.444216,Old Towne Dr/Yadkin Valley Rd
160,35.954672,-80.458812,Baltimore Rd/Montclair Dr
1278,36.005061,-80.439244,State Hwy 801/US Hwy 158
160,35.936136,-80.466227,Cornatzer Rd/Buddy Trl
246,36.012789,-80.440930,Greenway St
472,35.901949,-80.572764,Wilkesboro St
160,35.819819,-80.545475,Honeysuckle Ln
185,36.016236,-80.532353,Farmington Rd
160,35.938245,-80.603061,Allen Rd
160,35.915648,-80.541185,Elm St
418,36.015966,-80.419486,I- 40/Twins Way
334,35.897336,-80.568519,Raymond St
362,35.917044,-80.583486,Yadkinville Rd
276,35.894988,-80.558222,Neely St
160,35.904010,-80.410178,State Hwy 801
334,35.900377,-80.531826,Mountview Dr
185,36.009631,-80.436246,Pinewood Ln
160,36.003837,-80.430484,Riverbend Dr
185,35.886362,-80.566790,S Davie Dr
160,35.999454,-80.436315,State Hwy 801/Bing Crosby Blvd
160,35.909754,-80.488770,Cornatzer Rd
185,36.004992,-80.457272,Gordon Dr
246,35.892904,-80.552075,Cartner St
160,35.965904,-80.432310,High Meadows Rd
305,36.000552,-80.444346,US Hwy 158
276,35.862212,-80.542954,Deadmon Rd
160,35.938284,-80.563046,Main Church Rd
160,35.840210,-80.544083,US Hwy 601
160,35.985413,-80.512864,Gilbert Rd
472,35.903086,-80.571817,Garner St
276,36.005562,-80.437853,Medical Dr/US Hwy 158
216,35.901440,-80.527142,Windward Cir
160,35.832848,-80.499510,Cherry Hill Rd
216,35.885192,-80.562636,Boger St
216,35.981345,-80.485117,Howardtown Cir
160,35.957540,-80.413547,Destiny Trl/Potts Rd
216,35.923958,-80.593118,Blaise Church Rd
160,35.916358,-80.572713,Country Ln
160,36.011813,-80.442291,Old Towne Dr
160,35.957170,-80.512659,US Hwy 158
185,36.012253,-80.619319,Fostall Dr
160,36.002559,-80.461471,Buchin Ln
160,35.842034,-80.564242,Down Yonder Trl
216,35.988300,-80.438384,Talwood Dr
160,36.034054,-80.628976,Chinquapin Rd
216,35.975317,-80.607965,Cabana Ln
185,35.985945,-80.451827,Gun Club Rd
185,35.839985,-80.549338,Liberty Rd
160,36.009956,-80.445420,State Hwy 801/Hall Walker Ln
185,35.817138,-80.549438,Juniors Way/State Hwy 801/Neely Rd
305,35.863199,-80.543553,Redwood Dr
160,36.015348,-80.460450,Wills Rd
276,36.014196,-80.436109,Townpark Dr
185,35.872793,-80.569125,North Carolina Cir
160,35.883036,-80.477984,US Hwy 64
185,35.983722,-80.429263,Whitehead Dr
160,36.013243,-80.434742,Parkview Ln
160,35.803674,-80.494806,Singleton Rd/Cherry Hill Rd
160,35.941680,-80.605472,Ijames Church Rd
216,36.018333,-80.466800,Norma Ln
160,35.825089,-80.541980,State Hwy 801
526,35.896884,-80.564945,Wilkesboro St
246,35.975701,-80.492752,US Hwy 158
185,35.983707,-80.444834,Scottsdale Dr
160,35.999767,-80.423604,Mimosa Pl
160,35.894148,-80.680564,Davie Academy Rd
160,36.012188,-80.459601,Woodburn Pl
185,35.973881,-80.426212,State Hwy 801
276,35.812407,-80.554726,Watt St
160,35.958140,-80.614139,Danner Rd/US Hwy 601
276,35.892738,-80.555344,Bailey St
185,35.922087,-80.593615,Blaise Church Rd
216,35.998219,-80.468391,Longwood Dr
160,35.905788,-80.524448,Creekside Dr
276,35.900563,-80.567681,Softley St/Sofley Ave
160,35.964058,-80.478639,Toggenburg Ln
246,35.895660,-80.557197,Ken Dwiggins Dr
334,35.860524,-80.549380,Mc Cullough Rd/US Hwy 601
160,35.810348,-80.555102,Watt St
418,35.894612,-80.556181,Foster St
216,35.988001,-80.450312,Broadmoor Dr
160,35.940835,-80.424285,Orrell Trl
160,35.976968,-80.438037,Kingsmill Dr
160,35.815343,-80.557370,Marginal St
276,35.898000,-80.557332,Cherry St
160,35.903716,-80.550821,Oak St
216,35.996403,-80.478554,Harper Rd
160,35.853127,-80.539450,Friar Ln
160,35.896669,-80.411487,State Hwy 801
160,35.987978,-80.485675,Shallowbrook Dr
276,36.014207,-80.435638,Townpark Dr/Bridgewater Dr
160,36.012988,-80.434728,Parkview Ln
185,36.009606,-80.462353,Brentwood Dr
216,35.981990,-80.485491,Howardtown Cir
160,35.944845,-80.455931,Baltimore Rd
185,35.827538,-80.529942,US Hwy 601
334,35.971221,-80.498302,Kae Ln
160,35.883142,-80.539254,Deer Run Dr
185,35.901213,-80.569992,Wilkesboro St
160,36.003834,-80.429257,Fescue Dr
418,35.909733,-80.546137,Crowe St
160,35.999346,-80.630922,McBride Ln
276,35.946659,-80.548971,I- 40
246,35.976372,-80.493076,Fox Run Dr
305,35.882541,-80.562221,Salisbury Rd
160,35.817821,-80.533152,Hobson Dr
185,35.884831,-80.544609,E Lake Dr
160,35.908019,-80.491563,George Jones Rd
185,35.991733,-80.485272,I- 40
185,35.930607,-80.392194,March Ferry Rd
216,35.899174,-80.556962,Park Ave/N Main St
160,35.877241,-80.573679,Jericho Church Rd
160,35.992354,-80.471462,Bethlehem Dr
160,35.915187,-80.563366,Summit Dr/Campbell Rd
605,35.902104,-80.573876,Wilkesboro St
160,35.862011,-80.455258,Mason Dr
160,35.799433,-80.520758,Green Grass Rd
160,35.907129,-80.554175,Hillcrest St
305,35.994660,-80.481732,Harper Rd
160,35.937248,-80.550136,S Angell Rd
160,35.901123,-80.495348,Cornatzer Rd
160,35.941625,-80.400774,Peoples Creek Rd
185,35.841838,-80.556111,Gladstone Rd
185,35.842431,-80.545197,Honey Hill Ln
160,35.912377,-80.454492,Indian Hills Rd
160,35.997981,-80.530759,Atlantic Ln/Farmington Rd
390,35.913523,-80.581280,Yadkinville Rd
160,35.881578,-80.703084,Wilkesboro St
160,35.954666,-80.452689,Montclair Dr
185,35.926212,-80.477497,Cornatzer Rd
185,35.818176,-80.564225,Clark Rd
552,36.006175,-80.440596,State Hwy 801
160,35.945737,-80.408921,Underpass Rd
160,35.974210,-80.466728,Pardue Loop
185,35.995586,-80.450406,Bingham & Parks Rd
160,35.941811,-80.616094,Ijames Church Rd
160,35.887507,-80.546047,Crestview Dr
362,35.914650,-80.581991,Yadkinville Rd
160,35.990250,-80.446542,Oak Valley Blvd
160,35.928767,-80.505173,Milling Rd
216,35.945241,-80.601949,Cheyenne Ln
185,36.027638,-80.529994,Farmington Rd
216,35.980715,-80.442446,N Saint Andrews Dr
185,35.813100,-80.557912,Erwin St
185,35.988355,-80.470915,Leona Way/US Hwy 158
185,35.996638,-80.433207,Hollybrook Dr
160,35.905538,-80.547703,Carolina St
362,35.869699,-80.510873,Turrentine Church Rd
185,35.899009,-80.567320,Wilkesboro St
216,36.015881,-80.532404,State Hwy 801/Farmington Rd
160,35.951775,-80.399225,Bailey Rd
185,35.892601,-80.495359,Cornatzer Rd
185,35.985369,-80.447794,Broadmoor Dr
160,35.944536,-80.455766,Baltimore Rd
445,35.891770,-80.565339,Locust St
185,36.010289,-80.475121,Autumn Ln
160,35.890836,-80.568574,W Maple Ave
185,35.984473,-80.449048,Scottsdale Dr
160,35.838107,-80.502417,Cherry Hill Rd
160,35.884413,-80.601012,Friendship Ct
216,35.884161,-80.562003,S Main St
185,35.998558,-80.434460,Hamilton Ct
160,35.988920,-80.446300,Eagle Watch Ct
579,35.898013,-80.558646,N Main St
160,35.995626,-80.453740,US Hwy 158
160,35.902406,-80.550149,Bingham St/Spring St
185,35.988966,-80.450128,Broadmoor Dr
943,36.005988,-80.440369,State Hwy 801
160,35.996047,-80.434073,Holly Brook Dr
160,35.983968,-80.451940,Winchester Rd
185,35.893956,-80.558819,E Depot St
185,35.970847,-80.496742,Jessica Trl
185,35.947284,-80.559627,Clairmont Ln
160,35.940576,-80.623071,Ijames Church Rd
334,35.902889,-80.566958,W Church St
684,35.894354,-80.561577,Court Sq
390,35.860941,-80.549381,US Hwy 601
160,35.975097,-80.431370,Kingsmill Dr
1278,35.872695,-80.554115,Salisbury Rd
160,35.932464,-80.449464,Fork Bixby Rd
160,35.924645,-80.479471,Cornatzer Rd
362,36.014817,-80.435632,Bridgewater Dr
160,36.021046,-80.466565,Norma Ln
362,36.003573,-80.441576,US Hwy 158
216,35.959415,-80.538690,Patricia Way
160,35.915500,-80.564027,Campbell Rd
160,35.933122,-80.617484,Hidden Valley Ln
216,35.999456,-80.445918,US Hwy 158
605,35.894252,-80.562178,Court Sq
216,35.886775,-80.577294,Magnolia Ave
216,36.013333,-80.438522,Waverly St
216,36.013406,-80.442224,Fred Bahnson Dr/N Forke Dr
334,35.828644,-80.545517,Michaels Rd
160,35.866674,-80.529826,Turrentine Church Rd
658,35.893812,-80.562194,Court Sq
216,35.906385,-80.622561,Boone Farm Rd
160,35.984472,-80.482473,US Hwy 158
216,36.004596,-80.420161,N Bermuda Run Dr
160,35.967571,-80.480271,Howardtown Cir
216,35.936816,-80.403994,Shutt Rd
305,35.901187,-80.530865,Mountview Dr
160,35.960360,-80.458099,Long Leaf Pine Dr
160,35.912000,-80.545089,N Main St
216,35.862203,-80.543547,Deadmon Rd/Redwood Dr
276,35.881485,-80.449937,US Hwy 64
160,35.992415,-80.473320,Bethlehem Dr
160,35.901472,-80.551899,Hunt St
160,36.003083,-80.425021,Fairway Dr
160,36.014579,-80.475203,State Hwy 801
160,35.975306,-80.439255,Lonetree Dr
334,35.896102,-80.570623,Tot St
445,35.864091,-80.549690,US Hwy 601
160,35.866594,-80.707068,Midway Dr
216,35.979272,-80.428795,State Hwy 801
246,35.827220,-80.547498,Rick Way/Wilson Trl
216,35.826639,-80.528969,US Hwy 601
160,35.842013,-80.551792,Gladstone Rd
160,35.977736,-80.613826,Stanley Trl/Angell Rd
276,36.004278,-80.421478,Bermuda Run Dr
160,35.924761,-80.696857,Doby Rd
185,35.886574,-80.552634,Cloister Dr
160,35.859439,-80.548264,Dinks Way
160,35.903042,-80.525825,Whitney Rd
185,35.988107,-80.471686,US Hwy 158
305,35.885183,-80.488938,Cedar Ridge Rd
160,35.982523,-80.486417,US Hwy 158
160,35.957681,-80.413494,Potts Rd
160,35.995541,-80.430689,Willow Brook Ln/Bermuda Village Dr
185,35.886594,-80.534746,Triple J Ln
418,35.897685,-80.568912,Raymond St
246,35.903074,-80.543411,Industrial Blvd
160,36.009332,-80.437231,Pinewood Ln
216,35.814951,-80.552843,Marginal St
246,35.902348,-80.576460,Wilkesboro St
160,35.987956,-80.433053,State Hwy 801
160,35.902306,-80.532817,Marconi St
160,35.912067,-80.557605,Campbell Rd
185,35.827976,-80.542716,Stacee Trl
160,35.996200,-80.476148,Daye Ln/Redland Rd
160,35.975335,-80.609553,Latham Farm Rd
185,35.989756,-80.457042,Largo Ln
160,35.980996,-80.483187,Manchester Ln
362,35.930631,-80.577003,Tennyson Ln
160,35.991969,-80.468633,Longwood Dr
216,35.998526,-80.433516,Pembrooke Ridge Ct
246,36.006515,-80.528883,Kennen Krest Rd
246,35.947787,-80.445466,Snoopy Trl/McDaniel Rd
160,35.902088,-80.689484,Oakridge Ln
160,36.037019,-80.608871,Four Corners Rd
185,35.945807,-80.415699,Cornatzer Rd
185,36.002920,-80.429279,Fescue Dr
160,35.824409,-80.563922,Gladstone Rd/Creason Rd
246,35.838569,-80.542415,US Hwy 601
216,35.945659,-80.601804,US Hwy 601
160,36.037197,-80.594206,Ryans Way
390,36.003558,-80.439562,Peachtree Ln
160,35.828028,-80.530473,US Hwy 601
160,35.875369,-80.669898,Cane Mill Dr
160,35.888389,-80.538939,US Hwy 64/Deer Run Dr
445,35.902760,-80.570186,Garner St
160,35.885699,-80.551834,Charleston Ridge Dr
185,35.996674,-80.433560,Hollybrook Dr
160,35.903805,-80.557460,Hallander Dr
445,36.010309,-80.442072,Fred Bahnson Dr
276,35.901227,-80.488415,Chestnut Trl
216,35.986529,-80.446073,Oak Valley Blvd
216,35.883438,-80.509585,US Hwy 64
160,35.957321,-80.458743,Baltimore Rd/Megans Way
160,35.916006,-80.571776,Fernwood Ln/Country Ln
160,35.918994,-80.629895,Powell Rd
390,35.876269,-80.556853,Salisbury Rd
160,35.884787,-80.544277,E Lake Dr/Lake Dr
216,35.817979,-80.564077,Clark Rd
418,35.900240,-80.555668,N Main St
185,35.900552,-80.529135,Windsong Rd
160,35.983378,-80.451938,Winchester Rd
160,35.902351,-80.549954,Spring St
185,35.859866,-80.549368,US Hwy 601
216,35.780573,-80.508658,US Hwy 601/Lady Bug Ln
185,35.916216,-80.577990,Country Ln
185,36.002343,-80.455668,Gray Sheeks Rd
684,35.893936,-80.562189,Court Sq
305,35.980728,-80.431083,Oakmont Dr
246,35.922072,-80.391704,Irish Pl
216,35.928033,-80.594521,Boyce Dr
185,35.884986,-80.545777,E Lake Dr/Fairmont Dr
160,35.994313,-80.436791,Orchard Park Dr
160,35.858763,-80.524333,Will Boone Rd
216,35.893583,-80.496249,Cornatzer Rd
160,35.983416,-80.443881,Arnold Palmer Dr/Seay Dr/Scottsdale Dr
185,35.931360,-80.545807,US Hwy 158
185,35.901749,-80.688959,Oakridge Ln
216,35.920686,-80.629844,Wilkesboro St
185,35.787863,-80.507755,US Hwy 601
160,35.897435,-80.410802,State Hwy 801
160,35.904469,-80.547381,Mill Run Dr
216,35.876657,-80.692183,I- 40/Ridge Rd
185,35.958812,-80.413246,Potts Rd
216,35.981726,-80.431059,Monarch Ct
185,35.878383,-80.570600,New Hampshire Ct
334,35.902998,-80.553041,N Main St
160,35.986925,-80.640150,Bear Creek Church Rd
185,35.901236,-80.570033,Wilkesboro St
160,36.021103,-80.466560,Norma Ln
276,35.948747,-80.455828,Camden Ct
185,35.983846,-80.431993,Oakmont Dr
216,36.018576,-80.488082,State Hwy 801
185,35.988772,-80.469708,US Hwy 158
276,35.881474,-80.449272,US Hwy 64
216,35.944808,-80.602003,Cheyenne Ln
160,35.813521,-80.559148,Davie St
160,35.977909,-80.416564,Eastridge Ct/Underpass Rd
185,36.000945,-80.430841,Riverbend Dr
160,35.977590,-80.416318,Underpass Rd
160,35.895269,-80.568362,Avon St
185,35.876257,-80.693313,I- 40
276,35.930015,-80.392600,March Ferry Rd
160,35.881570,-80.458747,US Hwy 64
216,35.985942,-80.439508,Keswick Dr
185,35.818489,-80.551782,Neely Rd
216,35.980571,-80.442294,N Saint Andrews Dr
160,35.949745,-80.611124,Candi Ln
185,35.821850,-80.550557,Link Rd
216,35.903885,-80.447141,Williams Rd
216,35.889570,-80.549648,E Lake Dr/Lexington Rd
216,35.890360,-80.559382,E Maple Ave
160,35.899635,-80.579556,Hospital St Exd
185,36.005806,-80.434635,Ivy Cir
246,35.911044,-80.461658,Comanche Dr
160,35.963978,-80.456960,Quail Hollow Rd
276,36.013612,-80.452100,McGee Ct
246,35.890267,-80.555796,Mill St
160,35.983579,-80.484287,US Hwy 158
605,35.892639,-80.561913,S Main St
160,35.930488,-80.652712,Fred Lanier Rd
185,35.924875,-80.408876,Alexandria Ct
216,35.978825,-80.428577,State Hwy 801
334,35.910138,-80.539726,Sunset Dr
418,35.910989,-80.579683,Yadkinville Rd
185,35.833155,-80.531869,State Hwy 801
160,35.974816,-80.433633,Kingsmill Dr
160,36.033957,-80.599490,Shelton Ln
160,35.980139,-80.551337,Cornwallis Dr
160,35.885074,-80.564331,Salisbury Rd
185,35.833296,-80.563162,Gladstone Rd
160,35.793752,-80.515396,Riverdale Rd
160,35.940206,-80.452479,Cornatzer Rd
305,35.904869,-80.567181,Wandering Ln
160,35.882905,-80.476269,US Hwy 64
160,35.944235,-80.603611,Cranberry Ln
160,35.860711,-80.553039,Lakewood Dr
185,35.841842,-80.546330,Liberty Cir
185,35.823530,-80.541101,Edgewood Cir
185,35.904463,-80.531535,Wright Ln
160,35.884327,-80.491769,Cedar Ridge Rd
305,35.921667,-80.392889,Irish Pl
216,35.899483,-80.569447,Gwyn St
160,36.000191,-80.478234,Rainbow Rd
418,35.896224,-80.570268,Avon St/Tot St
160,36.007492,-80.460258,Charlotte Pl
160,35.875687,-80.440906,US Hwy 64
160,35.933432,-80.579520,Belaire Ln
216,35.997306,-80.431566,St George Pl
246,35.905177,-80.581233,Willhaven Dr/N Mocksville Ct
160,35.964998,-80.508580,Pinebrook School Rd
305,35.917827,-80.601368,Theodore Dr/Blaise Church Rd
418,35.910469,-80.579336,Yadkinville Rd
160,35.891738,-80.533216,Deck Cir
246,36.013662,-80.438787,Windsor Cir
246,35.891132,-80.563839,W Maple Ave/Salisbury Rd
160,35.937730,-80.549890,S Angell Rd
185,35.812955,-80.557830,Cross St/Erwin St
276,35.948751,-80.455877,Camden Ct
160,36.014610,-80.476396,State Hwy 801
185,35.884407,-80.539796,Deer Run Dr
160,35.898964,-80.564914,Garner St
160,35.978536,-80.454867,Beauchamp Rd/Gun Club Rd
185,35.813115,-80.557393,Cross St/Yadkin St
160,35.931936,-80.391931,March Ferry Rd
362,36.006918,-80.429581,Ivy Cir
185,35.911482,-80.542675,Sunset Dr
160,36.001787,-80.436777,Ivy Cir
185,35.984401,-80.472856,Junie Beauchamp Rd
216,35.926252,-80.593306,US Hwy 601
185,35.842539,-80.546401,US Hwy 601
216,35.824293,-80.538458,Springhill Dr
216,36.009913,-80.435313,Pinewood Ln
246,35.921769,-80.397345,Falling Creek Dr
160,36.035779,-80.482718,Sparks Rd
334,35.904745,-80.578575,Valley Rd
216,35.984946,-80.447477,Broadmoor Dr
472,35.896394,-80.569748,Tot St
185,36.008726,-80.461088,Brentwood Dr
185,35.884522,-80.539154,Doe Trl
160,35.808153,-80.554021,Grove St
185,35.902011,-80.583749,Steelman Rd/Wilkesboro St
160,35.876663,-80.446586,Ruby Rd
160,35.842136,-80.626876,Mr Henry Rd
362,35.911260,-80.579859,Yadkinville Rd
160,35.922420,-80.637904,Wilkesboro St
160,36.002435,-80.437067,State Hwy 801
160,36.009510,-80.436644,Pinewood Ln
160,35.910176,-80.613795,Shuler Rd
160,35.888920,-80.544943,US Hwy 64
216,36.014379,-80.437808,Rosewalk Ln
658,35.894465,-80.561827,N Main St
160,35.823147,-80.541482,Springhill Dr/Edgewood Cir
362,35.829198,-80.545423,Michaels Rd
160,35.860425,-80.528889,Will Boone Rd
185,35.982454,-80.432638,Oakmont Ct
334,35.897253,-80.570518,Avon St
185,35.898131,-80.556172,Midland St
160,35.996920,-80.424074,Spyglass Dr
276,35.975609,-80.437238,White Eagle Ct/Kingsmill Dr
160,35.825634,-80.549611,Cook Trl
160,36.001195,-80.432093,Riverbend Dr
160,35.905449,-80.589952,Horseshoe Trl
160,36.003414,-80.432812,Riverbend Dr
160,35.905216,-80.576499,Yadkinville Rd
160,35.923697,-80.638624,Center Cir
160,35.969523,-80.457772,Baltimore Rd
185,36.004916,-80.457422,Gordon Dr
160,35.876383,-80.441609,US Hwy 64
185,35.896015,-80.570880,Tot St
160,35.994619,-80.441391,Sycamore Ridge Dr
160,35.939393,-80.409534,State Hwy 801
160,35.903119,-80.525520,Whitney Rd/Leila Ct
160,36.035856,-80.605284,Ponderosa Rd/State Hwy 801
185,35.996252,-80.436553,Riverview Townhouse Dr
185,36.009197,-80.529737,Kennen Krest Rd
