Estimated daily crossings,Latitude,Longitude,Name
160,35.282696,-82.720969,US Hwy 276
185,35.261980,-82.715307,Doty Dr
160,35.270569,-82.680377,New Hendersonville Hwy
160,35.325588,-82.651179,Woody's Rd/Asheville Hwy
185,35.226424,-82.733799,Turnpike Rd/Aspen Pl
160,35.084188,-83.013066,/Camp Buc Rd
185,35.215357,-82.756665,Cashiers Valley Rd
160,35.132323,-82.960085,Toxaway Pl
216,35.134219,-82.769412,Rainbow Lake Resort Rd
185,35.131229,-82.948135,Seminole Way/Homestead Rd
160,35.238560,-82.733620,Salem St/Whitmire St
362,35.242836,-82.725013,Asheville Hwy/Owen St
160,35.266618,-82.699242,Mountain View Ln/Davidson River Rd
160,35.266630,-82.629028,Dogwood Ln/Talley Rd
472,35.238646,-82.732874,Trust Ln/Creekside Dr
160,35.103001,-83.009536,Sunrise Ridge
216,35.257111,-82.709509,Medical Park Cir
160,35.289805,-82.687161,Asheville Hwy
160,35.220996,-82.732702,Maple St Exd
185,35.228366,-82.753095,Gold Fishbowl Trl/Keystone Camp Rd
160,35.241966,-82.738719,Resada Ln
390,35.242646,-82.725613,/Green Acre Ln
276,35.236971,-82.732948,W French Broad Ave/N Caldwell St/W French Broad St
160,35.268078,-82.711376,Hillside Hts/Asheville Hwy
160,35.256666,-82.701428,Carr Lumber Company Rd
246,35.241849,-82.749131,French Quarter Dr/Andante Ln
216,35.252016,-82.708804,Idlewood St/Cherry St
160,35.281696,-82.717333,/US Hwy 276
185,35.091969,-82.863463,/Wilds Ridge Rd/Fellowship Way
160,35.244921,-82.731239,Moose Lodge Rd/Mc Lean Rd/Fisher Rd
185,35.117568,-82.942900,Echo Springs Pt
160,35.267616,-82.712244,/Asheville Hwy
160,35.118906,-82.935283,Westridge Blvd
185,35.221496,-82.729925,Placid Dr/Gallimore Rd
160,35.286395,-82.689053,Poplar Rdg/Hudlin Gap Rd
216,35.232234,-82.735292,E Morgan St/S Broad St
160,35.131479,-82.960220,Toxaway Trce
185,35.228421,-82.753081,/Keystone Camp Rd
160,35.253002,-82.707405,Mtn Industrial Dr
276,35.249416,-82.721813,N Broad St/Asheville Hwy/Osborne Rd
246,35.242471,-82.731465,McLean Rd/Railroad Ave
472,35.086004,-82.870386,Wilds Ridge Rd
216,35.247416,-82.719666,Highland Rd/Rhododendron Dr
276,35.249473,-82.720233,Oakdale Rd/Oak Park Dr/Osborne Rd
631,35.238559,-82.731645,N Caldwell St/College Station Dr
246,35.231708,-82.734137,E Morgan St/Morgan St/Gaston St
418,35.242614,-82.725260,N Broad St
499,35.238229,-82.732284,Whitmire St
185,35.271045,-82.674216,Evergreen Cv/New Hendersonville Hwy
185,35.245363,-82.720580,Oakdale Rd
526,35.237503,-82.731277,/Brevard College Dr/N Broad St
160,35.272702,-82.700406,New Hendersonville Hwy
160,35.165527,-82.730554,Bantam Way/
160,35.076416,-82.777512,Sassafras Mtn Rd
160,35.236616,-82.611265,Crab Creek Rd/Nob Hill Ln
160,35.140807,-82.685004,Cardinal Rd/Suffolk Ln
216,35.237338,-82.739634,James St/W Probart St
246,35.234555,-82.725650,Franklin St/Robinson Ave
160,35.235447,-82.644119,Patterson Estate Rd
216,35.241141,-82.723032,Hillcrest Ave
160,35.327064,-82.649561,Ed McCall Rd
160,35.140970,-82.685491,Pheasant Run/Suffolk Ln
160,35.325202,-82.651132,Limousin Ln
160,35.158897,-82.810942,State Rd 1388
160,35.201857,-82.772584,Rosman Hwy/US Hwy 64
160,35.198619,-82.717990,Cheek Rd
216,35.224328,-82.740659,Rosman Hwy
185,35.215182,-82.756506,Cashiers Valley Rd
246,35.260407,-82.715582,Asheville Hwy
160,35.221633,-82.736347,Country Club Rd
305,35.247123,-82.722941,Jackson Ct
390,35.241960,-82.752813,/Andante Ln
160,35.144428,-82.822659,Church St/Eastatoe St
185,35.123611,-82.914587,Indian Creek Dr
160,35.265777,-82.712763,Ecusta Vw
160,35.076148,-82.777414,Sassafras Mtn Rd/Glady Fork Rd
160,35.116137,-82.825370,Vess G Dr
579,35.232963,-82.734807,Jordan St/S Broad St
160,35.212076,-82.753640,Koda Dr/Illahee Pt
160,35.131676,-82.682074,Oriole Rd/Grouse Ln
185,35.239123,-82.738747,Curlee Dr
160,35.133855,-82.819523,Pickens Hwy/E Fork Rd
160,35.131274,-82.932717,State Hwy 281 N
160,35.271199,-82.695606,New Hendersonville Hwy
160,35.217045,-82.736913,Country Club Rd/
788,35.235571,-82.728522,Alumni Dr
160,35.142603,-82.823607,River Aly/Chestnut St
216,35.147387,-82.713975,Gagama Ct
160,35.224946,-82.728742,Wilson Dr/Batson Rd
185,35.114388,-82.898563,Flat Creek Valley Rd
246,35.256920,-82.717138,Straus Pkwy/Asheville Hwy
160,35.181924,-82.794397,Little Egypt Rd
185,35.260597,-82.715797,Whitt Ln/Asheville Hwy
418,35.242389,-82.725567,N Broad St/Green Acre Ln/Ashville Hwy
185,35.319429,-82.657245,Lime Kiln Ln/Asheville Hwy
185,35.261058,-82.712912,Tuckaway Ln
160,35.214791,-82.741840,Holly Ln/Briarwood Ln
216,35.231107,-82.729447,E Main St/Woodside Dr
160,35.275188,-82.702452,Asheville Hwy
246,35.235026,-82.743404,S Wynn Dr
160,35.227745,-82.720033,Bluebird Ln
160,35.135781,-82.901025,Kim Miller Rd
160,35.227797,-82.738440,Bracken Ln/S Caldwell St
160,35.193089,-82.790698,Tilson Dr
216,35.223657,-82.741602,Rosman Hwy
160,35.187254,-82.723561,Greenville Hwy
216,35.243053,-82.751714,Patton Ln/Barnum Rd
305,35.218354,-82.735185,/High School Rd
160,35.229615,-82.727636,Park Ave/Boxwood Ln
276,35.256368,-82.712705,Hospital Rd
160,35.239524,-82.742691,Eastabrook Ave/W Probart St
160,35.262660,-82.623761,Parkway View Ln
185,35.357715,-82.793495,Blue Ridge Pkwy
160,35.124764,-82.935943,Waterfall Cir
185,35.271024,-82.674455,Brown Rd/New Hendersonville Hwy
185,35.240730,-82.734897,Commerce St
216,35.241887,-82.720348,Cedarcrest Dr/N Oak St
160,35.223401,-82.734609,Turnpike Rd
160,35.243233,-82.751267,Barnum Rd
160,35.235907,-82.741627,Brown Ln/North Ln
160,35.221703,-82.736386,Country Club Rd
390,35.247466,-82.722543,Asheville Hwy
216,35.223346,-82.704244,Knob Creek Rd/Wilson Rd
160,35.235515,-82.744349,Rout Dr/Locks
160,35.304380,-82.672510,Fern Cove Ln
160,35.134645,-82.769629,Bird Haven Ln
160,35.147850,-82.646690,Greenville Hwy
813,35.234013,-82.734900,W Main St
185,35.252436,-82.710456,Cherry St
418,35.249843,-82.710079,Osborne Rd
418,35.242242,-82.725795,N Broad St/Ashville Hwy
216,35.273126,-82.701718,New Hendersonville Hwy
160,35.142817,-82.823250,Main St/Chestnut St
160,35.259044,-82.712385,Morris Rd
160,35.194862,-82.793886,Stamey Creek Rd/Ross Rd
185,35.124119,-82.913996,Indian Eagle Way/Indian Creek Dr
185,35.143481,-82.642392,Greenville Hwy
160,35.104056,-82.856687,/Ridge Haven Dr/Ridge Haven Rd
185,35.232751,-82.736463,E Morgan St/S Caldwell St/W Morgan St
160,35.101170,-82.971633,Two Pond Rd
160,35.326043,-82.650773,/Asheville Hwy
185,35.142921,-82.839161,US Hwy 64
185,35.252548,-82.721636,Straus Pkwy/Market St
185,35.224748,-82.716340,Elm Bend Rd/Eastview Dr
160,35.191106,-82.786189,US Hwy 64
185,35.143165,-82.838860,US Hwy 64
185,35.230471,-82.721010,Grandview Ave/Far Hills Ter
185,35.236185,-82.737469,W Probart St/N Oaklawn Ave
246,35.215787,-82.696847,Whispering Spring Dr/Falls Creek Rd
160,35.231462,-82.731458,Jordan St/S Rice St
865,35.274121,-82.705201,Pisgah Hwy
246,35.251610,-82.720302,Pisgah Hts/Allison Rd/Hawthorne Dr
334,35.233464,-82.731531,Johnson St/N Johnson St/E Probart St
160,35.225891,-82.724560,Greenville Hwy
160,35.198041,-82.747525,Lockencove Ridge Rd/Country Club Rd
160,35.229156,-82.691333,Glen Cannon Dr
185,35.244460,-82.720364,Old Hendersonville Hwy/Old 64
160,35.195977,-82.753272,Stone Field Trl/High Point Trl
185,35.280138,-82.720789,Sycamore Cir
160,35.315808,-82.660726,Naomi Dr/Asheville Hwy
246,35.260532,-82.715564,Whitt Ln/Asheville Hwy
185,35.083431,-82.870996,Cross Creek Dr
185,35.270207,-82.695474,Davidson River Rd/Cemetery Rd
185,35.092760,-82.864036,/Wilds Ridge Rd
736,35.241509,-82.727413,N Broad St/Fisher Rd
418,35.271879,-82.706062,US Hwy 64/Asheville Hwy/Ecusta Rd
185,35.088345,-82.863915,Wilds Lake Rd
185,35.243870,-82.740356,Kings Creek Rd
185,35.239895,-82.723638,College Row
160,35.144022,-82.742377,Duya Ct/Qualla Cir
160,35.240765,-82.722089,College View Ct/College View Ter/College Ln
185,35.381407,-82.780738,/Blue Ridge Pkwy
160,35.222007,-82.702575,Knob Creek Rd/Holly Ridge Rd
276,35.191893,-82.760978,Maple Dr/Island Ford Rd
160,35.266690,-82.707437,Hillside Hts
160,35.323025,-82.658746,/McGuire Rd
185,35.311869,-82.664862,Holland Rd/Asheville Hwy
160,35.190399,-82.786951,US Hwy 64
185,35.137648,-82.938964,Toxaway Landing Dr
185,35.277767,-82.620163,Babbling Brook Ln
160,35.218619,-82.745314,Glazener Rd
185,35.320721,-82.654075,Baynard Rd
305,35.226523,-82.737519,Country Club Rd/Rosman Hwy/S Broad St
160,35.270965,-82.675314,Orchid Heights Dr/New Hendersonville Hwy
160,35.268184,-82.711500,Hillside Hts/Asheville Hwy
160,35.222424,-82.736786,Country Club Rd/Tarheel Ln
160,35.233978,-82.737079,England St/W Jordan St/Jordan St
160,35.199885,-82.784887,/Fowler Ln
160,35.395722,-82.762556,/Blue Ridge Pkwy
185,35.243241,-82.735054,Peace Dr
362,35.231488,-82.735790,S Broad St
185,35.289762,-82.622372,River Ridge Rd
160,35.248329,-82.725531,Cantebury Trce
160,35.207069,-82.758055,Raspberry Ln
216,35.244190,-82.721057,Neely Rd/Old 64/Old Hendersonville Hwy/Chestnut St
216,35.223800,-82.741397,Rosman Hwy
160,35.234733,-82.739403,Fortune Ln
160,35.187473,-82.723494,/Greenville Hwy
246,35.237747,-82.739139,Pisgah Ln
185,35.236488,-82.673883,Aberdeen Ln/Skye Dr
160,35.217107,-82.751565,Sky View Ter/Rosman Hwy
160,35.215153,-82.737114,Country Club Rd/N Country Club Rd/Woodland Ter
185,35.219036,-82.729063,Sugar Loaf Rd
160,35.261332,-82.696328,1st St/Cemetery Rd
160,35.220320,-82.734548,Triple Ter
891,35.274314,-82.706104,Pisgah Hwy
160,35.234795,-82.723877,Hilt St Exn
160,35.170293,-82.806959,Calvert Rd/Old Rosman Hwy
305,35.249383,-82.714928,London Ct/Hopewell St
160,35.327298,-82.649629,/Asheville Hwy
160,35.238743,-82.628799,Maple Hill Rd/Friendly Farm Rd/Crab Creek Rd
160,35.155954,-82.653565,Richburn Dr
160,35.224730,-82.715629,Elm Bend Rd
160,35.159744,-82.931346,Hiwassee Rd Exd
216,35.256332,-82.713483,Hospital Rd
160,35.219270,-82.745470,S Hill Dr/Glazener Rd
246,35.233324,-82.724101,W Woodsong Ln
160,35.216091,-82.703514,Oak Ridge Rd/Three Mile Knob Rd
216,35.119103,-82.936393,Resorts Cir/Westridge Blvd
185,35.224819,-82.732984,Grove St/Maple St
246,35.240763,-82.723711,College Row/College Inn Ln
160,35.194875,-82.782226,Old Country Home Rd
185,35.092790,-82.864197,/Little Cabin Rd
1719,35.236076,-82.728360,W Campus Dr
160,35.286739,-82.689095,Hudlin Gap Rd
160,35.234283,-82.727576,Appletree St/E French Broad Ave
185,35.143882,-82.813484,E Side Dr/Old Rosman Hwy
160,35.129807,-82.705866,Lyncrest Dr/Severy Ln
160,35.151895,-82.739076,Susquehannah Ct
160,35.252806,-82.721922,Straus Pkwy/Old Cottage Ln
160,35.318940,-82.657706,Asheville Hwy
160,35.269535,-82.680006,Surrette Dr
334,35.274614,-82.703170,Asheville Hwy/Boylston Hwy
185,35.272576,-82.716126,Laural Mountain Dr
185,35.272659,-82.640452,Crab Creek Rd/Old Hendersonville Hwy
216,35.257225,-82.718072,Straus Pkwy/Park Pl W
246,35.235267,-82.743418,S Wynn Dr/N Wynn Dr/Locks
216,35.319161,-82.653266,Baynard Rd
160,35.239188,-82.739333,Curlee St/Curlee Dr
160,35.144226,-82.814330,E Side Dr
216,35.273806,-82.701437,Deavor Rd
160,35.239693,-82.747742,Probart St/Andante Ln
185,35.165867,-82.935288,/Coyote Rd/Wolf Ridge Rd
334,35.233724,-82.726448,Franklin St/E French Broad Ave
160,35.199250,-82.786282,Canaday Dr
160,35.240138,-82.720767,College Row/College Ln
216,35.233283,-82.723361,Woodlawn Ln
160,35.229326,-82.728446,E Main St/Park Ave/W Main St
216,35.244031,-82.725688,/Green Acre Ln
160,35.228611,-82.720005,Warren Ln
160,35.226525,-82.724033,Sapphire Ln/Trowbridge Ln
185,35.260516,-82.715803,/Asheville Hwy
216,35.229519,-82.722107,W Laurel Ct
216,35.230199,-82.722463,Outland Ave
160,35.228535,-82.722955,Magnolia St
1485,35.236192,-82.728140,W Campus Dr/Alumni Dr
160,35.268347,-82.679444,Smith Rd
160,35.190151,-82.786282,Monteith Rd
160,35.182890,-82.734392,Mossberg Ln/Island Ford Rd
684,35.238559,-82.729870,N Campus Dr
160,35.243666,-82.732936,Kilpatrick St/Burrell Ave
160,35.241262,-82.743821,Hampton Rd
185,35.259437,-82.719241,Stone House Rd/Camptown Rd
160,35.212509,-82.753186,Illahee Rd/Illahee Pt
160,35.286896,-82.689287,Asheville Hwy/Hudlin Gap Rd
160,35.207740,-82.764430,Red Barn Rd/Tom Rogers Rd
216,35.242103,-82.723106,Yongue St/Hillcrest Ave
305,35.248625,-82.714762,Hopewell St/Danbury Ln
160,35.309296,-82.668174,Sitton Pl
160,35.144702,-82.812975,Old Rosman Hwy
160,35.270123,-82.687618,New Hendersonville Hwy
160,35.233239,-82.739563,Jordan Ln/Killian Ln
160,35.243891,-82.731867,McLean Rd/Fisher Rd/Tinsley Rd
160,35.238621,-82.628636,Crab Creek Rd
216,35.270246,-82.684303,Brown Rd/Glade Creek Rd/New Hendersonville Hwy
185,35.088332,-82.866364,Wilds Lake Cir/Wilds Lake Rd
160,35.232109,-82.719117,Morningside Dr/Grandview Ave
160,35.195117,-82.753591,Stone Field Trl/High Hemlock Trl
160,35.207790,-82.764840,Rosman Hwy
160,35.225025,-82.861885,/State Hwy 215
160,35.279825,-82.632262,Fodderstack Woods Ln/Old 64
160,35.256385,-82.717020,N Broad St
160,35.228932,-82.721946,Laurel Village Dr
334,35.242322,-82.731240,McLean Rd
160,35.144246,-82.813244,Old Rosman Hwy
160,35.256413,-82.701930,Ecusta Rd
160,35.214729,-82.741746,Holly Ln/Brairwood Ln
216,35.140383,-82.952993,Greystone Ln
160,35.253404,-82.723198,Straus Pkwy
160,35.136226,-82.685002,Purple Finch Rd/Cardinal Rd
160,35.261364,-82.697210,Metcalf Dr
246,35.234699,-82.742735,Locks
362,35.249397,-82.720914,Osborne Rd
185,35.224132,-82.703445,Pine Tree Dr
160,35.223201,-82.742279,Rosman Hwy/Forest Hill Rd
305,35.234997,-82.734867,N Caldwell St/W Probart St/Probart St
216,35.249867,-82.707828,Worth Ln/Old Hendersonville Hwy
160,35.233147,-82.739352,Jordan Ln/Hamlin Ave
160,35.222887,-82.731843,Placid Dr/Jordan Rd
160,35.198597,-82.784471,Forest Lake
185,35.115280,-82.834775,Blue Ridge Overlook Dr
160,35.142629,-82.948518,Toxaway Shores
160,35.164193,-82.679680,/Camp High Rock Rd
160,35.114371,-82.966423,Brassie Dr
185,35.088662,-82.866164,Lower Chalet Ct/Wilds Ridge Rd
160,35.265190,-82.713015,Ecusta Vw
246,35.234233,-82.743911,Hillview Cir
788,35.235557,-82.730127,E French Broad Ave/N Johnson St
185,35.143352,-82.814828,Galloway Rd
185,35.249014,-82.716897,Pressley Ave
185,35.221415,-82.732664,Maple St Exd
216,35.133289,-82.768907,Rainbow Lake Dr/Rainbow Lake Rd/Rainbow Lake Resort Rd
185,35.211830,-82.708268,Big Rock Rd
160,35.287997,-82.625409,Bass Lake Dr
160,35.115443,-82.941841,W Club Blvd/US Hwy 64
216,35.253468,-82.700933,Wilson Rd/Old 64
160,35.114777,-82.818589,/Pickens Hwy
185,35.227371,-82.725627,Greenville Hwy/Parkview Dr/Elm Bend Rd
1097,35.233739,-82.734290,N Broad St/W Main St/S Broad St
160,35.225317,-82.737603,Country Club Rd/Hays St
160,35.148711,-82.646350,Cascade Lake Rd
185,35.103982,-82.854763,/Ridge Haven Dr
813,35.238113,-82.729202,E Campus Dr
160,35.241471,-82.748400,/Andante Ln
526,35.235443,-82.732982,N Broad St
216,35.240274,-82.744597,W Probart St/Hampton Rd/Probart St
160,35.239114,-82.735769,Whitmire St/Railroad Ave
160,35.123295,-82.828945,Queen Dr
276,35.248173,-82.715050,Danbury Ln
390,35.242821,-82.752525,/Barnum Rd
216,35.237538,-82.734070,Salem St/W French Broad St
160,35.225568,-82.727899,E Main St
160,35.233972,-82.732628,E Probart St/Gaston St
160,35.198815,-82.718732,Alfred Dr/Cheek Rd
160,35.235889,-82.743634,N Wynn Dr
246,35.230136,-82.721165,Outland Ave/Grandview Ave/Grandview Dr/Laurel Village Dr
160,35.321159,-82.654716,Baynard Rd
160,35.249254,-82.726601,Deer Run St/Deerlake Rd
246,35.250121,-82.713837,Osborne Rd
160,35.160266,-82.940265,Toxaway Trl/Thunderbird Ln
552,35.232435,-82.733651,Jordan St/Gaston St
160,35.102343,-82.964518,Round Top Mountain Rd
160,35.279661,-82.672450,/Charley's Knob Rd
160,35.225278,-82.728033,E Main St
216,35.230944,-82.745835,Unity Dr
185,35.235282,-82.744580,Rout Dr
185,35.225156,-82.728949,Wilson Dr
160,35.207784,-82.764521,Rosman Hwy/Tom Rogers Rd
160,35.124161,-82.917468,US Hwy 64/Catatoga Club Dr
160,35.198673,-82.766229,/Island Ford Rd
216,35.242065,-82.721131,N Oak St/Neely Rd
185,35.258121,-82.709458,Pisgah Dr/Temple Church Rd
160,35.125722,-82.818701,/Middlefork Rd
160,35.217195,-82.751438,Rosman Hwy/Tip Top Rd
246,35.245591,-82.717351,/Old Hendersonville Hwy
943,35.274269,-82.705885,Pisgah Hwy
185,35.215105,-82.756455,Cashiers Valley Rd
185,35.243801,-82.730865,Holden Rd
160,35.275992,-82.711890,US Hwy 276/Pisgah Hwy
160,35.239690,-82.747703,Holcombe Rd/Probart St
185,35.252395,-82.710300,Cherry St
160,35.325281,-82.651454,Asheville Hwy/Limousin Ln
160,35.218886,-82.699462,Knob Creek Rd
160,35.323068,-82.658630,McGuire Rd/Simpson Gap
334,35.249266,-82.708923,Old Hendersonville Hwy/Osborne Rd
526,35.273853,-82.703989,US Hwy 64/Asheville Hwy/Pisgah Hwy
160,35.270725,-82.638627,Crab Creek Rd
160,35.238450,-82.740560,W Probart St/Kings Mill Rd
160,35.170429,-82.807010,Old Rosman Hwy
160,35.236706,-82.741344,Thomas St/W Main St
185,35.216585,-82.695848,Whispering Spring Dr/Rocky Ridge Rd
246,35.231828,-82.730061,E Main St
185,35.272853,-82.664450,Portia's Way/New Hendersonville Hwy
160,35.316646,-82.659866,Beckaruth Ln/Asheville Hwy
160,35.274964,-82.702802,Turkey Creek Rd/Deavor Rd/Asheville Hwy
390,35.242699,-82.725156,N Broad St/Asheville Hwy
246,35.143641,-82.821214,Old Rosman Hwy/Chestnut St
160,35.239972,-82.743966,/W Probart St
160,35.217457,-82.699455,Rocky Ridge Rd
185,35.083470,-82.871000,Cross Creek Dr
185,35.258218,-82.710590,Pisgah Dr
276,35.191566,-82.760702,Barberry Heights Dr/Island Ford Rd
334,35.243979,-82.727600,Montview Cir/Fisher Rd
160,35.224403,-82.860993,Clinic Rd/State Hwy 215
160,35.215195,-82.741553,Sweet Summer Ln
160,35.259893,-82.712924,Whitt Ln
160,35.211562,-82.740348,Meadowbrook Cir
552,35.235801,-82.732679,Appletree St/N Broad St
499,35.273804,-82.703857,US Hwy 64/New Hendersonville Hwy/Boylston Hwy/Pisgah Hwy
160,35.239690,-82.720708,College Row
160,35.221336,-82.736181,Country Club Rd/Southview Dr
160,35.387576,-82.775517,/Blue Ridge Pkwy
160,35.247832,-82.687531,Poplar Crest Dr/Poplar Ln
185,35.224856,-82.739920,Rosman Hwy
160,35.253649,-82.722548,Ridgetop Cir
160,35.252845,-82.722000,Straus Pkwy
160,35.253107,-82.715586,Oakwood Dr
418,35.238926,-82.730387,N Broad St/N Campus Dr
160,35.225074,-82.861998,/State Hwy 215
185,35.245503,-82.720574,/Oakdale Rd
185,35.091766,-82.863235,Wilds Ridge Rd
160,35.135772,-82.945813,Clearwater Pt
418,35.232721,-82.732032,Johnson St/E Main St
390,35.236409,-82.733314,/N Caldwell St
160,35.226147,-82.723864,Sapphire Ln/Sapphire Manor Rd
160,35.316523,-82.659990,Colton Dr/Asheville Hwy
362,35.086727,-82.868206,Wilds Ridge Rd/Turtle Rock Trl
185,35.230081,-82.736723,Oakdale St/S Broad St
160,35.234578,-82.732229,Faith St
305,35.242987,-82.752268,Hartman Cir/Barnum Rd
418,35.243012,-82.752756,/Hartman Cir
499,35.235863,-82.732631,/N Broad St
160,35.307828,-82.667638,Asheville Hwy/Shortview Dr
185,35.233685,-82.740612,Jordan Ln/Carver St
276,35.233602,-82.731823,E Probart St
160,35.193131,-82.790569,Tilson Dr/Ross Rd
160,35.114975,-82.978409,/US Hwy 64
305,35.235822,-82.733908,N Caldwell St/Kelly's Aly
160,35.234978,-82.744860,/Rout Dr
185,35.275332,-82.702210,Forest Gate Cir/Asheville Hwy
334,35.238536,-82.736380,King St/Railroad Ave
499,35.275911,-82.702863,Forest Gate Cir
185,35.275759,-82.701521,Asheville Hwy
526,35.238473,-82.732232,Coldwell Banker Ln/Trust Ln
216,35.238908,-82.738131,Short St
160,35.148610,-82.828086,Old Rosman Hwy
160,35.143688,-82.815195,Amani Ln
160,35.129372,-82.704957,Quail Roost Dr
160,35.213995,-82.740226,Woodland Ter/Joree Ln
160,35.238670,-82.628700,Maple Hill Rd/Crab Creek Rd
216,35.231946,-82.732554,Johnson St/Jordan St/S Johnson St
185,35.211988,-82.736541,Country Ln/Deerwoode Ln
160,35.256119,-82.701645,Carr Lumber Company Rd/Ecusta Rd
160,35.257097,-82.701352,Carr Lumber Company Rd
276,35.234569,-82.730785,Appletree St/N Johnson St
216,35.228673,-82.621476,Morgan Dr
160,35.112686,-82.975319,State Rd 1152/Sapphire Rd
160,35.238377,-82.719695,Yale Ln
185,35.278148,-82.620083,Stoney Brook Rd/Babbling Brook Ln
160,35.226983,-82.745971,Nicholson Creek Rd
160,35.245444,-82.626660,Spencer Mull Rd
185,35.251433,-82.706413,Cherry St/Burnette Dr
185,35.234907,-82.725310,Hilt St/Franklin St
160,35.237022,-82.623722,Crab Creek Rd/Morgan Dr
246,35.230394,-82.736516,S Broad St
390,35.086382,-82.869442,/Wilds Ridge Rd
185,35.202048,-82.619092,Staton Rd
216,35.242650,-82.735066,Peace Dr
1381,35.237020,-82.729994,Brevard College Dr/E Campus Dr
160,35.308832,-82.667103,/Asheville Hwy
160,35.228915,-82.724910,/Parkview Dr
499,35.238190,-82.732130,Whitmire St/N Caldwell St
160,35.227226,-82.739772,Aiken St
160,35.251021,-82.705975,Old 64 Old Hendersonville/Old Hendersonville Hwy
160,35.213636,-82.740382,Woodlander Vw/Joree Ln
160,35.201653,-82.772527,Rosman Hwy
185,35.190670,-82.785603,Monteith Rd
185,35.084231,-82.870717,Cross Creek Dr
160,35.222585,-82.729008,Gallimore Rd/Tore's Dr
185,35.289625,-82.622349,River Ridge Rd
160,35.271412,-82.696390,New Hendersonville Hwy
160,35.236921,-82.671615,Argyll Cir
185,35.228949,-82.752854,Keystone Camp Rd/Cashiers Valley Rd
160,35.231688,-82.717639,Morningside Dr
216,35.235016,-82.742646,Locks
160,35.111700,-82.824389,Morgan Mt Rd
185,35.231016,-82.734596,Private Rd/Gaston St
160,35.199052,-82.783940,/Forest Lake
185,35.233376,-82.741044,Oakdale St/Carver St
160,35.253114,-82.713480,Forest Ridge Rd
246,35.261981,-82.715445,Doty Dr/Asheville Hwy
276,35.235023,-82.737123,W Main St
160,35.231808,-82.747475,Probart St Exd/Hillview Ave/Probart St
160,35.214915,-82.741473,Woodland Ter/Meadow Ln
305,35.238469,-82.739088,Short St/White Oak Ln/Pisgah Ln
160,35.091380,-82.864183,Wilds Ridge Rd
160,35.196973,-82.720956,Greenville Hwy
185,35.143238,-82.813944,Old Rosman Hwy/Amani Ln
160,35.245826,-82.726353,Poplar St
276,35.225168,-82.736069,Ashworth Ave/Hays St
160,35.265152,-82.709884,Little Bend Ln/Big Bend Rd
185,35.243400,-82.732020,Holden Rd/McLean Rd
160,35.092457,-82.863835,/Fellowship Way
216,35.234971,-82.728954,E French Broad Ave/Alumni Dr
185,35.223825,-82.731335,Willow Dr/Batson Rd
418,35.234278,-82.735491,S Caldwell St/N Caldwell St/W Main St
160,35.160288,-82.939564,Thunderbird Ln
334,35.256425,-82.711849,/Hospital Rd
160,35.269328,-82.705759,Ecusta Rd
160,35.326317,-82.650523,/Asheville Hwy
658,35.243415,-82.722873,/Old 64
160,35.208426,-82.739920,Country Club Rd/N Country Club Rd/Meadowbrook Cir
334,35.249402,-82.720775,Osborne Rd
160,35.241732,-82.732577,Railroad Ave
160,35.136967,-82.684876,Purple Finch Rd/Cardinal Rd
160,35.230473,-82.697990,Douglas Cir/Glen Cannon Dr
160,35.309161,-82.667985,/Sitton Pl
160,35.323251,-82.653470,Greenview Ln/Asheville Hwy
160,35.280744,-82.629826,/New Hendersonville Hwy
813,35.234059,-82.735003,Times Arc/W Main St
160,35.248848,-82.727473,Sheffield Pl
216,35.229304,-82.737259,S Broad St/Varsity St
185,35.240443,-82.723129,College Row/College View Ter
246,35.256817,-82.716934,Hospital Dr/Asheville Hwy
160,35.149675,-82.810944,/Old Rosman Hwy
160,35.195656,-82.752497,Stone Field Trl/Mountain Brook Trl
160,35.129378,-82.763440,E Fork Rd
160,35.213170,-82.753769,Catawra Ln
160,35.111572,-82.976394,/Sapphire Rd
390,35.259080,-82.716030,Asheville Hwy
246,35.250008,-82.712555,Tree Haven Dr/Osborne Rd
216,35.319563,-82.652949,/Baynard Rd
216,35.231611,-82.729749,Franklin St/E Main St
160,35.116660,-82.835808,Old Toxaway Rd/Blue Ridge Overlook Dr
160,35.253565,-82.723394,/Straus Pkwy
160,35.130318,-82.931868,Windward Pt/State Hwy 281 N
839,35.234084,-82.734059,N Broad St
160,35.272286,-82.687690,/Kristie Ln
334,35.248813,-82.709480,Old Hendersonville Hwy
160,35.199773,-82.784250,Fowler Ln
160,35.199839,-82.786577,/Fowler Ln
216,35.241728,-82.721931,College View Ct
160,35.268463,-82.711064,/Asheville Hwy
185,35.253329,-82.699826,Blythe Park Dr
160,35.303534,-82.623213,/New Hendersonville Hwy
276,35.225281,-82.736134,Hays St
160,35.212104,-82.740330,Meadowbrook Cir
160,35.109892,-82.808798,/Pickens Hwy
334,35.238588,-82.736320,Railroad Ave
160,35.239661,-82.720256,Neely Rd
216,35.273444,-82.676607,Whispering Pines Rd
185,35.133461,-82.953426,Club Colony
185,35.199811,-82.785422,Fowler Ln/Canaday Dr
160,35.207858,-82.765267,Cauble Rd/Selica Rd
185,35.281208,-82.724371,Sycamore Cir
160,35.234568,-82.617644,Island Cove Rd
160,35.126691,-82.818592,Middlefork Rd
185,35.211709,-82.742461,Evergreen St
185,35.256480,-82.710631,Hospital Rd
160,35.212779,-82.737221,N Country Club Rd/Deerwoode Ln
160,35.116535,-82.999457,US Hwy 64
160,35.242883,-82.742006,Mill Ridge Cir/Mill Ridge Dr
160,35.282953,-82.721859,/US Hwy 276
160,35.187798,-82.761244,Oxford Ct
160,35.270153,-82.688958,Hendersonville Hwy/New Hendersonville Hwy
160,35.205352,-82.702629,Woodwind Dr/Rich Mountain Rd
216,35.249899,-82.714981,Osborne Rd
160,35.215710,-82.703201,Laurel Ridge Rd/Three Mile Knob Rd
185,35.233511,-82.744567,Hillview Cir/Hillview Ave/Hillview St
246,35.277679,-82.719043,Schenck Dr
160,35.186337,-82.724772,Greenville Hwy
160,35.270140,-82.688519,New Hendersonville Hwy
160,35.181965,-82.794314,Garland Dr/Little Egypt Rd
1278,35.235875,-82.728333,W Campus Dr/Alumni Dr
276,35.257129,-82.712239,Medical Park Dr
185,35.270140,-82.686012,New Hendersonville Hwy
216,35.257178,-82.717740,Straus Pkwy/Park Pl W
160,35.215898,-82.754360,US Hwy 64/Illahee Rd
276,35.245144,-82.727745,Poplar St//Fisher Rd
160,35.308986,-82.635117,Ashley Ln
185,35.232683,-82.724366,Woodlawn Ln/E French Broad Ave
160,35.226651,-82.743582,Washington Ave/Carolina Ave
160,35.181867,-82.794534,Little Egypt Rd
160,35.276034,-82.695989,E Edwards Rd
788,35.238267,-82.729205,/N Campus Dr
216,35.109160,-83.003791,Lupton Rd/Upper Whitewater Rd
185,35.230921,-82.734661,Gaston St
160,35.233202,-82.747043,Unity Dr
160,35.194376,-82.783384,US Hwy 64/Knox Xing/Catheys Creek Church Rd
160,35.166268,-82.936291,Coyote Rd
160,35.143637,-82.690468,/Nottingham Rd
552,35.240026,-82.729805,N Broad St/Four Seasons Plz
185,35.232180,-82.723470,Park Ave
160,35.131935,-82.872028,Trinity Ln
472,35.242114,-82.726003,N Broad St/Old 64
185,35.211479,-82.742136,Redwood St
160,35.228825,-82.745213,Cashiers Valley Rd/Nicholson Creek Rd
216,35.119307,-82.936452,Resorts Blvd/Westridge Blvd
445,35.248326,-82.722196,Deerlake Rd/Asheville Hwy
185,35.234126,-82.738856,W Jordan St/S Oaklawn Ave
185,35.233842,-82.738918,W Morgan St/Hamlin Ave/Carver St
160,35.144377,-82.813175,Old Rosman Hwy
160,35.213053,-82.741857,/Joree Ln
185,35.261512,-82.713796,Tuckaway Ln
160,35.133340,-82.634667,Summer Rd
185,35.226343,-82.746345,Nicholson Creek Rd
362,35.247082,-82.722713,Jackson Ct/Asheville Hwy/Chestnut St
160,35.171147,-82.723768,Breckenridge Trl/Bobcat Trl
334,35.248184,-82.715602,Knight Ct
160,35.076345,-82.777494,Sassafras Mtn Rd
185,35.214861,-82.756739,Rosman Hwy
185,35.215867,-82.739977,Meadow Ln
160,35.227709,-82.739423,Bracken Ln
160,35.119255,-82.948905,Lakeside Dr
216,35.249911,-82.714831,Hopewell St/Osborne Rd
160,35.248302,-82.720312,Oakdale Rd/Azalea Ave
472,35.271582,-82.705900,Ecusta Rd
216,35.231966,-82.730359,St Phillips Ln/E Main St
185,35.233532,-82.744600,/Hillview Cir
160,35.199248,-82.786386,Canaday Dr
185,35.249590,-82.727487,/Deerlake Rd
160,35.198743,-82.767148,Otto Alexander Rd/Island Ford Rd
160,35.165553,-82.710908,/See Off Mountain Rd
362,35.242526,-82.724902,Old 64
160,35.244183,-82.739279,Kings Creek Rd
160,35.248256,-82.719702,Laurel Ln/Azalea Ave
276,35.226304,-82.736831,S Broad St
185,35.165580,-82.935053,/Lupine Ridge Cir
160,35.225360,-82.726368,/Gallimore Rd
185,35.226574,-82.746209,/Nicholson Creek Rd
160,35.265860,-82.699161,Davidson River Rd
160,35.101714,-82.972647,Two Pond Rd/Hidden Ln
185,35.242765,-82.733614,Burrell Ave
160,35.295981,-82.626617,New Hendersonville Hwy
865,35.238034,-82.729027,Kings Creek Loop
472,35.232774,-82.732150,E Main St
276,35.257917,-82.605323,Lady Bug Ln
160,35.272920,-82.705064,US Hwy 64
160,35.120443,-82.936372,US Hwy 64/Westridge Blvd
160,35.114278,-82.833573,Jennifer Ln/Uplands Rd
185,35.257198,-82.708704,Medical Park Cir
185,35.143354,-82.642388,Greenville Hwy/J Haskell Jones Rd
160,35.208495,-82.739969,Meadowbrook Cir/Country Club Cir
216,35.273087,-82.701597,New Hendersonville Hwy
160,35.191868,-82.753146,Stone Field Trl
160,35.159276,-82.727967,Wanei Ct/Dotsi Dr
390,35.249102,-82.713832,Tutor Ln
160,35.229232,-82.721403,Laurel Village Dr
185,35.270011,-82.695845,Davidson River Rd
276,35.226070,-82.738203,S Caldwell St/Rosman Hwy
160,35.229406,-82.721300,W Laurel Ct/Laurel Village Dr
160,35.224617,-82.861236,State Hwy 215
246,35.232228,-82.730939,E Main St/N Rice St/S Rice St
185,35.139325,-82.953087,W Shore Dr//Greystone Ln
684,35.238878,-82.731902,Coldwell Banker Ln/College Station Dr
276,35.251534,-82.721073,Pisgah Hts/N Broad St/Asheville Hwy
276,35.259441,-82.704839,Carr Lumber Co Rd/Ecusta Rd
160,35.085548,-82.868550,Turtle Rock Trl
160,35.216722,-82.713709,Bert Lane Rd/Cedar Haven Dr
160,35.214947,-82.761056,Cauble Dr
276,35.234759,-82.736547,England St/N England St/W Main St
185,35.381191,-82.781575,/Blue Ridge Pkwy
160,35.272541,-82.699914,New Hendersonville Hwy
160,35.190748,-82.753776,Country Club Rd
160,35.236958,-82.739166,W Probart St/Pisgah Ln
160,35.115476,-82.821282,/Pickens Hwy
185,35.240173,-82.744442,W Probart St
185,35.092823,-82.864117,Wilds Ridge Rd/Fellowship Way
160,35.265865,-82.691464,Grey Havens Dr/Cemetery Rd
185,35.224820,-82.732095,Willow Dr/Grove St
160,35.200727,-82.746571,Country Club Rd
185,35.233902,-82.739159,Carver St
472,35.238399,-82.732960,Whitmire St/Creekside Dr
160,35.110126,-82.809345,Pickens Hwy
216,35.249785,-82.714273,Danbury Ln
160,35.198698,-82.767578,Island Ford Rd
160,35.137646,-82.712619,E Fork Rd/Hondah Blvd
216,35.245435,-82.717805,Rhododendron Dr/Old Hendersonville Hwy
185,35.319969,-82.652970,Big Valley Rd/Baynard Rd
160,35.241023,-82.733635,Railroad Ave/Burrell Ave
160,35.239156,-82.735940,Whitmire St
160,35.229336,-82.721341,Laurel Village Dr
185,35.147542,-82.833086,Rosman Hwy
160,35.226242,-82.734719,Aspen Pl/Laurel Ln
160,35.236687,-82.698834,Wilson Rd
579,35.271234,-82.705868,Ecusta Rd
160,35.324001,-82.652720,Asheville Hwy
160,35.216949,-82.662950,Pisgan Forest Dr
160,35.270812,-82.677311,Whispering Pines Rd/New Hendersonville Hwy
1433,35.236906,-82.730092,Brevard College Dr/W Campus Dr
160,35.149834,-82.712224,Usdasdi Dr/Walosi Ct
160,35.265846,-82.691429,Davidson River Cemetery Rd/Cemetery Rd
246,35.231506,-82.727794,Hilt St/Lakeview Ave
160,35.253183,-82.683229,Everett Rd
160,35.272872,-82.704974,US Hwy 64
579,35.241494,-82.727477,/N Broad St
160,35.108194,-82.980418,Club Dr/Racquet Club Villas
160,35.209908,-82.714764,Greenville Hwy/Jaybird Ln
160,35.254570,-82.643548,/Everett Rd
160,35.170756,-82.807346,US Hwy 64/Morgan Mill Rd/Old Rosman Hwy
185,35.252414,-82.721461,Straus Pkwy
160,35.170982,-82.807911,State Rd 1389/Good Neighbor Ln
160,35.136913,-82.950050,W Club Blvd/Seminole Way
160,35.219409,-82.729673,Sugar Loaf Rd
185,35.137239,-82.937889,Toxaway Landing Dr
160,35.248410,-82.727370,Sheffield Pl/Cambridge Dr
160,35.244128,-82.741081,Millbrook Dr/Kings Creek Rd
160,35.262984,-82.697066,Riverside Park Dr
160,35.254807,-82.723046,Straus Pkwy/Badgers Rdg
246,35.261530,-82.709905,Morris Rd/Pisgah Dr
160,35.166519,-82.711043,Parker Ridge Dr
472,35.238801,-82.730950,N Caldwell St/N Campus Dr
216,35.242613,-82.750725,/Andante Ln
160,35.261980,-82.715238,Doty Dr/Tuckaway Ln
185,35.243220,-82.742292,Millbrook Dr/Mill Ridge Dr
160,35.270497,-82.681293,Cresent Dr/New Hendersonville Hwy
160,35.143514,-82.818182,Overlook Dr
160,35.232444,-82.729343,Lakeview Ave
160,35.240928,-82.718979,Summitt Ave/Sunset Dr
160,35.103022,-83.009870,Upper Whitewater Rd/Sunrise Ridge
160,35.231747,-82.738975,Oakdale St/Duckworth Ave
185,35.228427,-82.740333,Silversteen Dr
160,35.241314,-82.720291,Cedarcrest Dr/Private Rd
160,35.234413,-82.738667,S Oaklawn Ave/Fortune Ln
160,35.314939,-82.661652,Circle T Rd/Asheville Hwy
160,35.215148,-82.714868,Greenville Hwy/Bert Lane Rd
185,35.223484,-82.728388,Gallimore Rd
160,35.236579,-82.738356,W Probart St/Railroad Ave
160,35.111411,-83.004887,Sapphire Post Office Rd
276,35.268719,-82.698164,Davidson River Rd
246,35.235782,-82.736587,W Probart St
684,35.239772,-82.727102,Kings Creek Loop
160,35.235370,-82.673515,Skye Dr/Argyll Cir
160,35.241602,-82.745123,Hampton Rd
160,35.249214,-82.726602,Deerlake Rd/Cambridge Dr
605,35.237326,-82.731422,Brevard College Dr/N Broad St
216,35.224583,-82.729309,Batson Rd
526,35.241109,-82.728991,N Broad St/McLean Rd
160,35.210607,-82.740094,Redwood St/Meadowbrook Cir
185,35.259140,-82.719079,Stone House Rd
160,35.231989,-82.747082,Hillview Ave/Unity Dr
160,35.142166,-82.948740,Toxaway Shores
185,35.261101,-82.713055,Tuckaway Ln
390,35.236641,-82.726452,Kings Creek Loop
160,35.196368,-82.781507,Old Country Home Rd/Woodhill Rd
160,35.231759,-82.718229,Morningside Dr
160,35.238828,-82.720348,Princeton Ln
216,35.248442,-82.716361,London Ct
160,35.249820,-82.727109,Eagle Run
631,35.233273,-82.735492,Times Arc/Jordan St
216,35.231212,-82.733044,Morgan St/S Johnson St
160,35.268259,-82.711133,Maple Grove Ln/Asheville Hwy
185,35.244412,-82.720490,Old Hendersonville Hwy
160,35.207168,-82.764960,Rosman Hwy
160,35.202338,-82.773944,McGaha Mountain Rd/Selica Rd
185,35.233240,-82.725496,Hilt St/E French Broad Ave
160,35.247171,-82.726065,Cantebury Trce/Cambridge Dr
185,35.253986,-82.700122,Old 64/Ecusta Rd
216,35.236769,-82.687892,Campbell Dr/Glen Cannon Dr Exd
276,35.235415,-82.738002,S Oaklawn Ave/W Main St/N Oaklawn Ave
185,35.244488,-82.720290,Oakdale Rd/Old 64/Old Hendersonville Hwy
160,35.100014,-82.875074,Oak Laurel Rd/Oak Ridge Rd
160,35.104594,-82.972789,Winging Creek Rd/Winding Creek Rd/Laurel Wood Ct
185,35.243702,-82.741432,Millbrook Dr
160,35.199173,-82.719545,Greenville Hwy/Cheek Rd
160,35.239234,-82.720724,College Row
160,35.250844,-82.705860,Old 64 Old Hendersonville/Cherry St/Old Hendersonville Hwy
579,35.237877,-82.732323,/N Caldwell St
839,35.237233,-82.731113,/Brevard College Dr
160,35.222565,-82.736444,Tarheel Ln
160,35.118670,-82.936180,N Cumberland Dr
160,35.253726,-82.712999,/Private Rd
160,35.135645,-82.877199,US Hwy 64/Silverstein Rd
160,35.223806,-82.738733,Gillespie Rd/Downing Park
185,35.241762,-82.719361,Summitt Ave/N Oak St
160,35.194600,-82.794341,Ross Rd
362,35.249691,-82.711358,York Cir
160,35.227643,-82.739848,Aiken St
160,35.239092,-82.735690,Whitmire St/Railroad Ave
710,35.235684,-82.730379,/E French Broad Ave
246,35.274567,-82.707340,Pisgah Hwy
185,35.308293,-82.670525,Goldmine Ridge
185,35.123822,-82.914407,Indian Creek Dr
160,35.092104,-82.864715,Little Cabin Rd
216,35.251737,-82.707615,Cherry St/Spruce St
160,35.140245,-82.685359,Cardinal Rd/Pheasant Run
160,35.273432,-82.638124,/New Hendersonville Hwy
160,35.263819,-82.709925,Welcome St
334,35.245842,-82.716719,Old Hendersonville Hwy/Azalea Ave
216,35.257112,-82.709418,Medical Park Cir
334,35.249213,-82.714256,Tutor Ln/Danbury Ln
390,35.274527,-82.707135,Pisgah Hwy
160,35.239317,-82.736600,Whitmire St
160,35.265615,-82.714131,/Asheville Hwy
160,35.143028,-82.743038,Unoga Ct/Duya Ct
185,35.321362,-82.652917,Sandrock Trl
216,35.242480,-82.735113,Peace Dr
216,35.273384,-82.640711,Crab Creek Rd/Hendersonville Hwy
276,35.209925,-82.750283,/Camp Illahee Rd
160,35.238847,-82.719759,Broadview Cir/Neely Rd
246,35.245631,-82.717241,Old Hendersonville Hwy
246,35.261982,-82.715643,Doty Dr/Asheville Hwy
185,35.225003,-82.732100,Grove St/Grove Cir
160,35.232687,-82.740170,Oakdale St/Jenkins Row
246,35.262079,-82.715629,/Asheville Hwy
160,35.323172,-82.658357,McGuire Rd
160,35.287168,-82.689077,Asheville Hwy
246,35.262081,-82.715416,Asheville Hwy
216,35.235096,-82.731841,Appletree St/Faith St
334,35.249800,-82.711354,York Cir/Tree Haven Dr/Osborne Rd
160,35.244894,-82.730456,Moose Lodge Rd
160,35.211116,-82.708673,Crestview Dr
185,35.235068,-82.742528,Brown Ave
631,35.238433,-82.728940,Kings Creek Loop
160,35.222650,-82.729109,Tore's Dr
160,35.196082,-82.782565,US Hwy 64
160,35.137184,-82.951393,Ivy Ridge
185,35.255051,-82.711813,Hospital Rd
246,35.223958,-82.704420,Wilson Rd/Elm Bend Rd
185,35.228605,-82.752998,/Keystone Camp Rd
160,35.278369,-82.621622,Stoney Brook Rd
160,35.229672,-82.744159,Silversteen Dr/Carolina Ave
160,35.252158,-82.717804,Private Rd
305,35.252161,-82.720875,Straus Pkwy/Asheville Hwy
418,35.271995,-82.706149,US Hwy 64/Asheville Hwy/Ecusta Rd
185,35.234019,-82.740117,Cunningham Dr/Carver St
160,35.129026,-82.706506,/Lyncrest Dr
160,35.228574,-82.720099,Warren Ln
246,35.249644,-82.708270,Old Hendersonville Hwy
160,35.135079,-82.952358,Club Colony/Cherokee Trce
185,35.088588,-82.866394,Wilds Ridge Rd/Wilds Lake Rd
160,35.241185,-82.743661,Hampton Rd
276,35.251611,-82.721050,Asheville Hwy
160,35.270535,-82.680833,Surrette Dr/New Hendersonville Hwy
216,35.231268,-82.738373,Oakdale St/Orange St
160,35.241198,-82.720652,Private Rd
185,35.221504,-82.732784,Maple St/Maple St Exd
160,35.100034,-83.002859,Cucumber Ct
334,35.087056,-82.871463,/Camper Xing
160,35.225916,-82.723549,Private Rd
160,35.134811,-82.769880,Bird Haven Ln
160,35.240021,-82.744104,/W Probart St
185,35.247317,-82.720417,Rhododendron Dr/Oakdale Rd
390,35.249025,-82.713520,Tutor Ln
160,35.142613,-82.948657,Toxaway Shores
160,35.395191,-82.763369,/Blue Ridge Pkwy
160,35.267349,-82.677843,Kemp Rd
160,35.268709,-82.680606,Cresent Dr
185,35.228432,-82.740249,Silversteen Dr/Aiken St
246,35.241714,-82.724106,Yongue St/Owen St
160,35.251070,-82.728412,Fox Cross Dr/Deerlake Rd
160,35.124619,-82.915280,Indian Eagle Way
160,35.229739,-82.744326,Cashiers Valley Rd/Carolina Ave
160,35.093209,-82.864913,/Fellowship Way
246,35.084885,-82.871150,/Cross Creek Dr/Cabin Creek Rd
160,35.266774,-82.707847,Hillside Hts
305,35.234779,-82.734423,Probart St
160,35.181907,-82.794175,Garland Dr/Garland Ct
160,35.198661,-82.766055,Island Ford Rd/Pole Miller Rd
160,35.135775,-82.933033,State Hwy 281 N
216,35.252821,-82.701805,/Old 64
185,35.102863,-83.009257,Whisper Lake Dr/Wildberry Ct/Sunrise Ridge
160,35.193697,-82.791005,Ross Rd
160,35.317524,-82.659041,McGuire Rd/Asheville Hwy
160,35.210090,-82.743515,Evergreen St/Ridgewood Pl
160,35.076486,-82.776497,/Glady Fork Rd
185,35.117608,-82.942817,Echo Springs Pt
185,35.227203,-82.738349,S Caldwell St/Colwell Dr
246,35.230511,-82.734941,Maple St/Gaston St/S Gaston St
160,35.224795,-82.717605,Elm Bend Rd
631,35.243278,-82.723198,Hillcrest Ave/Old 64/Old Hendersonville Hwy
160,35.148720,-82.735139,Cheestoonaya Way
160,35.143215,-82.822298,Chestnut St
160,35.273645,-82.701162,Deavor Rd
2435,35.236284,-82.728993,/W Campus Dr
160,35.112695,-82.958557,US Hwy 64/Youngeblood Ln
160,35.213693,-82.701840,Three Mile Knob Rd
160,35.243641,-82.753170,Patton Ln
160,35.151317,-82.821040,/Bryson Rd
160,35.241882,-82.747085,Applebrook Ln
185,35.233879,-82.739028,Carver St/S Oaklawn Ave
276,35.256347,-82.713031,Hospital Rd/Medical Park Dr
160,35.225574,-82.724327,Private Rd/Greenville Hwy
418,35.235252,-82.733143,N Broad St/Kelly's Aly
216,35.232101,-82.728793,Franklin St/Lakeview Ave
185,35.091735,-82.863530,/Wilds Ridge Rd
216,35.134025,-82.769530,Bird Haven Ln
160,35.208217,-82.708226,Bear Track Trl/Crestview Dr
160,35.214002,-82.752565,Buena Vista Dr
185,35.235534,-82.736032,W Probart St/N England St
185,35.221714,-82.729675,Gallimore Rd/Mountain Glen Dr
160,35.308505,-82.638153,Lassiter Dr/King Rd
334,35.238648,-82.736238,W French Broad Ave/W French Broad St
160,35.294052,-82.625855,Hood Hill Dr/New Hendersonville Hwy
160,35.226072,-82.733134,/Maple St
334,35.242673,-82.724596,Owen St/Old Hendersonville Hwy/Old 64
305,35.273086,-82.704741,US Hwy 64
160,35.316262,-82.659635,Colton Dr/Winnford Ln
185,35.245850,-82.719257,Highland Rd
160,35.245112,-82.731131,Mc Lean Rd/Fisher Rd
160,35.248811,-82.697565,Wilson Rd
160,35.232201,-82.705325,Middlemount Rd
216,35.154245,-82.714823,Usdasdi Dr/Walelu Ct
160,35.236622,-82.734770,Salem St/King St
216,35.256730,-82.716755,Hospital Rd/Hospital Dr/N Broad St/Asheville Hwy
276,35.240492,-82.730770,Four Seasons Plz
762,35.233213,-82.733124,E Main St/W Main St/Gaston St
185,35.109950,-82.958249,Youngeblood Ln
160,35.257149,-82.718627,Stone House Rd/Straus Pkwy
305,35.244513,-82.727650,Fisher Rd
216,35.232924,-82.724894,E French Broad Ave/W Woodsong Ln
185,35.244328,-82.731604,Fisher Rd
418,35.239468,-82.731592,College Station Dr
160,35.138048,-82.864714,US Hwy 64/Windy Hollow Dr
160,35.201356,-82.778376,Catheys Creek Rd
160,35.123263,-82.828105,/Queen Dr/Old Toxaway Rd
160,35.132855,-82.819747,Pickens Hwy
160,35.232400,-82.741011,Jenkins Row
526,35.236540,-82.732084,W French Broad Ave/N Broad St/E French Broad Ave
362,35.235953,-82.733751,N Caldwell St/King St
160,35.230032,-82.696912,Gordon/Glen Cannon Dr
160,35.222506,-82.736832,Country Club Rd
160,35.273711,-82.701283,Deavor Rd
160,35.239676,-82.743056,Rosenwald Ln/W Probart St
362,35.233493,-82.735980,S Caldwell St/Jordan St
185,35.234218,-82.740313,Cunningham Dr
160,35.252840,-82.707543,Spruce St
160,35.216548,-82.751091,Sky View Ter
216,35.250164,-82.712999,Oak Park Dr/Osborne Rd
160,35.214188,-82.752410,Buena Vista Dr
160,35.236957,-82.739167,W Probart St/Galloway St
160,35.071577,-82.871194,Round Mtn Rd/Bear Pen Hollow
160,35.261218,-82.706071,Morris Rd/Ecusta Rd
1278,35.237066,-82.727401,Kings Creek Loop/Alumni Dr
160,35.173141,-82.795133,Joshua View Dr
160,35.124836,-82.936095,N East Shore Dr/E Shore Dr
160,35.268360,-82.711242,Maple Grove Ln/Asheville Hwy
334,35.226187,-82.737507,Country Club Rd
185,35.215286,-82.755879,Rosman Hwy/US Hwy 64/Byrd Ln
362,35.271022,-82.707245,/Asheville Hwy
160,35.214989,-82.741463,Woodland Ter/Sweet Summer Ln
305,35.251282,-82.721162,N Broad St/Brian Berg Ln
185,35.143337,-82.838598,State Hwy 215/US Hwy 64
160,35.248313,-82.727347,Cambridge Dr
160,35.282881,-82.721594,/US Hwy 276
160,35.272783,-82.700657,New Hendersonville Hwy
185,35.221517,-82.732075,Overlook Dr/Maple St
160,35.216965,-82.662865,McDonald Ct/Pisgan Forest Dr
216,35.231067,-82.745941,Unity Dr
160,35.319304,-82.660556,McGuire Rd/McGuire Loop
362,35.242230,-82.727489,Montview Cir/Fisher Rd
305,35.273136,-82.704810,US Hwy 64
160,35.222124,-82.736617,Country Club Rd/Turnpike Rd
160,35.171194,-82.807927,Morgan Mill Rd/Good Neighbor Ln/Reynolds-Wood Dr
418,35.242356,-82.752052,/Andante Ln
160,35.251890,-82.717862,Private Rd/Oak Park Dr
216,35.234153,-82.729367,Appletree St
579,35.237448,-82.730991,/Brevard College Dr
160,35.218528,-82.745289,Glazener Rd
160,35.181824,-82.794733,/Little Egypt Rd
334,35.238653,-82.736239,W French Broad Ave/Railroad Ave
658,35.275565,-82.703360,/Turkey Creek Rd
160,35.219515,-82.729919,Sugar Loaf Rd
160,35.266242,-82.690437,Fulcher Dr
185,35.224973,-82.728771,E Main St/Wilson Dr
160,35.195426,-82.782880,US Hwy 64
160,35.257568,-82.718826,Stone House Rd/Clock Tower Ln
160,35.215997,-82.754119,Rosman Hwy/US Hwy 64
160,35.179685,-82.794838,Taylor Dr
418,35.244568,-82.723940,/Asheville Hwy
160,35.253362,-82.683772,Everett Rd/Old 64/Old Hendersonville Hwy
185,35.235375,-82.727302,Robinson Ave
160,35.215286,-82.737101,Country Club Rd
160,35.242055,-82.734402,Hollycrest Dr/Peace Dr
160,35.239971,-82.719579,Cedarcrest Dr
160,35.233506,-82.742920,Hillview Cir/Hillview St
276,35.233273,-82.721504,Morningside Dr/Park Ave
160,35.207900,-82.764765,Rosman Hwy/Tom Rogers Rd/Selica Rd
216,35.218476,-82.735869,Country Club Rd/High School Rd
160,35.229626,-82.738662,S Caldwell St/Silversteen Dr
160,35.261437,-82.708782,Morris Rd/Temple Church Rd
160,35.194155,-82.783524,US Hwy 64
276,35.225496,-82.735215,Laurel Ln
160,35.270886,-82.688892,Upper Glade Creek Rd/Old 280
185,35.230822,-82.737806,S Caldwell St/Oakdale St
472,35.273302,-82.704431,US Hwy 64
362,35.234485,-82.733775,N Broad St/Probart St/E Probart St
160,35.114012,-82.834545,Jennifer Ln
160,35.183441,-82.765068,Pinecrest Dr
305,35.248888,-82.715038,Knight Ct/Hopewell St
160,35.236893,-82.673707,Aberdeen Ln
160,35.088073,-82.867294,Wilds Lake Cir/Wilds Ridge Rd
160,35.261696,-82.711613,Morris Rd
160,35.103669,-82.964082,Round Top Mountain Crest Rd
160,35.223694,-82.739075,Downing Park Ct/Gillespie Rd
160,35.272438,-82.699585,/New Hendersonville Hwy
160,35.327188,-82.649719,Asheville Hwy
160,35.239370,-82.736827,Whitmire St
160,35.251507,-82.727805,Quail Run/Fox Cross Dr
185,35.225333,-82.729116,Wilson Dr
160,35.226226,-82.724806,Greenville Hwy/Trowbridge Ln/Gallimore Rd
185,35.273424,-82.641644,Hendersonville Hwy/New Hendersonville Hwy
160,35.327185,-82.646007,Cock's Comb Ln/Turkey Pen Gap Rd
185,35.237558,-82.719197,Broadview Cir/Neely Rd
185,35.252718,-82.721540,Market St
185,35.233945,-82.739404,Carver St
216,35.142425,-82.820641,Ashe Rd/Old Rosman Hwy
160,35.137737,-82.682727,Frazier Rd/White Oak Ter
185,35.232188,-82.723449,E French Broad Ave/Park Ave
185,35.276968,-82.687354,Cash Dr/Old Bunyan Wilson Rd
160,35.261017,-82.712777,Tuckaway Ln
185,35.240929,-82.723816,Owen St/College Inn Ln
160,35.148182,-82.647026,Greenville Hwy/Cascade Lake Rd
185,35.147382,-82.833323,Rosman Hwy/US Hwy 64
160,35.226289,-82.727241,Deacon Ln/E Main St
160,35.211983,-82.737969,N Country Club Rd
160,35.268491,-82.711016,/Asheville Hwy
160,35.226573,-82.725056,Greenville Hwy/Manor Dr
160,35.268373,-82.710956,Asheville Hwy
160,35.239486,-82.720162,College Row/Neely Rd
160,35.299938,-82.676667,/Asheville Hwy
160,35.216176,-82.662444,McDonald Ct
160,35.135705,-82.935985,Lsland Pt
160,35.143356,-82.821974,Eastatoe St/Chestnut St
185,35.136768,-82.938503,Innsbrook Dr
160,35.226061,-82.724219,Sapphire Manor Rd
499,35.239517,-82.730063,N Broad St/College Station Dr
185,35.320812,-82.654223,Little Holly Ln/Baynard Rd
160,35.124287,-82.913440,/Indian Creek Dr
276,35.233270,-82.726922,Franklin St/Lakeview Ave
160,35.251827,-82.716548,Oakwood Dr/Oak Park Dr
185,35.211705,-82.742261,Redwood St/Evergreen St
160,35.267525,-82.712107,/Asheville Hwy
185,35.249553,-82.719979,Laurel Ln/Osborne Rd
216,35.240341,-82.744836,/Probart St
160,35.195263,-82.783338,Nora's Way
160,35.119456,-82.950093,Lakeside Dr/Lakeside Trl
160,35.225447,-82.727960,E Main St
185,35.241084,-82.744794,Hampton Rd
305,35.252960,-82.708737,Idlewood St
160,35.221517,-82.731599,Jordan Rd/Maple St
160,35.235546,-82.741942,West Ln/Brown Ave/Brown Ln
160,35.266684,-82.707411,Hillside Hts
185,35.253851,-82.700409,Blythe Park Dr/Old 64
160,35.223179,-82.742329,Rosman Hwy/Carolina Ave
160,35.143915,-82.689418,Robin Hood Rd
160,35.103280,-83.006930,Beaver Ct/Sunrise Ridge
472,35.239591,-82.730027,N Broad St
160,35.232583,-82.722957,Elks Club Rd/Park Ave
246,35.252591,-82.720692,N Broad St/Asheville Hwy
160,35.194712,-82.794180,Ross Rd
160,35.251862,-82.703744,Old 64 Old Hendersonville/Old Hendersonville Hwy
160,35.282361,-82.719702,US Hwy 276
185,35.215032,-82.756410,Rosman Hwy/Cashiers Valley Rd
246,35.262565,-82.715558,Asheville Hwy
160,35.219889,-82.735430,Country Club Rd/Gillespie Cir
160,35.276474,-82.692920,Holden Rd
185,35.238003,-82.740142,W Probart St/Thomas St
160,35.172032,-82.723002,Bobcat Trl
185,35.263464,-82.706163,/Welcome St/Ecusta Rd
160,35.193370,-82.790703,Ross Rd
160,35.260399,-82.634300,Crab Creek Rd/Heath Rd
246,35.261981,-82.715376,Doty Dr
185,35.234458,-82.724596,Hilt St/Hilt St Exn
185,35.137154,-82.937802,Innsbrook Dr/Toxaway Landing Dr
185,35.199282,-82.718409,Alfred Dr
968,35.274239,-82.705748,Pisgah Hwy
160,35.214679,-82.741498,Woodland Ter/Holly Ln
276,35.224255,-82.727863,Wilson Dr/Gallimore Rd
334,35.226316,-82.737508,Country Club Rd/S Broad St
185,35.144745,-82.821873,Church St Exn/Church St/Old Rosman Hwy
