Estimated daily crossings,Latitude,Longitude,Name
160,36.099023,-81.280837,W State Hwy 268
246,36.216244,-81.165561,Sparta Rd
276,36.163907,-81.141333,D St
160,36.097271,-81.188839,Germantown Rd
185,36.176151,-81.196057,Prospect Dr/Boone Trl
160,36.169782,-81.217949,Shannon View St/Pads Rd
160,36.158559,-81.145788,9th St
160,36.121445,-81.278154,/Goshen Pt
185,36.255737,-80.872243,State Hwy 268
160,36.178617,-81.147455,W Waugh St
160,36.235126,-80.905546,/Elkin Hwy
160,36.146789,-81.317359,Dragway/US Hwy 421
216,36.161879,-81.146142,8th St/D St
160,36.143843,-81.277103,Deer Cree Ln
216,36.144607,-81.279696,/US Hwy 421
185,36.205152,-81.158083,Sparta Rd
160,36.236044,-81.069015,Rock Creek Rd/Bethany Ford Rd
160,36.250134,-80.873822,Wilkes St
160,36.106953,-81.208245,/Germantown Rd
216,36.209291,-81.160243,Craig St/Sparta Rd
216,36.151932,-81.142417,/Winston St
185,36.195918,-81.140304,Fairplains Rd
160,36.170422,-81.151689,Willard St/Elizabeth St
216,36.149956,-81.179632,Bus 421/Curtis Brg
185,36.174267,-81.149008,Gwyn St/Finley Ave
160,36.155477,-81.093140,Butternut Rd
216,36.162491,-81.235186,State Hwy 16/Raven-Midlawn
160,36.144887,-81.304019,/US Hwy 421
445,36.160297,-81.145196,N 8th St/Kensington Dr
185,36.216413,-81.163882,Peach Blossom Ln
334,36.136003,-81.146541,Oakwoods Rd/Oakwood Rd
185,36.158198,-81.161373,Boone Trl/Locust St
160,36.285307,-80.895480,Smokey Ln
160,36.130245,-81.148611,Charmette Dr
185,36.135959,-81.162023,/State Hwy 16
160,36.183755,-81.258899,/Boone Trl
216,36.127502,-81.467159,/Fais Doedoe Rd
216,36.199384,-81.163846,Byrd Ridge Rd
185,36.147524,-81.318225,Shaw
160,36.170082,-81.131246,Colonial Dr/
160,36.185513,-81.150025,Sparta Rd
160,36.170821,-81.227598,Green Acres Rd/Smitheys Country Ln
160,36.146592,-81.159165,/W Main St
160,36.179171,-81.128239,Colonial Dr
160,36.122450,-81.480610,/Elk Creek Darby Rd
185,36.141881,-81.164055,College St
160,36.099265,-81.181386,Moravian Falls Rd/Norway Dr
185,36.192474,-81.110495,/Skyview Dr/Elkin Hwy
160,36.201890,-81.102863,Pine Creek
160,36.143223,-81.167538,Elm St
160,36.123690,-81.224615,Lake Ridge
276,36.197621,-81.153063,Jones Dancy St
160,36.174467,-80.976381,Mathis Mills Rd/Cranberry Ridge Rd
160,36.240902,-81.044990,Dowell Ridge Rd/Badger Ridge Ln
160,36.178372,-81.148414,W Waugh St
216,36.189162,-81.125352,Clonch Dr
185,36.234378,-81.177274,Mulberry Mill Rd/Sparta Rd
185,36.197431,-81.428089,Fall Creek Rd/US Hwy 421
185,36.145238,-81.106020,Statesville Rd/Mimosa Ln
160,36.217553,-81.061197,Wings
185,36.098385,-81.164008,Longview Dr
185,36.142239,-81.169209,River St
160,36.152466,-81.117804,State Rd 2449/Hunter Rd
160,36.179163,-81.146739,W Waugh St/Rhodes St
160,36.233035,-80.913311,Blevins Dr/
160,36.162876,-81.187309,Curtis Bridge Rd
160,36.161513,-81.168969,Friendship Cross St
185,36.132655,-81.209493,W State Hwy 268/Old Nc 268
160,36.205289,-81.244353,N State Hwy 16/Arbor Grove Church Rd
160,36.215452,-81.001570,White Plains Rd/State Rd 1997
160,36.251750,-80.874121,Elkin Hwy
160,36.148473,-81.324062,W Wilkes Medical Center Rd/Champion Mount Pleasant Rd/Champion Mt Pleasant Rd
185,36.166166,-81.131099,Orange St/Beech St
185,36.139109,-81.080691,421
160,36.162681,-80.992703,/Red White & Blue Rd
305,36.153560,-81.159700,W Park
185,36.178707,-81.230516,Green Acres Hill St/Green Acres Rd
276,36.187707,-81.151479,Gilreath Brook St
160,36.163258,-81.187509,Boone Trl/Curtis Bridge Rd/Big Pine Ln
160,36.313486,-80.871983,Briarwood Willow Rd
185,36.122971,-81.167446,Moravian Falls/16
216,36.188506,-81.125128,Clonch Dr
160,36.180432,-81.157614,Sumerset Ln/Sunset Dr
160,36.161859,-81.190779,Congo Rd/Crysel Rd
160,36.179340,-81.143170,/Elkin Rd
445,36.150072,-81.199030,/US Hwy 421
185,36.233855,-80.915923,Calvary Rd/Elkin Hwy
160,36.255571,-81.126849,Huie Rd
160,36.165897,-81.190694,Boone Trl
185,36.300162,-81.114753,Shumate Mountain Rd
160,36.196555,-81.164261,/Byrd Ridge Rd
160,36.180323,-81.146441,Felts St/Sparta Rd
216,36.365026,-80.931902,US Hwy 21/Scenic Acres
185,36.148129,-81.260232,/US Hwy 421
216,36.122968,-81.167616,Moravian Falls
216,36.096546,-81.182467,Moravian Falls Rd/Germantown Rd
216,36.141145,-81.171415,/River St
216,36.180908,-81.160870,Myers Park Dr
160,36.172211,-81.192903,Cricket Clubhouse Rd/Welcome Home Rd
160,36.088807,-81.189065,Falls Rd
160,36.296015,-81.001250,King Billings Rd/N Lomax Rd
390,36.252058,-80.872413,Elkin Hwy
160,36.134382,-81.146616,Brushy Mountain Rd/421
472,36.251980,-80.877444,Austin Traphill Rd
160,36.175927,-81.146870,Reynolds Rd/Finley Ave
160,36.147908,-81.321823,/Champion Mount Pleasant Rd
160,36.144155,-80.880365,/Splitrail Dr
160,36.148325,-81.155714,North St//Woodland Blvd
160,36.179407,-81.143107,268
216,36.137134,-81.176792,School St/Holly Cir
160,36.186825,-81.139815,White Pine St
160,36.116351,-81.254792,Travelers Rest Rd/W State Hwy 268
246,36.160388,-81.146966,C St/9th St
160,36.140397,-81.207252,Mourn Rouge Rd
216,36.152435,-81.141992,Salem St
160,36.184659,-81.255788,/Boone Trl
246,36.216295,-81.164280,Shatley Orchard St/Cherry Stone Ln
246,36.216145,-81.164376,Crabapple Ln/Shatley Orchard St
160,36.173322,-81.194060,/Boone Trl
160,36.283612,-80.921842,/Greenhorn Rd
160,36.260808,-80.965029,Tharpe Rd/S Lomax Rd
160,36.183265,-81.263828,Boone Trl
160,36.185951,-80.901171,Cedar Forest Rd/Outback Rd
185,36.272767,-80.886147,el Cox Rd/Cb Eller School Rd
160,36.165658,-81.213215,Pads Rd
246,36.178904,-81.145461,Elkin Hwy/Sparta Rd/2nd St
185,36.155386,-81.343390,S Goforth/US Hwy 321
185,36.182641,-81.149179,Sunset Dr
160,36.214424,-81.133141,Mountain View Rd
160,36.068081,-81.252458,Boomer Comm Center Rd
160,36.151333,-81.176998,Bus 421/W D St
160,36.107396,-81.208523,/Germantown Rd/Mt Carmel Rd
185,36.140834,-81.070061,421/Fishing Creek Rd
160,36.124847,-81.312904,Red Top Rd
160,36.149077,-81.228752,Browns Ford Rd
216,36.177758,-81.150171,W Waugh St/Browns Waugh St
160,36.151568,-81.275272,/Pilgrim Church Rd
216,36.143081,-81.289846,US Hwy 421
185,36.175243,-81.143943,O St/Reynolds Rd
160,36.177005,-81.146094,Finley Ave/Hill St
276,36.158550,-81.159227,/Boone Trl
160,36.209950,-81.024262,Elkin Hwy/Smith Ridgecrest Rd
185,36.146402,-81.142290,/Oakwoods Rd
185,36.139691,-81.159275,S Cherry St
185,36.158550,-81.148593,B St/Cbd Loop
160,36.150762,-81.011209,Byrd Farm Rd/US Hwy 421
160,36.292817,-81.078942,Wiles Ridge Rd
246,36.150767,-81.181817,Curtis Bridge Rd
160,36.179416,-81.143512,/268
160,36.154395,-80.930831,421/Clingman
185,36.208613,-81.160149,/Sparta Rd
185,36.154962,-81.343613,S Goforth/S Goforth Rd
160,36.154910,-81.207001,Congo Rd/Winkler Mill Rd
216,36.146305,-81.107214,Statesville Rd/Beshears St
160,36.031314,-81.294677,Brace
160,36.122126,-81.168535,/State Rd 1194
246,36.198086,-81.151561,Fairplains Rd
185,36.146438,-81.159722,N Spruce St/W Main St
160,36.253474,-81.142343,Haymeadow Church Rd/
160,36.149393,-81.219379,State Rd 1182/Laurelwood Dr
160,36.219328,-81.218570,Goddard Ln/Perry Dr
216,36.171326,-81.150161,Trogdon St/Hinshaw St
160,36.145758,-81.078179,Speedway Rd/Old US 421 Rd/Speedway Ln
605,36.150277,-81.189370,/Winkler Mill/State Hwy 16
216,36.098655,-81.181482,Country Club Rd/Moravian Falls Rd
160,36.130388,-81.161345,Oak Hill Dr/
276,36.151511,-81.141682,Hayes St/Salem St
216,36.163906,-81.146632,F St
160,36.191993,-81.125905,/Aaron Call Rd
160,36.182908,-81.152150,Sunset Ridgewood Dr/Sunset Dr
185,36.063479,-81.195130,Apple Hill
246,36.172446,-81.151105,Finley St/Cowles St
160,36.178769,-80.916706,/Victory Ln
185,36.154196,-81.157650,Willow Ln
362,36.144619,-81.163887,N Brook St/W Main St/River St
160,36.171955,-81.201526,Cricket Pl
246,36.163120,-81.137737,Chestnut St
185,36.115168,-81.177689,/Moravian Falls Rd
160,36.143612,-81.280890,/Fox Rd
334,36.150431,-81.186990,US Hwy 421/Bus 421
276,36.138298,-81.103345,Statesville Rd/Exit 282
160,36.244983,-80.889407,Pardue Creek/Elkin Hwy
160,36.145355,-81.078063,Speedway Ln
160,36.212103,-81.033447,/Foster Trailer Park Rd
334,36.177548,-81.145409,Rhodes St/Finley Ave
185,36.167385,-81.191679,Boone Trl/Milton Dr
160,36.142946,-81.175111,/US Hwy 421
160,36.161103,-81.211396,Numa Church Rd/Winkler Mill Rd
185,36.166741,-81.145382,/H St
276,36.156512,-81.162543,W D St
160,36.142063,-81.159741,Church St
276,36.157831,-81.164485,/Hickory St
185,36.086730,-81.181188,/Coley
216,36.145847,-81.315570,Rest Home Rd
185,36.234316,-81.052729,Gayla Dr
185,36.188086,-81.236068,Boone Trl/Raintree Dr
185,36.140153,-81.159098,Corporation St/James
185,36.195390,-81.152082,Thomas St
185,36.172494,-81.147648,N St/Swain St Exd/Swain St
160,36.077902,-81.162646,E Brocktown Rd/State Rd 2486/E Meadows Rd
160,36.147780,-81.173571,Lenderman St
160,36.151148,-81.018442,Exit 277
472,36.164596,-81.142414,5th St/E St
160,36.179657,-81.199472,Boone Trl/Avery Ln
160,36.147469,-81.264057,US Hwy 421
276,36.159339,-81.148058,10th St/
160,36.130167,-81.163337,Woodfield Way/Gilreath St
160,36.166050,-81.144149,/6th St/G St/5 1/2 St
185,36.133231,-81.070294,Fishing Creek Arbor Rd/
185,36.296818,-80.928986,/Austin Traphill Rd
160,36.163680,-81.144579,/E St
160,36.179310,-81.142996,/Flint Hill Rd/Elkin Hwy
160,36.185563,-81.254491,Boone Trl/Franks Dr
160,36.162015,-81.274448,/Hamby Mountain Rd
276,36.151112,-81.182120,Curtis Bridge Rd/Old Nc 16 Rd
246,36.143329,-81.169568,Welborn Ave
185,36.141307,-81.069026,US Hwy 421
185,36.141527,-80.877803,421
160,36.136079,-81.165840,Frazier St
246,36.147687,-81.158425,N Pine St/Overlook Pl
185,36.300765,-81.005801,/Stoney Ridge School Rd
185,36.142963,-81.098390,Speedway Rd/Old US 421 Rd/Breeze Hill Rd
160,36.161063,-81.146655,/Gordon Ave
276,36.149941,-81.179922,Bus 421
160,36.151813,-81.140316,Hayes St
160,36.149137,-81.152067,North St/N Bridge St/E North St
160,36.204151,-81.323246,Parsonville Rd
160,36.131327,-81.165216,Woodfield Way
185,36.196053,-81.195184,/Nelson Ln
160,36.310772,-80.883163,/Pleasant Ridge Rd
246,36.164871,-81.144377,F St/6th St
216,36.144465,-81.281379,US Hwy 421/Fox Rd
185,36.131980,-81.148916,Industrial Park Rd
276,36.165266,-81.131452,/Statesville Rd
305,36.137575,-81.179601,Moravian Creek
445,36.149962,-81.188346,Tyson
160,36.116206,-81.255293,W State Hwy 268/Jess Walsh Rd
160,36.181057,-81.121648,State Rd 2387
185,36.146840,-81.317463,US Hwy 421/Dragstrip Rd
185,36.150829,-81.142713,Barber St/E Main St
160,36.203128,-81.150206,Bell Court Dr
216,36.146813,-81.169269,Curtis Bridge Rd/Westview Dr
160,36.165596,-81.141348,4th St/
390,36.251486,-80.876611,Elk Spur St/Elkin Hwy/Austin Traphill Rd
246,36.149920,-81.181992,Curtis Bridge Rd/US Hwy 421 Bus/Old Nc 16 Rd
160,36.144250,-81.189557,Industrial Dr
160,36.181569,-81.147575,Shady Ln/Sparta Rd
185,36.063965,-81.212802,Hidden Hollow Ln
305,36.149906,-81.180857,Curtis Bridge Rd/Bus 421
160,36.081884,-81.182212,S State Hwy 16/
216,36.160358,-81.143228,7th St
334,36.144953,-81.177237,State Hwy 16
246,36.144942,-81.055847,421
160,36.246877,-81.055049,/Evergreen Ln
160,36.264567,-80.897374,Austin Traphill Rd
160,36.154139,-80.993623,421/Red White & Blue
160,36.173588,-81.376170,US Hwy 421
185,36.250915,-80.873736,Elk Spur St/Wilkes St
160,36.186705,-81.249328,Boone Trl/Pierce Ln
185,36.193973,-81.285808,Little Wesley Ln/Old Hwy 60
160,36.126928,-81.285235,Rocky Ln
160,36.202249,-81.149854,Bell Court Dr/Mountain View Rd
185,36.168133,-81.138042,/2nd St
185,36.122711,-81.481392,/Elk Creek Darby Rd
160,36.088206,-81.235906,Hillview Ln//Gunters Hill Rd
160,36.145938,-81.215082,Middle Brook Dr
185,36.239596,-81.106123,Airport Rd
216,36.148413,-81.258611,S Minton Rd/US Hwy 421/N Minton Rd
160,36.165428,-81.234258,Green Acres Rd/McClanery Rd
710,36.136500,-81.181752,S Collegiate Dr
185,36.135384,-81.103421,/Exit 282
246,36.143880,-81.167849,Welborn Ave/Elm St
185,36.147381,-81.140226,Valley Dr/Hillcrest Dr
160,36.232203,-81.051449,/Dowell Ridge Rd
160,36.235664,-80.903744,/Elkin Hwy
160,36.075598,-81.181443,/Jennings Farm Rd
185,36.249421,-80.875736,Carolina St
160,36.298785,-80.933159,/Austin Traphill Rd
185,36.119960,-81.170892,/State Rd 1194/Old N C Hwy 18 S
160,36.159457,-81.152917,13th St/D St
160,36.214792,-81.238651,Ponderosa Pl
160,36.166982,-81.147462,I St/7th St
185,36.149800,-81.323822,/Champion/mt Pleasant/US Hwy 321
160,36.281648,-81.028585,Lomax-Jolly Rd
160,36.159957,-81.153373,E St/13th St
185,36.152307,-80.926831,421
160,36.161273,-81.147540,9th St/D St
276,36.256755,-80.883272,/Austin Traphill Rd
185,36.146974,-81.317737,US Hwy 421
185,36.149686,-81.244854,/US Hwy 421
216,36.151916,-80.998603,421/Exit 276
160,36.173867,-81.376618,US Hwy 421
160,36.236182,-81.069121,Rock Creek Rd/Bethany Ford
362,36.165091,-81.130553,Statesville Rd/Beech St
160,36.165366,-81.127669,Orange St
160,36.135687,-81.144007,Walker St
160,36.223332,-81.112380,Wood Wallace/Airport Rd/Forester Ln
160,36.214794,-81.132857,Mountain View Rd
160,36.133735,-81.146474,Brushy Mountain Rd/
160,36.153210,-81.112956,Statesville Rd
216,36.138645,-81.179825,/S Collegiate Dr
160,36.165858,-81.078465,Parks Ridge Rd/Twin Oaks Ct
160,36.132977,-81.136936,US Hwy 421
185,36.164634,-81.128229,/Statesville Rd
160,36.250725,-81.116372,/Ricks Pl/Traphill Rd
160,36.142799,-81.160168,College St/S Cherry St
334,36.187688,-81.151104,Gilreath Brook St
160,36.183366,-81.262740,Boone Trl/Roark Ln
160,36.142816,-80.894833,421
216,36.172982,-81.120055,/River Liberty Grove Church Rd
160,36.167168,-81.148065,Foster Ln
160,36.153422,-80.987149,/US Hwy 421
185,36.164792,-81.220324,Dixie Hill Rd
216,36.159199,-81.364226,Boone Trail/old 421/US Hwy 421/Lewis Fork Baptist Church Rd
390,36.137646,-81.183569,Cynthia Ln/
185,36.239200,-81.106013,Airport Rd
160,36.192571,-81.088268,W Hickory Hollar Rd
216,36.234743,-81.175923,/Mulberry Mill Rd
160,36.187045,-81.149025,Roger St
185,36.167025,-81.134847,River Liberty Grove Church Rd/Massachusetts Ave
160,36.188470,-81.123425,/Elkin Hwy
160,36.176597,-81.144270,Elkin Rd/2nd St
185,36.169194,-81.151853,/Trogdon Ave
305,36.365111,-80.933123,US Hwy 21/Thurmond Rd
246,36.150538,-81.231786,State Hwy 16
216,36.156098,-80.930961,State Rd 2309
160,36.120146,-81.126013,Foxtrough Dr/Sedgefield Cir
276,36.139268,-81.103432,Statesville Rd/Hunter Rd
160,36.152977,-81.112611,Statesville Rd
216,36.097453,-81.163441,Hickory Ridge Rd/Walnut Way Ln
160,36.205180,-81.008615,Elkin Hwy
160,36.230943,-81.169421,Elso Rd
246,36.166009,-81.130184,Orange St
1123,36.149985,-81.202093,K St/US Hwy 421
185,36.124075,-81.118371,Mahogany
334,36.151443,-81.189998,Winkler St
160,36.199431,-81.146609,Otis Brown Dr/Hilltop Acres St
160,36.151434,-80.999405,US Hwy 421
160,36.158682,-81.260538,/Congo Rd
216,36.136886,-81.161542,US Hwy 421
160,36.167319,-81.216120,/Pads Rd
185,36.250267,-81.115943,/Traphill Rd
160,36.217815,-81.186250,Belle Brook Ave
390,36.188378,-81.238212,N State Hwy 16
216,36.218975,-80.963355,N Ridge Rd/Elkin Hwy
216,36.163372,-81.137556,B St
216,36.251082,-80.875448,Elk Spur St
160,36.199524,-81.224599,Linda Ln
160,36.229681,-80.923600,Elkin Hwy
216,36.156908,-81.161369,W Park Rd/W D St
216,36.249974,-81.115651,/Traphill Rd
160,36.167502,-81.151565,K St/Trogdon St
362,36.164814,-81.141915,E St
185,36.149747,-81.222942,US Hwy 421
185,36.155709,-81.173233,/Old Brickyard Rd
160,36.116169,-81.175790,Tates Ln/Andrews Ln
160,36.145077,-81.055065,421/Bear Hollow Ln
185,36.193750,-81.264878,Stonebridge Rd
160,36.155184,-81.169839,W D St/Magnolia St
160,36.155398,-80.930891,/Clingman
185,36.229342,-81.160258,Mulberry Fields Rd/Elledge Mill Rd
160,36.145740,-81.077947,Speedway Rd
160,36.188395,-81.123654,/Elkin Hwy
160,36.142702,-81.175142,/State Hwy 16
216,36.192609,-81.414622,Fletcher Creek/Shady Creek Ln/US Hwy 421
160,36.214525,-81.238362,Pleasant Home Church Rd/Ponderosa Pl
362,36.187673,-81.150746,Gilreath Brook St
185,36.169795,-81.150150,Franklin St
160,36.113919,-81.168438,Bull Run Dr
246,36.162638,-81.145998,E St
246,36.149577,-81.249629,US Hwy 421
160,36.231339,-81.052024,/Apache Dr
216,36.140940,-81.099477,Green Valley St/Green Circle Dr
185,36.235183,-80.905283,Elkin Hwy
216,36.228534,-81.165653,/Elledge Mill Rd
160,36.045372,-81.178663,State Rd 1191/Davis Rd
216,36.178793,-81.143555,White St/Elkin Hwy
216,36.151640,-81.203904,/Dancy St
160,36.272135,-81.111729,Dehart Community Center Rd/Traphill Rd
160,36.208274,-81.137051,Mountain View Rd/Sherwood Forest Dr
185,36.145082,-81.306594,US Hwy 421
185,36.132595,-81.209618,Old Hwy 268/W State Hwy 268
160,36.086671,-81.191150,/Falls Rd
160,36.231681,-81.052681,Rock Creek Church Rd/Dowell Ridge Rd
160,36.219188,-80.961180,/Elkin Hwy
185,36.121378,-81.152962,Woodfield Ln/Forest Dr
246,36.219136,-81.153060,Wildwood Shady Ln
185,36.163934,-81.138491,C St/3rd St
160,36.166273,-81.079564,Twin Oaks Ct
185,36.135220,-81.103007,Statesville Rd/Exit 282
160,36.200147,-81.094003,River Liberty Grove Church Rd/Airport Rd/Elkin Hwy
185,36.128442,-81.105884,Edgewood Rd/Clifford Ln
160,36.161239,-81.367655,/US Hwy 421
160,36.147731,-81.318639,Shaw/Churchview Dr
185,36.158195,-81.161719,Boone Trl/Sycamore
185,36.167134,-81.215968,/Pads Rd
160,36.138002,-81.146175,/Oakwoods Rd
185,36.057694,-81.219112,/Hidden Hollow
160,36.150535,-80.930423,State Rd 2309/Somers/US Hwy 421
160,36.140872,-81.070556,US Hwy 421
160,36.159526,-81.142657,Cherry St/Wilkesboro Ave
185,36.136827,-81.103188,Statesville Rd/US Hwy 421
160,36.079476,-81.268626,E Meadows Dr
160,36.166503,-81.148755,Toll Rd
160,36.146466,-81.046269,421
185,36.110391,-81.170650,State Hwy 16
160,36.333596,-81.049067,Twin Locust Rd/Traphill Rd
216,36.232925,-81.112686,Yale St
160,36.229554,-81.157369,Fields Rd
216,36.108187,-81.151688,Country Club Rd
160,36.165057,-81.149256,H St
160,36.178175,-81.186113,/Welcome Home Church Rd
334,36.145041,-81.177333,State Hwy 16
216,36.149818,-81.247983,US Hwy 421/Ridgecrest St
160,36.197967,-81.153793,Rosemont Dr/Dancy St
216,36.149276,-81.236471,Westgate Dr/W Gate
216,36.159226,-81.364316,Old 421 Hwy/US Hwy 421/Lewis Fork Baptist Church
160,36.203243,-81.216343,W Highland St/Millard Ln
160,36.135563,-81.144052,Walker St
160,36.159373,-81.188981,/Union Methodist Church Rd
160,36.198803,-80.875053,Armstrong Rd
160,36.122050,-81.147352,/Town & Country Cir
390,36.139040,-81.158870,James St
160,36.138680,-81.159762,S Cherry St
160,36.175359,-81.377759,State Rd 1400/US Hwy 421
160,36.208797,-81.457051,US Hwy 421/State Rd 1377
160,36.196556,-81.290322,Mountains Shadows Dr/Mtn Meadow Ln
185,36.192955,-81.151159,Troy Dr
160,36.250826,-80.872478,Elk Spur St
185,36.144650,-81.105394,Statesville Rd
216,36.121392,-81.125610,Fairview Ln/Sedgefield Cir
216,36.159088,-81.364403,US Hwy 321/Lewis Fork Baptist Church
305,36.252450,-80.878254,Austin Traphill Rd
160,36.161439,-81.233644,Raven Maple/Raven Pine Dr
160,36.169410,-81.217817,/Pads Rd
185,36.138022,-81.103326,Statesville Rd/C C Wright School Rd/Statesville
160,36.250590,-80.880756,State Hwy 268/Elkin Hwy
160,36.262409,-81.161332,/Dehart Church Rd
185,36.320258,-80.869172,W Forest Dr
160,36.159166,-81.163753,Summit Ave/Locust St
160,36.077507,-81.161946,E Brocktown Rd/State Rd 2486
160,36.149714,-81.209880,US Hwy 421
160,36.173348,-81.113577,River Liberty Grove Church Rd
185,36.148394,-81.320348,US Hwy 421
185,36.141944,-81.163771,/College St/S Brook St
160,36.162171,-81.142632,C St/6th St
185,36.152307,-80.997114,Exit 276
160,36.178259,-81.381748,US Hwy 421
160,36.145105,-81.284748,Hilltop Dr
160,36.173454,-81.146363,4th St
216,36.136484,-81.159006,US Hwy 421
185,36.176996,-81.197023,Boone Trl/Pegram Ln
185,36.157292,-81.160370,W D St
160,36.372244,-81.020239,John P Frank Pkwy
276,36.178234,-81.144303,Circle Dr
160,36.122751,-81.287124,Red Top Rd
185,36.144105,-81.104809,Statesville Rd/Holland St
185,36.045185,-81.179431,S State Hwy 16
160,36.219690,-80.936677,Elkin Hwy
160,36.208468,-81.221796,/Friendly Grove Church Rd
305,36.159481,-81.146395,9th St/B St
185,36.226251,-80.925517,/Elkin Hwy
216,36.148676,-81.150354,E Main St/East St
160,36.196333,-81.152915,Rosemont Dr
216,36.216459,-81.164148,Shatley Orchard St/Prickley Pear Ln
246,36.167544,-81.223678,Shannon View St
160,36.178444,-81.148064,W Waugh St
160,36.156472,-81.069903,Clark Rd/Fishing Creek Rd
216,36.151167,-81.203894,/Dancy St
185,36.114795,-81.134254,Country Club Rd/Brushy Mountain Rd/Country Club Rd Exd
160,36.245446,-81.093573,Rock Creek Rd/Rollingwood Dr
216,36.184595,-81.149102,Jolly St
160,36.149849,-81.109975,Old State Hwy 60
160,36.243820,-80.890730,Summit Ridge Dr/Elkin Hwy
216,36.149626,-81.248851,US Hwy 421
160,36.159467,-81.152873,/D St
160,36.221918,-80.928880,Elkin Hwy
185,36.255618,-80.881886,Little Arcadia Dr/Austin Traphill Rd
160,36.127779,-81.216553,Little Berry Ln
160,36.363401,-80.912292,Thurmond Rd
160,36.155115,-81.145323,Wilkesboro Ave/Independent Ave
160,36.138631,-81.159682,S Cherry St
160,36.130451,-81.161306,/Oak Hill Dr
160,36.176269,-81.149714,Laurel Dr
160,36.335683,-80.894226,Mountain Springs St
160,36.138201,-81.090688,US Hwy 421
160,36.332580,-80.900997,Mining Ridge Church Rd
160,36.143874,-81.179779,Golden Needles St
160,36.180631,-81.188580,Rolling Pine St/Welcome Home Church Rd
160,36.332916,-80.878646,/Old Hwy 21
160,36.090896,-81.177199,E Brocktown Rd
276,36.150532,-81.143828,E Main St
160,36.141278,-81.166818,College St/Spring St
160,36.133992,-81.143269,/US Hwy 421
160,36.178503,-81.382097,Pumpkin Run/US Hwy 421
526,36.149589,-81.184028,State Hwy 16
160,36.138558,-81.080706,Buel Call Dr/Bensmill Rd
160,36.129295,-81.117298,Jackson Dr/Bell Ave
160,36.152470,-81.117419,/Hunter Rd
185,36.142920,-81.180634,/Golden Needles St
160,36.203201,-81.216493,/Millard Ln
246,36.150948,-81.001335,Millard Mathis Rd/US Hwy 421
246,36.148557,-81.158719,Woodland Blvd/N Pine St
216,36.156666,-81.162098,W D St
185,36.255698,-80.878377,/Edwards Lynwood Rd/Edwards Lynwood Dr
160,36.203027,-81.255780,Arbor Grove Church Rd
160,36.213774,-80.895598,/Francis Gillian Ln
216,36.233336,-81.194711,Windy Faw St
185,36.053836,-81.314794,High Rock Rd
216,36.166083,-81.130532,/Orange St
362,36.145119,-81.177150,US Hwy 421
160,36.145225,-81.276959,/US Hwy 421
160,36.181443,-81.396476,/US Hwy 421
160,36.116167,-81.275927,Heron Pt
160,36.206836,-81.449830,State Rd 1389/US Hwy 421
390,36.154014,-81.160659,W Park Ln/W Park Dr/Willow Ln
160,36.162064,-81.190713,Congo Rd
160,36.072443,-81.254737,Gunters Hill Rd
552,36.149877,-81.204825,US Hwy 421
185,36.188940,-81.223012,Brook Valley St/Meadowbrook Ln
276,36.181380,-81.159585,Myers Park Ln
185,36.137584,-81.259349,S Minton Rd/Lake Forest Dr
185,36.145235,-81.142297,Oakwoods Rd/Stratford Rd
362,36.138876,-81.103400,/Statesville Rd
160,36.198718,-81.218828,Grand St
160,36.151371,-81.009695,Byrd Farm Rd
160,36.279621,-80.885316,/Carter Mill Rd
160,36.199679,-81.005289,/Roaring River Rd
185,36.258795,-80.876456,Pleasant Hill Dr
160,36.162180,-81.183613,/Jessies Park Dr
276,36.146534,-81.177550,Central St
160,36.143554,-81.191017,/Industrial Dr
160,36.163342,-81.139887,4th St/C St
160,36.221656,-81.144670,John McGrady Rd
160,36.168553,-81.149111,/K St
185,36.165873,-81.371703,/US Hwy 421
185,36.135474,-81.162244,16
216,36.139055,-81.179082,S Collegiate Dr/
160,36.212614,-81.158286,/Cartpath Rd
185,36.208417,-81.000017,Mastin Dr
160,36.145457,-81.274880,/US Hwy 421
160,36.240971,-81.044967,Badger Ridge Ln
216,36.248196,-80.873971,/Wilkes St
160,36.125830,-81.112490,Acorn Ave/Country Club Rd Exd
216,36.143337,-81.166325,/River St
185,36.135376,-81.162488,State Hwy 16
160,36.265481,-80.897969,/Austin Traphill Rd
390,36.187882,-81.238398,N State Hwy 16/Post Office Dr
160,36.137994,-81.143979,Oak Woods Rd
160,36.142902,-81.167370,River St/Elm St
185,36.169318,-81.373690,US Hwy 421
246,36.066889,-81.175449,Garden Dr
246,36.135468,-81.146584,Oakwoods Rd/Exit 285
185,36.336295,-80.894667,Hidden Chambers Dr/Mountain Springs St
216,36.149718,-81.210774,US Hwy 421
160,36.152147,-81.000425,Old Hwy 421
276,36.149691,-81.246249,Crestoak/US Hwy 421
160,36.313399,-81.361682,N State Hwy 16
276,36.153274,-81.201486,/Winkler Mill Rd
185,36.135877,-81.177954,College Ave
334,36.157595,-81.164321,/Hickory St
160,36.238089,-81.063765,Lindas Rd
160,36.134532,-81.146730,US Hwy 421/Oakwood Rd
185,36.136701,-81.161241,421/S Cherry St
216,36.188924,-81.248556,Pierce Ln
276,36.365091,-80.932976,Thurmond/US Hwy 21
185,36.119499,-81.255177,Goshen Ter/Jess Walsh Rd
160,36.160350,-80.969054,421
246,36.159060,-81.193410,Oakley Dr
390,36.252086,-80.872433,Elkin Hwy
216,36.227366,-81.199034,Windy Ridge Rd/Cora Caudill Rd
185,36.139658,-81.199462,/Industrial Dr
605,36.150136,-81.203890,State Rd 1323/Dancy St
160,36.135855,-81.155093,US Hwy 421
418,36.251410,-80.877488,/Elkin Hwy
160,36.251467,-80.879316,Elkin Hwy
185,36.169165,-81.151211,Trogdon Ave/Trogdon St
160,36.183795,-81.258522,/Boone Trl
246,36.162419,-81.144881,Kensington Dr/D St
160,36.119941,-81.474219,Meadow Rd/Stable Rd
160,36.191822,-81.110447,Skyview Dr
160,36.193528,-81.241005,Greenbriar Rd/Greenbriar Ln
216,36.166133,-81.191338,Union School Dr
160,36.139137,-81.145957,Call St/Oakwoods Rd
185,36.139376,-81.097418,H Anderson Rd
185,36.162552,-81.182388,Cricket Baptist Church Rd/Oak Ave
160,36.100393,-81.185680,Blue Eller Ln
185,36.187563,-81.235332,/Boone Trl/Caudill Ln
160,36.131452,-81.145284,Brushy Mountain Rd/Charmette Dr
276,36.149979,-81.246327,Crestoak Dr
185,36.189264,-81.238655,Boone Trl/Old Hwy 60
185,36.198093,-81.066595,/Rock Quarry Rd
246,36.215393,-81.163944,Sparta Rd
216,36.145903,-81.273149,Pilgrim Baptist Church Rd/US Hwy 421
160,36.134999,-81.343879,Champion Mount Pleasant Rd/Red Top Rd
216,36.158714,-81.148240,/B St
185,36.165548,-81.137310,Euclid Ave/D St
216,36.219659,-81.166202,/Chicadee Trlr Pk Dr
160,36.167879,-81.230516,Green Acres Rd
216,36.149799,-81.236401,Westgate Dr/US Hwy 421
160,36.196579,-81.152017,Rosemont Dr/Sparta Rd
185,36.193433,-81.266058,Stonebridge Rd/Angle St
185,36.197244,-81.218877,Grandview Dr/Grand St
185,36.168488,-81.143884,Euclid Ave
160,36.306739,-81.082189,/Traphill Rd
185,36.031026,-81.298180,/Brace
160,36.181590,-81.230103,Kirby Ave/Green Acres Rd
185,36.142650,-80.894518,421/State Rd 2402
362,36.149194,-81.198988,/Addison Ave
160,36.178142,-81.147832,Riverside Dr/Hill St
160,36.233923,-80.913525,River Bottom Rd/Elkin Hwy
160,36.339179,-81.039447,Roundhill Church Rd/Traphill Rd
216,36.149819,-81.247408,/US Hwy 421
160,36.149680,-81.243568,/US Hwy 421
334,36.156723,-81.144418,9th St/
276,36.149745,-81.221835,State Rd 1313/US Hwy 421
160,36.173901,-81.376416,Old US Hwy 421/US Hwy 421
185,36.138147,-81.160181,/S Cherry St
185,36.229459,-81.160860,Circle Dr
160,36.112352,-81.132189,Brushy Mountain Rd/Quail Hickory Cir
185,36.287948,-80.956597,/Grange Rd/Austin Little Mountain Rd
185,36.149039,-81.254984,/US Hwy 421
276,36.365493,-80.932932,Thurmond/Thurmond Rd
216,36.138220,-81.156250,S Spruce St/
160,36.199244,-81.092818,/River Liberty Grove Church Rd/Kelsey Ln
185,36.232360,-81.135640,Mountain View Rd
160,36.174716,-81.151944,Herndon St
246,36.215735,-81.164654,Shatley Orchard St/Sparta Rd
185,36.160611,-81.141675,C B D Loop/6th St
185,36.177524,-81.380426,US Hwy 321/US Hwy 421
305,36.140465,-81.098105,H Anderson Rd
160,36.195644,-81.141977,Fairplains Rd/Flatplains Dr
185,36.093799,-81.183905,S State Hwy 18/Homers Way Ln
160,36.189672,-81.221360,Brook Valley St
160,36.157922,-81.187313,Curtis Bridge Rd/Millborne Ln
185,36.150431,-81.014599,/421
185,36.213105,-81.164345,Hillsdale/Hillsdale Dr
160,36.124603,-81.170439,Lineberry Rd
216,36.171720,-81.193972,Boone Trl/Welcome Home Rd
160,36.208210,-81.137176,Caudill Rd/Mountain View Rd/Mtn Vw
160,36.162151,-81.211992,/Winkler Mill Rd
160,36.174664,-81.145362,3rd St/O St
185,36.149161,-81.109848,Statesville Rd
185,36.232269,-81.136146,Mountain View Rd
160,36.218412,-81.167047,Chickadee Rd/Sparta Rd
160,36.233923,-80.913701,/Elkin Hwy
276,36.141371,-81.174862,/River St
390,36.159735,-81.145802,Main St/B St/Gordon Ave
160,36.174821,-81.155477,Hackett St
216,36.156703,-81.161987,/W D St
185,36.243272,-81.090811,Ryan Scott Rd/Haynes Rd
185,36.137405,-81.165288,421/State Hwy 16
390,36.137337,-81.181375,Moravian Creek
160,36.205452,-81.222199,/Friendly Grove Church Rd
276,36.108177,-81.152919,Country Club Rd/Clubhouse Rd
160,36.116287,-81.175912,Moravian Falls Rd/Andrews Ln
185,36.091464,-81.180256,S State Hwy 16/E Brocktown Rd/W Brocktown Rd
246,36.159371,-81.144535,C B D Loop/7th St
185,36.137576,-81.165281,US Hwy 421
160,36.197789,-81.204820,Oak Grove Church Rd
160,36.377309,-80.958279,US Hwy 21/Old Railroad Grade Rd
160,36.136070,-81.157301,421/
246,36.092036,-81.181580,Columbus Dr/W Brocktown Rd
160,36.148329,-81.063822,Speedway Rd/Old US 421 Rd/Fishing Creek Rd
160,36.089609,-81.188223,/Falls Rd
160,36.176371,-81.148398,Oak Dr
160,36.194591,-81.285064,Franklin Ct
160,36.338462,-80.886765,Old Hwy 21
160,36.145724,-81.139231,Forest Hill Dr/Shady Ln
160,36.097450,-81.187945,/Germantown Rd
160,36.374836,-80.980374,US Hwy 21
160,36.101035,-81.181241,Moravian Falls Rd
418,36.251401,-80.877642,Elkin Hwy
185,36.208249,-81.461869,State Rd 1173
160,36.170366,-80.936063,/Mathis Mill Rd
216,36.147566,-81.148814,/E Henderson Dr
185,36.189355,-81.409887,US Hwy 421
216,36.164923,-81.129725,Statesville Rd/
160,36.182526,-81.150006,Sunset Dr
185,36.252863,-80.878935,Austin Traphill Rd
216,36.148291,-81.258521,S Minton Rd/US Hwy 421
160,36.152069,-81.134860,/Snyder St
185,36.139361,-81.159330,James St/S Cherry St
160,36.292056,-80.879769,/Pleasant Ridge Rd
160,36.147709,-81.063864,/Fishing Creek Rd
185,36.222226,-81.168616,Elledge Mill Rd/Sparta Rd
160,36.154351,-80.930728,421
276,36.160102,-81.123840,Statesville Rd
160,36.113631,-81.179794,Moravian Falls Rd/State Rd 1194/Cain Ridge Rd
160,36.160786,-80.945049,421
276,36.141178,-81.173534,US Hwy 421/River St
185,36.198325,-81.108036,Beaumont - Poplar
185,36.139419,-81.159414,James St/S Cherry St
246,36.157531,-81.163768,/Hickory St
160,36.123889,-81.167435,State Rd 1194/State Hwy 16
185,36.151340,-81.328988,/US Hwy 321
185,36.206986,-81.004221,Beechwood Ln
246,36.164703,-81.140752,4th St
305,36.177420,-81.144090,Elkin Rd/Elkin Hwy
334,36.160449,-81.149557,Forester Ave/D St
185,36.192857,-81.151168,Troy Dr
160,36.157182,-81.232900,Raven Laurel Dr/Congo Rd/State Rd 1313
185,36.197486,-81.153537,Jones Dancy St/Rosemont Dr
160,36.152354,-81.019615,/Old US 421 Rd
160,36.187394,-81.229731,/Hensley Eller Rd
160,36.236323,-81.068583,Bethany Ford Rd/Bethany Ford
185,36.099608,-81.174470,Plaza Dr
160,36.156808,-81.103311,Old State Hwy 60/Old 60 Lakeview Dr
216,36.149752,-81.220619,US Hwy 421
185,36.249750,-81.115738,Mountain View Rd/Mtn Vw
216,36.215412,-81.141887,Brookwood Acres Dr
160,36.281016,-80.950624,Cockerham Rd/Austin Little Mountain Rd
552,36.149641,-81.231708,State Hwy 16/US Hwy 421/16
160,36.158775,-81.361097,US Hwy 321
185,36.148865,-81.322921,Champion Mount Pleasant Rd Exd
185,36.306813,-80.945673,/Austin Traphill Rd
160,36.182316,-80.915450,Lewis Ln
185,36.149724,-81.212529,US Hwy 421
185,36.163072,-81.143219,6th St/D St
160,36.218722,-80.943393,Elkin Hwy/Maple St
185,36.136106,-81.176968,School St/Laurel Rd
160,36.181805,-81.146901,Shady Ln
631,36.150335,-81.189384,Winkler Mill/US Hwy 421
160,36.162219,-80.977239,W Old Berry's
185,36.225554,-81.251331,Vmc St
160,36.130635,-81.226453,/Reservoir Rd
246,36.148337,-81.151814,N Bridge St/S Bridge St/E Main St/W Main St
160,36.129097,-81.165705,/State Rd 2525
160,36.143511,-81.221589,/Browns' Ford Rd
445,36.160061,-81.145035,N 8th St/Main St/7th St
185,36.155564,-81.173070,Old Brickyard Rd
185,36.165925,-81.371554,US Hwy 421
160,36.238021,-81.065314,Robys Rd/Bethany Ford Rd
160,36.217578,-80.937730,Clingman Rd
160,36.163521,-81.145179,E St/7th St
160,36.183279,-81.145884,Grand View St
445,36.137332,-81.180080,Moravian Creek
160,36.135862,-81.188300,Skyview Cir/Skyland Dr
160,36.153642,-81.338819,/US Hwy 421
160,36.184260,-81.256531,Boone Trl
160,36.376081,-80.957899,/US Hwy 21
185,36.218857,-80.941686,Elkin Hwy
160,36.183717,-81.225566,Boone Trl/Meadowland Dr
160,36.187144,-81.407444,US Hwy 421
472,36.150254,-81.192948,US Hwy 421
185,36.149958,-81.244688,Countryside Dr
160,36.246923,-80.937948,/State Rd 1924
160,36.179672,-81.230624,Green Acres Mill Rd/Green Acres Rd
216,36.147820,-81.172064,Curtis Bridge Rd/Brookwood Dr/Curtis Brg
160,36.136653,-81.195498,W State Hwy 268/River St
160,36.142439,-81.150492,/Call St
160,36.204305,-81.138012,Forest Rd/Longbow Rd
185,36.136649,-81.103157,421/Statesville Rd
160,36.161470,-81.124883,/Statesville Rd
160,36.173472,-81.150404,Hinshaw St
216,36.199906,-81.209323,Whipoorwill Ln
160,36.179376,-81.143139,/Elkin Rd
246,36.054196,-81.315662,High Rock Rd
160,36.139186,-81.165135,Faw St/Union St
185,36.300539,-81.115193,/Shumate Mountain Rd
185,36.158197,-81.161502,Boone Trl/Oak St
185,36.213514,-81.020021,Smith Ridgecrest Rd
334,36.150374,-81.231751,State Hwy 16/16
246,36.110802,-81.264486,Alpine Dr
390,36.163695,-81.141821,5th St/D St
276,36.146781,-81.169637,/Johnson St
185,36.165595,-81.133061,Statesville Rd
185,36.045754,-81.179328,/S State Hwy 16
160,36.089891,-81.195892,S State Hwy 18/Falls Circle Rd
160,36.145583,-81.274934,/US Hwy 421
185,36.139980,-81.159331,Corporation St/Corporation/S Cherry St
216,36.166343,-81.151587,J St/Trogdon St
305,36.158052,-81.158237,W D St
185,36.144361,-81.105081,Statesville Rd
216,36.137401,-81.185401,/Meadowview Dr
160,36.165860,-80.990501,Ray Ln/Ray
160,36.169935,-81.161456,Coffey St/Don St
185,36.236773,-81.105173,/Airport/Airport Rd/Forest Oaks Dr
160,36.148030,-81.063829,Fishing Creek Rd/Fishing Creek
185,36.150901,-81.066311,Matthews Dr/Fishing Creek Rd
445,36.160081,-81.144988,B St/Main St
185,36.172546,-81.142280,2nd St/L St
185,36.171663,-81.141698,K St/2nd St
160,36.294231,-81.094378,/Traphill Rd
160,36.038918,-81.305850,/S State Hwy 18
185,36.248699,-81.199926,Mountain Valley Church Rd
160,36.177424,-81.146806,Hill St
216,36.192478,-81.414667,Fletcher Creek/US Hwy 421
390,36.150246,-81.184121,US Hwy 421 Bus/State Rd 1327/Bus 421
160,36.160090,-81.141336,6th St/Cherry St
160,36.212147,-81.060021,/Kelsey
160,36.192137,-81.126705,Aaron Call Rd
185,36.205509,-80.933899,Clingman Rd/State Rd 2303/State Rd 2350
185,36.243331,-81.090542,Rock Creek Rd/Haynes Rd
216,36.136923,-81.158503,W Pine Cir
160,36.193734,-81.152241,Fairplains Church St
185,36.165706,-81.139801,/3rd St/E St
362,36.159928,-81.146666,9th St
160,36.162587,-81.183152,/Oak Ave
160,36.129175,-81.166668,State Hwy 16
160,36.212540,-81.032407,Elkin Hwy
334,36.252343,-80.878065,Austin Traphill Rd
1020,36.150653,-81.202129,K St
216,36.149257,-81.250352,S Holiness Ch Rd/Holiness Church Rd
160,36.245792,-80.880951,Lake Blvd
160,36.325229,-81.222536,Hummingbird Ln/Sparta Rd
160,36.132988,-81.161994,Gilbreath St/Gilreath St
160,36.151948,-81.019271,/Old US 421 Rd
185,36.149429,-81.323915,W Wilkes Medical Center Rd/Champion/mt Pleasant
276,36.137264,-81.185252,S Collegiate Dr/
160,36.166783,-81.147317,7th St
160,36.181182,-81.230352,Green Acres Rd
185,36.145599,-81.117327,James Knoll Dr/Camp Joe Harris Rd
160,36.160922,-80.944910,421
160,36.154405,-80.996229,Old Hwy 421
276,36.149835,-81.246256,Crestoak/US Hwy 421
276,36.180873,-81.394591,US Hwy 421
305,36.187611,-81.149924,Gilreath Brook St/Sparta Rd
160,36.162859,-81.185362,Spears Rd/Boone Trl
160,36.176291,-81.240549,/State Hwy 16
185,36.179730,-81.145849,W Waugh St/E Waugh St/Sparta Rd
160,36.238402,-81.065139,Lindas Rd/Bethany Ford Rd
160,36.192523,-81.087188,E Hickory Hollar Rd/Jarvis Acres Rd/W Hickory Hollar Rd
160,36.212664,-81.032782,Foster Trailer Park Rd/Elkin Hwy
160,36.212298,-81.039696,Elkin Hwy
160,36.165052,-81.126571,Peach St/Orange St
160,36.189123,-81.237856,Boone Trl/N State Hwy 16
160,36.139113,-81.165508,Union St
185,36.111181,-81.263103,W Shore Dr/W Shore
160,36.088850,-81.189035,/Falls Rd
362,36.160127,-81.150281,11th St/D St
216,36.178584,-81.381432,Pumkin Run Rd
185,36.196349,-81.237710,Bumgarner Ln/Old Ridge Rd
185,36.141318,-81.179703,/River St
160,36.330870,-80.875726,Old Hwy 21
216,36.149979,-81.247983,Ridgecrest St
160,36.081688,-81.240955,S State Hwy 18
160,36.207648,-81.221600,Friendly Grove Church Rd
160,36.124578,-81.157100,/Meadowood Ln
160,36.225224,-81.251363,Zacks St
216,36.187279,-81.237273,Green Acres Myers St/Post Office Dr
185,36.206150,-81.244730,Kilby Dr/N State Hwy 16
160,36.354894,-81.004206,/Traphill Rd
160,36.145877,-81.081027,Old US 421 Rd
160,36.191648,-81.237858,N State Hwy 16
160,36.082130,-81.182202,/S State Hwy 16
160,36.246479,-81.094055,Rock Creek Rd/
160,36.165790,-81.144968,6th St/G St
160,36.325425,-81.222986,Buckwheat Rd/18/Sparta Rd
216,36.241075,-80.911970,Pruitt Dr
160,36.162308,-81.219073,N Silver Creek Rd/S Silver Creek Rd
160,36.130821,-81.071710,Fishing Creek Arbor Rd/Oak Ln
160,36.217646,-81.059875,Rock Creek Rd/Wings
160,36.141126,-81.157436,Corporation St/S Spruce St
418,36.160185,-81.146081,Gordon Ave
185,36.135058,-81.150020,US Hwy 421
160,36.136984,-81.172358,Cedar Ln/Dogwood Dr
185,36.216865,-81.166185,Sparta Rd/Mulberry Pine St
246,36.145079,-81.056008,US Hwy 421
246,36.154276,-81.159940,W Park Rd/Willow Ln
276,36.160252,-81.148622,10th St/
185,36.142419,-81.156606,Church St
160,36.334092,-80.885580,The Abshers Dr
216,36.187699,-81.151649,Gilreath Brook St
185,36.122602,-81.168037,Moravian Falls
276,36.097741,-81.176562,Country Club Rd/State Hwy 16
472,36.141393,-81.177807,N Collegiate Dr/River St
160,36.141844,-81.164221,College St/S Moravian St
160,36.246204,-80.872780,Reeves Ln
160,36.141474,-81.070269,/Fishing Creek Rd
334,36.157062,-81.147290,Wilkesboro Blvd/Independent Ave
160,36.173232,-81.146896,Odell St
160,36.284551,-80.916067,/Austin Traphill Rd
160,36.218778,-80.946963,Cemetery St/Elkin Hwy
160,36.132643,-81.188993,Skyland/Spring Valley
160,36.217579,-81.233923,Pleasant Home Church Rd
216,36.146640,-81.267934,/Leather Hinge/US Hwy 421
160,36.132105,-81.164248,Gilreath St
160,36.142725,-81.067761,Cicero Rd
160,36.085786,-81.181640,Coley
216,36.149651,-81.236405,Westgate Dr/US Hwy 421
160,36.344347,-80.939983,/Roaring Gap Rd
185,36.168685,-81.190634,Applewood Ln
334,36.150722,-81.144087,Jefferson St/Wilkesboro Blvd
160,36.169960,-81.131231,Colonial Dr/River Liberty Grove Church Rd
185,36.063626,-81.195187,Apple Hill Dr
216,36.097468,-81.164224,Hickory Ridge Rd/Longview Dr
160,36.172872,-81.145972,/4th St
276,36.165031,-81.130182,/Statesville Rd
160,36.196507,-81.237447,/Bumgarner Ln
160,36.205871,-80.995230,/Elkin Hwy
160,36.203135,-81.255513,Arbor Grove Church Rd
160,36.339240,-81.039202,Traphill Rd
334,36.187680,-81.150867,Gilreath Brook St
185,36.147612,-81.263223,/US Hwy 421
216,36.251147,-80.875837,Elk Spur St/Blackburn Ave
185,36.111223,-81.180342,State Rd 1194
788,36.149283,-81.195138,Addison Ave
185,36.137040,-81.158215,W Pine Cir/Ruffin St
579,36.149633,-81.231519,State Hwy 16/16
185,36.158798,-81.164125,Boone Trl/Locust St
185,36.194579,-81.151072,Sparta Rd
246,36.154398,-81.159283,W Park Ln/Willow Ln
160,36.366802,-80.928388,Billings Ln
160,36.031770,-81.319702,/S State Hwy 18
185,36.110232,-81.180430,State Rd 1194
185,36.225477,-81.251188,Vmc St
185,36.361809,-81.080031,Greenstreet Dr/Green Street Mt Resort/Grandview
160,36.184182,-81.177030,/Suncrest Pl
362,36.138022,-81.180974,S Collegiate Dr
160,36.313791,-80.960623,/Austin Traphill Rd
216,36.248750,-81.198971,Mountain Valley Church Rd/Sparta Rd
216,36.146310,-81.316112,/US Hwy 421
160,36.217853,-81.185868,Belle Ridge St/Belle Brook Ave
216,36.164559,-81.077799,/Parks Ridge Rd
216,36.184343,-81.150411,Market Dr
246,36.155596,-81.166776,W D St
160,36.288980,-80.880030,Pleasant Ridge Rd/Martin Byrd Rd
185,36.136819,-81.161152,US Hwy 421/S Cherry St
160,36.246101,-80.888152,/State Hwy 268/Elkin Hwy
246,36.132037,-81.167806,John Wiles/Old N C Hwy 18 S
305,36.155715,-81.165652,W D St/Oak St
216,36.245684,-81.123851,Mountain View Rd/Michael St
160,36.148114,-81.316802,Shaw Dr
185,36.143712,-81.180541,/Golden Needles St
362,36.140766,-81.172272,Exit 286B/
526,36.137124,-81.181966,Cynthia Ln
160,36.214171,-80.896674,Francis Gillian Ln
160,36.100335,-81.185551,Blue Eller Ln
216,36.148478,-81.034523,US Hwy 421
246,36.217428,-81.011333,Anthony Farm Rd
160,36.192311,-81.246589,Old Hwy 60/Shepherd River Rd
160,36.152560,-81.145308,/Wilkesboro Blvd
216,36.169456,-81.134375,Massachusetts Ave/Boston Ave
185,36.149821,-81.243462,/US Hwy 421
216,36.165609,-81.152061,10th St
160,36.201937,-80.929458,Bethel Rd
160,36.178756,-81.382261,US Hwy 421
160,36.169190,-81.239468,State Hwy 16
160,36.183125,-81.131862,/Elkin Hwy
390,36.150310,-81.184578,US Hwy 421 Bus/Bus 421
160,36.181468,-81.398178,Eagle Hills Rd/Community Rd
160,36.130503,-81.161563,Oak Hill Dr/
334,36.162771,-81.141247,C St/5th St
185,36.165576,-81.132937,/Statesville Rd
160,36.154131,-80.930720,421
160,36.191257,-81.114683,Elkin Hwy
216,36.152619,-80.997277,421
185,36.171307,-81.144971,4th St/Mast St/L St
160,36.201387,-81.154481,Sparta Rd
305,36.197864,-81.152609,Jones Dancy St/Fairplains Rd/Sparta Rd
160,36.068099,-81.255802,Boomer Church Rd/Gunters Hill Rd/Boomer Rd
445,36.251452,-80.877025,Elkin Hwy
160,36.308488,-80.913453,/Byrds Curve Rd
160,36.121353,-81.100057,Statesville Rd
185,36.170418,-81.157962,Coffey St/Coffey Ave
185,36.164748,-81.128821,Statesville Rd
216,36.158750,-81.364517,Lewis Fork Baptist Church Rd/Lewis Fork Baptist Church
185,36.372804,-80.981027,US Hwy 21
160,36.156160,-81.235673,State Hwy 16/Bumgarner
160,36.200564,-81.005482,Roaring River Rd/State Rd 2327
160,36.098649,-81.282192,W State Hwy 268
605,36.149933,-81.203879,State Rd 1323/US Hwy 421
160,36.201284,-81.150940,Mountain View Rd
185,36.220292,-81.180531,/Briar Creek Dr
160,36.348761,-81.113100,/Moxley Rd
185,36.167080,-81.137332,/2nd St
185,36.143126,-81.289264,Lewis Fork Dr/US Hwy 421
160,36.206633,-81.449303,US Hwy 421
216,36.186071,-81.150531,Russell St
160,36.132072,-81.187961,Skyland/Monte Vw
160,36.137215,-81.169542,Overlook Dr
185,36.059271,-80.971460,Statesville Rd/McCarter Rd
160,36.161020,-81.150878,11th St/E St
160,36.181990,-81.188333,Rolling Faw St
160,36.149841,-81.025440,US Hwy 421
160,36.145915,-81.079749,Old US 421 Rd/Dan Call Rd
160,36.118829,-81.101076,Sydney Ln
160,36.218696,-81.167156,Chickadee Rd/Sparta Rd
216,36.149788,-81.179522,Curtis Bridge Rd/W D St/Curtis Brg
160,36.161153,-81.124726,/Statesville Rd
246,36.127131,-81.281444,State Rd 1192/Rocky Point Rd
216,36.182241,-81.241323,/Rudd Miller Rd
160,36.251441,-80.879054,/State Hwy 268
160,36.099675,-81.181362,Moravian Falls Rd
160,36.249102,-81.202414,Luray Rd
185,36.193732,-81.265872,W Hi Acres Dr
160,36.359219,-81.246498,Sparta Rd
160,36.151045,-81.011131,/Byrd Farm Rd
185,36.148716,-81.153944,North St/N West St
160,36.154204,-81.198708,Winkler Mill Rd/Walden Point Dr
185,36.121464,-81.153323,Woodfield Ln/Woodfield
216,36.145958,-81.315549,US Hwy 321/Rest Home Rd
160,36.124048,-81.099040,Caldwell Rd/Gordon Rd
185,36.163887,-81.146685,F St
305,36.131986,-81.166961,Westwood Ln
246,36.164395,-81.138763,/3rd St
216,36.158643,-81.148408,Forester Ave/B St
185,36.200200,-81.149904,Blairfield Acres
216,36.197231,-81.427771,US Hwy 421
185,36.063267,-81.193896,Apple Hill Dr//Apple Hill
276,36.155474,-81.162993,/W Park Dr
160,36.168726,-81.142414,I St
160,36.242027,-81.015845,/Ruritan Rd
160,36.168769,-81.372714,Old US Hwy 421
160,36.206794,-81.159640,/Sparta Rd
216,36.163050,-81.144857,7th St
160,36.165679,-81.150451,I St/9th St
185,36.176663,-81.144333,Elkin Rd/2nd St
334,36.149919,-81.144434,Oakwoods Rd
160,36.155529,-81.117799,/Old US Hwy 421
305,36.154792,-81.163518,/W Park Cir
185,36.280499,-80.890364,Carter Mill Rd/Adam's Pl
185,36.230152,-81.160911,Circle Dr/Clover St
160,36.334193,-81.001031,Austin Traphill Rd
246,36.216187,-81.164022,Cherry Stone Ln
185,36.144702,-81.280003,/US Hwy 421
160,36.085575,-81.166585,Lithia Springs Rd/Lithia Valley Rd
160,36.138525,-81.163967,Ridge St/S Brook St
160,36.244027,-80.894630,Summit Ridge Dr
160,36.152628,-81.112180,Statesville Rd/Eagle Ln
246,36.218415,-81.152892,Ridgewood Dr/Wildwood Shady Ln
160,36.154245,-80.993725,Red White & Blue
185,36.196319,-81.237797,Bumgarner Ln
185,36.173888,-81.150201,Hinshaw St/Finley Ave
216,36.146624,-81.268878,/US Hwy 421
160,36.162373,-80.977021,W Old Berry's/Par 3
185,36.149705,-81.025247,421
185,36.147486,-81.155414,Woodland Blvd/W Main St
160,36.086810,-81.190260,Falls Rd
246,36.298269,-81.109511,Mountain Ln/Shumate Mountain Rd
160,36.120523,-81.252651,Waterfront Dr/Jess Walsh Rd
185,36.115051,-81.134579,Brushy Mountain Rd
276,36.164275,-81.140484,4th St/D St
216,36.138113,-81.155876,S Spruce St//Joines St
160,36.107430,-81.146377,Twelve Oaks Ln/Oak Gables Dr
334,36.146169,-81.168460,Woodland Blvd
160,36.143020,-81.291416,US Hwy 421
160,36.146324,-81.317709,Dragway/Dragstrip Rd/Dragway Rd
499,36.135304,-81.181902,S Collegiate Dr/
160,36.140038,-81.159252,Corporation St/S Cherry St
185,36.188836,-81.409337,Shady Walk Ln/US Hwy 421
216,36.149723,-81.212155,/US Hwy 421
160,36.233623,-80.913177,Blevins Dr/River Bottom Rd
160,36.143472,-80.880700,Old 60 Hwy/Splitrail Dr
216,36.148429,-81.258524,N Minton/S Minton Rd/US Hwy 421
160,36.164741,-81.126381,Peach St/Armory Rd
185,36.154485,-81.172080,Old Brickyard Rd/W D St
185,36.166165,-81.139985,3rd St
160,36.218656,-80.943853,Chatham St/Elkin Hwy
216,36.133287,-81.146356,Brushy Mountain Rd//Brushy Mtn
160,36.135727,-81.155118,421
185,36.273150,-80.884255,el Cox Rd
216,36.248458,-80.873945,Wilkes St
216,36.215239,-81.163598,Ruritan Park Rd/Sparta Rd
216,36.181032,-81.150245,Duncan St/Fairchild Ln
160,36.134493,-81.222152,/Ranger Rd
185,36.145118,-81.165532,/N Moravian St/Curtis Bridge Rd
160,36.125431,-81.114260,Ancient Oak Rd/Country Club Rd Exd
160,36.205388,-81.445070,US Hwy 421
160,36.255588,-80.872990,Valley View St
216,36.149526,-81.250411,Holiness Church Rd/US Hwy 421
185,36.251630,-80.875057,Elkin Hwy
160,36.298095,-80.932806,Benham Church Rd/Austin Traphill Rd
160,36.131502,-81.145337,/Brushy Mountain Rd
160,36.148469,-81.140384,Edgewood Dr/Rosseau Farm Rd
185,36.187119,-81.152041,Ridge St/Gilreath Brook St
160,36.192943,-81.241331,Greenbriar Ln
160,36.148500,-81.179518,/Central St
185,36.141119,-81.069054,421
160,36.231442,-81.051958,/Rock Creek Church Rd
160,36.147878,-81.216980,Kerry Ln/Laurelwood Dr/Laurelwood
160,36.182616,-81.240262,/N State Hwy 16
160,36.039014,-81.305690,S State Hwy 18/Maple Ln
185,36.138094,-81.103331,Statesville Rd/Statesville
839,36.150131,-81.197630,US Hwy 421
246,36.143068,-81.170336,Welborn Ave/Maple St
185,36.118108,-81.154506,Hickory Pl
160,36.176088,-80.929848,State Rd 2309/Stonewall Dr
185,36.300357,-81.115027,Shumate Mountain Rd
185,36.128321,-81.097604,Stonybrook Ct
160,36.160046,-81.210763,Winkler Mill Rd
445,36.160319,-81.145130,Kensington Dr
160,36.143262,-81.293881,US Hwy 421/St Cloud Pl
185,36.142957,-81.098584,H Anderson Rd/Speedway Rd/Old US 421 Rd
185,36.161216,-81.169741,Boone Trl
160,36.186610,-81.249899,Boone Trl/Grace Ln
160,36.184080,-81.228357,Boone Trl
160,36.219814,-80.935884,/Elkin Hwy
216,36.248811,-80.875289,Beauty
185,36.140980,-81.070121,Fishing Creek Rd/US Hwy 421
276,36.149830,-81.246051,/US Hwy 421
185,36.219604,-81.161870,Mulberry Pine St
160,36.266113,-80.883300,Cb Eller School Rd
216,36.145060,-81.139967,Forest Hill Dr/Stratford Rd
160,36.145216,-81.055180,Bear Hollow Ln/US Hwy 421
276,36.181231,-81.187321,Rolling Pine St
185,36.135455,-81.102826,Holly Mountain Farm Rd/Holly Mtn Farm
276,36.346549,-80.898487,/Mining School Rd
185,36.162467,-81.139344,4th St/B St
305,36.157452,-81.164021,/Hickory St
185,36.135739,-81.108044,421/
276,36.138566,-81.179972,/S Collegiate Dr
334,36.149449,-81.179197,/Curtis Bridge Rd/Curtis Brg
216,36.157218,-81.161910,Sycamore
160,36.221386,-81.185969,Myers St
246,36.133737,-81.069891,Fishing Creek Arbor Rd/Love Rd
160,36.149849,-81.110321,Statesville Rd/Old State Hwy 60
160,36.189387,-81.211017,Gaither Rd
185,36.150235,-81.021846,/US Hwy 421
160,36.298507,-80.933423,/Grange Rd
160,36.204309,-81.157128,/Sparta Rd
160,36.184647,-81.147936,/Jolly St
160,36.324920,-80.989935,State Rd 1935/King Billings Rd
160,36.169541,-81.219193,Brookcrest Cir/Shannon View St
160,36.172896,-81.147944,Swain St Exd
185,36.101002,-81.175775,Hawkins Ln
160,36.228856,-81.164165,Gwyn Hayes St/Elledge Mill Rd
185,36.195804,-81.141206,Johnson Wyatt/Fairplains Rd
185,36.036194,-81.310664,S State Hwy 18
160,36.194658,-81.137902,Grimes St
185,36.146983,-81.151291,S Bridge St/Henderson Dr/E Henderson Dr
276,36.138617,-81.086822,US Hwy 421
185,36.138311,-81.164760,Faw St/Ridge St
160,36.150461,-81.018224,Old US 421 Rd/Windy Gap Rd/US Hwy 421
185,36.146365,-81.318787,Champion Mount Pleasant Rd
160,36.168266,-81.230011,Green Acres Rd
246,36.138343,-81.190494,Industrial Dr/River St
160,36.260297,-81.122492,Ball St/Traphill Rd
216,36.135200,-81.146723,/Oakwood Rd
185,36.027269,-81.299912,Herring Ridge
246,36.127502,-81.467078,/Elk Ridge Rd/Fais Doedoe Rd
276,36.139406,-81.103442,/Statesville Rd
160,36.165051,-81.136225,River Liberty Grove Church Rd/B St/2nd St
185,36.114874,-81.134332,Brushy Mountain Rd/Country Club
216,36.192414,-81.414003,US Hwy 421
185,36.165721,-81.212299,Castleberry Ln
185,36.328551,-80.973115,Roaring Gap Church Rd/
246,36.163584,-81.143552,/6th St
185,36.164807,-81.129126,Statesville Rd
216,36.163572,-81.147450,F St
185,36.170526,-81.149679,M St/Hinshaw St
160,36.306498,-80.945191,Smoot Ln/Austin Traphill Rd
160,36.134745,-81.177876,College Ave
160,36.160922,-81.135843,Maple St
160,36.125931,-81.112317,Country Club Rd Exd
160,36.209057,-81.039323,Pumpkin Patch Rd
185,36.176830,-81.196854,Boone Trl/Staley Ln
160,36.176146,-81.202592,Cricket Ivy Ln
216,36.169002,-81.145383,J St
160,36.133981,-81.131886,/W Edgewood Mill Rd
185,36.187575,-81.236409,Thunder Ln
216,36.139333,-81.164196,Union St
160,36.181910,-81.397687,US Hwy 421
160,36.165734,-81.144927,6th St
160,36.208895,-81.255209,Huffman Park Rd
160,36.225756,-81.251708,Vmc St
185,36.149886,-81.250785,Holiness Church Rd
185,36.144449,-81.281455,/US Hwy 421
160,36.124567,-81.157472,Woodfield Way/Meadowood Ln
185,36.155524,-81.343319,S Goforth/US Hwy 421
246,36.152225,-81.332445,/US Hwy 421
185,36.166358,-81.152398,10th St/12th St/J St/Absher St
185,36.152483,-81.333663,US Hwy 421
185,36.149867,-81.109546,Old State Hwy 60
160,36.171985,-81.148829,N St/Sherrill St
216,36.185330,-81.150014,Market Dr/Sparta Rd
246,36.141210,-81.173813,State Hwy 16/River St
160,36.144932,-81.285745,Hilltop Dr
185,36.165487,-81.132512,Statesville Rd/
185,36.172858,-81.146656,Odell St/N St
160,36.181920,-81.398053,Caseys Branch Rd/US Hwy 421/Community Rd
185,36.141428,-81.175376,School St/Motel Dr/River St
185,36.174971,-81.143576,Reynolds Rd/2nd St
160,36.182241,-81.189764,/Suncrest Orchard Rd
185,36.167421,-81.145974,6th St/Hinshaw St
160,36.298239,-80.932913,/Austin Traphill Rd
160,36.184080,-81.229900,Boone Trl/Green Acres Rd
185,36.182133,-81.285318,Tom Huffman Rd
185,36.169616,-81.143828,4th St/J St
216,36.156281,-81.128846,/Peace St
160,36.180646,-81.139908,Temple St/Elkin Hwy
160,36.183620,-81.182470,Suncrest/sunset Conn Rd/Suncrest Sunset Connector Rd
185,36.149640,-81.229213,State Hwy 16/Browns Ford Rd
185,36.137312,-81.160895,Exit 286A/S Cherry St
334,36.169474,-81.056002,Shepherd Pl
160,36.265857,-80.883351,Cb Eller School Rd
160,36.190447,-81.149768,Doughton St/Sparta Rd
185,36.146591,-81.273282,Pilgrim Baptist Church Rd/Pilgrim Church Rd
185,36.138646,-81.096482,H Anderson Rd
185,36.163475,-81.137974,/3rd St
305,36.137685,-81.181406,/S Collegiate Dr
418,36.158468,-81.158358,/Boone Trl
185,36.196074,-81.238903,Bumgarner Ln/Viola Ln/N State Hwy 16
246,36.198405,-81.150246,Fairplains Rd/Wood St
276,36.140462,-81.181170,Northwestern Dr
334,36.177630,-81.145301,Finley Ave/2nd St
185,36.189997,-81.149764,Reynolds Ave/Sparta Rd
160,36.148229,-81.065241,/Old US 421 Rd
160,36.132788,-81.102852,Fishing Creek Arbor Rd/Statesville Rd/Moore Ridge Rd
160,36.151016,-81.066429,Wedford Rd/Fishing Creek Rd
185,36.209143,-81.067640,/Rock Quarry Rd/Elmore Rd/Elkin Hwy
305,36.145906,-81.167263,Curtis Bridge Rd/Curtis St
185,36.250273,-80.873810,Wilkes St
185,36.219137,-80.940315,Elkin Hwy/Summit St
246,36.135443,-81.146695,Oakwood Rd
160,36.165992,-80.990970,Ray
185,36.200736,-81.147690,Gentry St
160,36.142443,-81.150588,/Courthouse Dr/Ct House
160,36.119361,-81.126341,Sedgefield Cir/Fox Run Dr
185,36.210919,-81.057199,Elkin Hwy/Riddle Rd
160,36.157905,-81.187502,/Millborne Ln
185,36.136844,-81.161284,State Hwy 16/US Hwy 421/S Cherry St
160,36.161534,-81.146948,Gordon Ave/D St
216,36.251588,-80.875458,Elkin Hwy
160,36.149834,-81.323935,W Wilkes Medical Center Rd/US Hwy 321
185,36.187391,-81.407490,US Hwy 421
160,36.230218,-81.231746,/Mountain Valley Church Rd
160,36.366363,-80.928417,Thurmond Rd/Billings Ln
246,36.127855,-81.283842,State Rd 1192/Rocky Point Rd/Rocky Ln
185,36.209532,-81.065673,/Elkin Hwy
160,36.150351,-81.323811,/Mt Pleasant
185,36.214619,-81.165746,Ruritan Park Rd
160,36.164925,-81.370886,/US Hwy 421
185,36.205917,-80.992979,Peacock St/Elkin Hwy
160,36.131638,-81.119138,/Edgewood Rd
305,36.148787,-81.231218,New Browns Ford Rd/
160,36.146552,-81.269346,Eldrege St/Eldrege/US Hwy 421
185,36.169077,-81.150367,Franklin St/Trogdon Ave
160,36.175961,-81.240553,State Hwy 16
160,36.211157,-81.055801,/Elkin Hwy
185,36.274082,-81.068260,/Wiles Ridge Rd
160,36.153950,-80.993447,421/Red White & Blue
160,36.155848,-80.995158,/Red White & Blue/Red White & Blue Rd
390,36.150383,-81.144744,Oakwoods Rd/E Main St/State Hwy 18
160,36.124642,-81.157464,/Woodfield Way
216,36.180771,-81.240490,N State Hwy 16/Oak Forest Cir
160,36.245501,-80.886761,/J A Russell Dr
185,36.159929,-81.127168,Short St
160,36.249984,-80.873836,Wilkes St
246,36.145040,-81.165404,Curtis Bridge Rd/Welborn Ave
160,36.189902,-81.237663,/N State Hwy 16
334,36.146367,-81.168302,Woodland Blvd/Curtis Bridge Rd
216,36.233832,-80.916729,Elkin Hwy
160,36.111078,-81.189331,Cain Ridge Rd
160,36.154189,-80.930810,421/Clingman
216,36.147248,-81.265228,US Hwy 421
160,36.087748,-81.201619,/S State Hwy 18
160,36.217898,-80.953944,Shady Hill Cir/Elkin Hwy
185,36.178518,-81.240515,/State Hwy 16
246,36.143623,-81.167731,Elm St
334,36.150038,-81.182096,Curtis Bridge Rd/Bus 421
160,36.165883,-81.079311,/Twin Oaks Ct
160,36.096967,-81.190423,/Germantown Rd
185,36.136723,-81.161398,421/State Hwy 16
160,36.170050,-81.156897,McElwee St
552,36.149782,-81.231715,US Hwy 421/16
160,36.165065,-81.125114,Cedar Ln/Armory Rd
185,36.166785,-81.191112,Boone Trl/Gate St
185,36.151529,-81.003188,Old Hwy 421/Byrd Farm Rd
185,36.224472,-81.251090,Dollar St
160,36.233383,-80.919678,Hidden Acres Dr/Elkin Hwy
160,36.161353,-80.975148,421/Berry Ln
185,36.148738,-81.109533,Statesville Rd
185,36.179285,-81.240523,State Hwy 16
160,36.160861,-80.877041,State Rd 2381/State Rd 2014
160,36.162469,-81.212139,/Winkler Mill Rd
246,36.154423,-81.160008,W Park Rd
185,36.161336,-81.169882,Boone Trl
216,36.159371,-81.149339,C St/Cbd Loop
160,36.187166,-81.213722,/Gaither Rd
185,36.145770,-81.116510,/Camp Joe Harris Rd
160,36.325612,-81.222133,Sawmill Rd/State Rd 1756
160,36.165063,-81.078122,/Parks Ridge Rd
185,36.357044,-80.908482,US Hwy 21/
160,36.167307,-81.147698,Foster Ln/7th St
160,36.204975,-81.009394,Cotton Mill Rd/Elkin Hwy
216,36.149970,-81.179507,/Bus 421/Curtis Brg
160,36.240895,-81.045030,/Dowell Ridge Rd
160,36.154222,-81.329333,Cobblestone Ln/Mount Pleasant Rd
185,36.161509,-80.955433,/State Rd 2319
160,36.157317,-81.102954,Old State Hwy 60
160,36.150879,-81.066764,Wedford/Wedford Rd
276,36.149690,-81.246114,/US Hwy 421
216,36.189273,-81.238948,Kite Rd/Boone Trl
185,36.147906,-81.258655,S Minton Rd
276,36.149051,-81.182528,Old Nc 16 Rd/US Hwy 421
160,36.146628,-81.046280,US Hwy 421
160,36.148176,-81.148563,Corporation St/E South St
185,36.145033,-81.305899,/US Hwy 421
362,36.159807,-81.123420,/Statesville Rd
160,36.163112,-81.183638,Boone Trl/Jessies Park Dr
185,36.044912,-81.178982,State Rd 1191
160,36.173026,-81.146078,4th St
185,36.151467,-81.328886,/US Hwy 421
160,36.201351,-81.154453,/Sparta Rd
185,36.138123,-81.103111,/Exit 282
216,36.145620,-81.139413,Forest Hill Dr/Sunset Dr
216,36.149027,-81.148841,Corporation St/E Main St
160,36.091974,-81.190740,/S State Hwy 18
160,36.162505,-81.150039,F St/10th St
185,36.140010,-81.159296,Corporation St/Corporation/S Cherry St
216,36.144321,-81.281331,US Hwy 421/Fox Rd
185,36.173058,-81.154505,Coffey Ave/Worth St
160,36.195927,-81.140067,/Fairplains Rd
160,36.153917,-80.993525,421/Windy Gap Rd
246,36.249307,-80.875178,Beauty St/Beauty
160,36.200488,-81.241583,/N State Hwy 16
362,36.150017,-81.184913,Bus 421/US Hwy 421
246,36.164313,-81.121953,Armory Yard
185,36.140491,-81.164818,Church St/Wilkes St
160,36.174513,-81.177862,Oak Crest Cir
160,36.111731,-81.131564,Brushy Mountain Rd
160,36.162768,-81.146706,E St/8th St
160,36.159189,-81.188762,Shepards Park Ln/Union Methodist Church Rd
160,36.218006,-81.059909,Rock Creek Rd/Alexander Dr
160,36.273022,-80.976469,/Greenhorn Rd
160,36.245675,-81.458532,Blue Ridge Pkwy
216,36.149655,-81.236510,US Hwy 421/W Gate
216,36.233853,-80.916059,/Elkin Hwy
160,36.229883,-80.923495,Money Rd/Elkin Hwy
552,36.149208,-81.197589,Addison Ave
160,36.335678,-80.975960,Traphill Union Rd/Holcomb Rd
160,36.129996,-81.111571,/Edgewood Rd
185,36.148793,-81.258760,N Minton/N Minton Rd
160,36.172642,-81.123845,/River Liberty Grove Church Rd
160,36.171952,-81.218783,Mae Ln/Pads Rd
160,36.087449,-81.236747,/Hillview Ln
160,36.134747,-81.169674,Overlook Dr/Westwood Ln
160,36.172658,-81.123502,River Liberty Grove Church Rd
185,36.142812,-81.101082,Old US 421 Rd/Green Valley St
160,36.063829,-81.195402,Apple Hill Dr/Overlook Dr
246,36.148675,-81.257095,US Hwy 421
160,36.188999,-81.242200,Boone Trl/Cedar Ridge Dr
160,36.140834,-81.163407,Church St/S Brook St
160,36.213244,-81.157815,Cartpath Rd
160,36.031578,-81.293159,Brace
185,36.179041,-81.150522,Browns Waugh St
246,36.146443,-81.168586,Johnson St
160,36.281912,-80.913534,Eli Smith Rd/Austin Traphill Rd
160,36.203732,-81.156503,/Sparta Rd
160,36.221053,-81.167988,18/Brown Berry Rd/Sparta Rd
276,36.132091,-81.160958,Gilbreath St
160,36.137925,-81.186511,Meadowview Dr/Skyland Dr
160,36.148148,-81.173409,Curtis Bridge Rd/Lenderman St/Johnson Ln
246,36.136069,-81.199715,/W State Hwy 268
499,36.150065,-81.199451,/US Hwy 421
160,36.251719,-80.874315,Elkin Hwy
160,36.129132,-81.165825,State Rd 2525
160,36.265091,-81.120810,/Traphill Rd
160,36.143110,-81.150670,Call St/Courthouse Dr/S Bridge St
216,36.298306,-80.878534,Pleasant Ridge Rd/Preacher Field Rd
216,36.133105,-81.146270,/Brushy Mountain Rd
276,36.149833,-81.246332,Crestoak Dr/Crestoak/US Hwy 421
216,36.140158,-81.163655,S Moravian St/S Brook St
160,36.154254,-81.172645,W D St
160,36.280260,-80.891437,Carter Mill Rd/Circuit City Rd
185,36.146046,-81.272257,US Hwy 421
185,36.169709,-81.133482,Massachusetts Ave
276,36.198553,-81.152902,Mountain View Rd/Sparta Rd
185,36.280443,-80.887848,/Carter Mill Rd
160,36.150286,-81.018098,421/Windy Gap Rd
185,36.150831,-81.117422,/State Rd 2449
160,36.088058,-81.235475,S State Hwy 18/Gunters Hill Rd
160,36.140923,-81.145570,S Bridge St/Oakwoods Rd
160,36.137661,-81.104255,C C Wright School Rd
185,36.200465,-81.147458,Otis Brown Dr
185,36.139364,-81.164042,Union St/S Brook St
160,36.109276,-81.152700,Green Way Ln/Clubhouse/Clubhouse Rd
160,36.217840,-80.951008,Elkin Hwy
160,36.280784,-80.912025,Johnny Couch Rd/Austin Traphill Rd
185,36.086752,-81.181006,S State Hwy 16/Coley
185,36.134972,-81.150427,421
160,36.102094,-81.044371,Cherry Grove Ln
305,36.141456,-81.175990,River St
216,36.135318,-81.145977,/Edgewood Rd
160,36.200410,-81.093365,/Elkin Hwy
160,36.166876,-81.057730,Shew Ridge Mission Rd
160,36.250918,-80.873396,Elk Spur St
160,36.206186,-81.004401,Beechwood Ln/Elkin Hwy
160,36.205732,-81.446578,US Hwy 421
185,36.232795,-81.114762,Yale St
246,36.182436,-81.240303,N State Hwy 16/Oak Forest Cir
160,36.145191,-81.308202,/US Hwy 421
185,36.114991,-81.133983,Country Club/Country Club Rd Exd
246,36.140037,-81.181913,/Northwestern Dr
246,36.172499,-81.177045,Sweetbriar St/Magnolia
246,36.154981,-81.162754,/W Park Dr
185,36.187944,-81.235899,/Boone Trl
216,36.249307,-81.198957,Holly-Brook St/Sparta Rd
160,36.166235,-81.171660,/Friendship Cross St
160,36.366844,-80.928441,Amber Cox Ln/Billings Ln
185,36.158318,-81.145631,9th St/Cherry St
160,36.152380,-81.119314,Whittington/Hunter Rd
216,36.122964,-81.167543,Moravian Falls/State Hwy 16
185,36.154114,-80.993052,421
185,36.186070,-81.151196,Russell St
160,36.140533,-81.187240,Stokes St/River St
160,36.158415,-81.124712,Townsend St/S Park Rd
160,36.246868,-80.937975,/State Rd 1924
185,36.151281,-81.232141,State Hwy 16/Parsons Dr
305,36.146435,-81.168434,Curtis Bridge Rd/Johnson St
472,36.252033,-80.877532,Austin Traphill Rd
160,36.110274,-81.143639,Country Club Rd/Holly Tree Dr
185,36.139251,-81.080894,US Hwy 421
418,36.147307,-81.149867,East St/E Henderson Dr
185,36.124766,-81.101924,Statesville Rd/Gordon Rd
160,36.125172,-81.170809,Lineberry Rd/Old N C Hwy 18 S
160,36.286623,-80.918236,Greenhorn Rd/Sunrise Dr
160,36.124497,-81.170795,Old N C Hwy 18 S/Hamby Rd
276,36.160263,-81.149996,Cbd Loop/D St
160,36.172522,-80.987127,/Red White & Blue Rd
160,36.144461,-81.311677,Resthome Rd/Rest Home Rd
185,36.136596,-81.103552,/421
276,36.113553,-81.138970,Country Club Hills Ln/Mayview Ave
216,36.133477,-81.123479,US Hwy 421
185,36.122479,-81.168171,Moravian Falls/State Rd 1194
160,36.146768,-81.269442,/Eldrege St
160,36.188537,-81.234870,Thomas St
185,36.248549,-81.198983,/Sparta Rd
160,36.133970,-81.281017,S Recreation Rd/Rocky Point Rd
185,36.142404,-80.894551,421/State Rd 2402
160,36.164752,-81.175068,Boone Trl/Green Bay Ln
160,36.182706,-81.223465,/Boone Trl
160,36.146664,-81.317437,Dragway/US Hwy 321
390,36.150746,-81.182008,Curtis Bridge Rd/Old Nc 16 Rd
160,36.332070,-80.877478,Old Hwy 21/Maple Glenn Ct
160,36.148325,-81.063877,Speedway Rd/Old US 421 Rd/Fishing Creek Rd
160,36.149735,-81.223719,State Hwy 16/US Hwy 421
160,36.162220,-81.228692,Governor Stokes Rd
160,36.245946,-80.888323,State Hwy 268/Elkin Hwy/J A Russell Dr
160,36.219238,-80.961703,Elkin Hwy
160,36.163312,-81.172643,Boone Trl
185,36.150364,-81.070521,Foster Mill Rd
216,36.149801,-81.236506,US Hwy 421/W Gate
160,36.149993,-81.323928,/W Wilkes Medical Center Rd/US Hwy 421
160,36.222703,-81.184869,Baptist Home Rd
160,36.230352,-81.138030,Mountain View Rd/
185,36.194850,-81.087333,River Liberty Grove Church Rd/Jarvis Acres Rd
160,36.185759,-81.254135,Boone Trl
160,36.143253,-81.064999,/Cicero Rd
160,36.300154,-81.134988,Dehart Church Rd/Dehart Community Center Rd/Cabin Creek Rd
305,36.152039,-81.141857,Salem St/Winston St
160,36.166218,-81.214722,Pads Rd
160,36.129826,-81.162668,Oak Hill Dr
185,36.128472,-81.106928,Edgewood Rd/Country Club Rd Exd
160,36.165134,-81.138376,D St
160,36.253629,-81.119983,/Traphill Rd
216,36.168739,-81.220461,Shannon View St/Dixie Hill Rd
160,36.161567,-81.124912,Statesville Rd/Eastover Dr
160,36.109447,-81.152714,Clubhouse/Clubhouse Rd/Fairway Ln
216,36.163812,-81.147367,Toll Rd/8th St
185,36.149980,-81.022280,421/US Hwy 421 E
160,36.183978,-81.226232,Boone Trl
160,36.135856,-81.283415,S Recreation Rd
185,36.205524,-81.057532,Riddle Rd
160,36.220573,-81.167813,Northwood Hills Rd/Sparta Rd
160,36.203408,-81.435981,US Hwy 421
160,36.180255,-81.141197,Elkin Hwy/School Bus Dr
246,36.162564,-81.145967,E St/Brame Ave
185,36.198721,-81.150307,Gentry St
160,36.221208,-81.168034,18/William Harrold Dr/Sparta Rd
160,36.134945,-81.191427,Wood Run Dr
160,36.156262,-81.174197,/Old Brickyard Rd
160,36.210386,-81.060402,/Elkin Hwy
160,36.142845,-81.294624,/St Cloud Pl
160,36.161076,-81.124676,Statesville Rd
246,36.067450,-81.176342,S State Hwy 16
185,36.155596,-81.343459,US Hwy 321/S Goforth Rd/US Hwy 421
160,36.202063,-81.087710,/Elkin Hwy
160,36.139339,-81.145913,Oak Woods Rd/Oakwoods Rd
160,36.129353,-81.162466,/Oak Hill Dr/Woodfield Way
160,36.233636,-80.918741,Jolly Ln/Cardinal Ln/Elkin Hwy
246,36.186448,-81.150005,Sparta Rd
160,36.087852,-81.235667,S State Hwy 18
334,36.195838,-81.150567,Fairplains School Rd
160,36.276044,-80.942852,/Greenhorn Rd
185,36.158421,-81.146851,C B D Loop/Cbd Loop/Wilkesboro Blvd
160,36.142655,-80.895003,421
160,36.151852,-81.019202,/Old US 421 Rd
160,36.168525,-81.239136,Remington St
160,36.164861,-81.371045,US Hwy 421
185,36.145578,-81.274205,US Hwy 421
160,36.173558,-81.376356,US Hwy 421
185,36.160859,-80.955213,421
160,36.134397,-81.146709,421/Oakwood Rd
185,36.137897,-81.103312,Statesville Rd
185,36.091351,-81.179966,E Brocktown Rd/Brocktown
160,36.182220,-81.145520,Shady Ln
160,36.180732,-81.285698,Huffman River Ln/Stacey Ln
160,36.204247,-81.012854,McNeill Hill Dr/McNeil Hill Dr
160,36.097975,-81.185862,Germantown Rd/Cemetery Rd
276,36.151996,-81.202156,K St
160,36.206700,-81.008239,Unnamed Pr Dr/State Rd 1997
216,36.169770,-81.162599,Coffey St/Helms St
185,36.137210,-81.105774,C C Wright School Rd
552,36.150417,-81.188897,Tyson/US Hwy 421
216,36.098212,-81.181664,Moravian Falls Rd
418,36.150970,-81.189781,Winkler Mill Rd
160,36.089204,-81.181502,Parker/Samuel
160,36.152773,-81.114842,/Bouchelle Rd
334,36.138804,-81.103393,Statesville Rd
160,36.152700,-81.145422,Wilkesboro Blvd
160,36.095074,-81.178139,S State Hwy 16/S State Hwy 18/State Hwy 16
160,36.163758,-81.182428,Boone Trl/Cricket Baptist Church Rd
185,36.185232,-81.237557,Green Acres Myers St/Bobwhite Rd
185,36.216665,-81.164544,Prickley Pear Ln
305,36.140497,-81.098122,H Anderson Rd
160,36.123909,-81.167333,16
305,36.149738,-81.180350,Curtis Bridge Rd/Pennell St
185,36.151496,-80.999119,US Hwy 421
185,36.147144,-81.140181,Forest Hill Dr/Hillcrest Dr
160,36.161178,-81.367830,/US Hwy 321
160,36.071902,-81.384820,/Tom Dula Rd
185,36.207653,-80.986976,Mast Ln/Elkin Hwy
246,36.151117,-81.186149,State Rd 1327
216,36.251979,-80.872912,Elkin Hwy
216,36.212075,-81.002167,/White Plains Rd
160,36.160188,-81.160257,Summit Ave
305,36.030076,-81.298097,/Herring Ridge
216,36.149707,-81.249768,US Hwy 421
160,36.082196,-81.240540,/S State Hwy 18
160,36.248588,-81.201489,Mountain Valley Church Rd/Luray Rd
418,36.149778,-81.206689,US Hwy 421
276,36.257087,-80.883649,Austin Traphill Rd
216,36.256623,-81.121944,Huie Rd/Traphill Rd
160,36.154106,-80.993703,421/Windy Gap Rd
276,36.149976,-81.246255,Crestoak
160,36.243054,-81.223215,Reavis Rd/
276,36.140322,-81.098057,H Anderson Rd/
160,36.149961,-81.323811,/Mt Pleasant/US Hwy 421
160,36.134518,-81.146627,Brushy Mountain Rd/Oakwoods Rd/US Hwy 421
185,36.140031,-81.159094,James/James St
160,36.201013,-81.091343,Elkin Hwy
216,36.144753,-81.279699,/US Hwy 421
160,36.133399,-81.176870,School St
160,36.249585,-81.114591,Rock Creek Rd
160,36.173399,-81.151551,Pilson St/Cowles St
216,36.144928,-81.278698,US Hwy 421
160,36.135074,-81.177859,College Ave
185,36.247295,-81.110449,Scenic St/Airport Rd
305,36.195924,-81.150192,Fairplains School Rd
216,36.197542,-81.153297,Jones Dancy St
472,36.149838,-81.184243,Bus 421
305,36.148703,-81.231134,New Browns Ford Rd
160,36.161676,-81.169083,Haunted Branch Rd/Friendship Cross St
160,36.083575,-81.181960,S State Hwy 16
160,36.273612,-81.038429,Greenhorn Rd/John Grit Rd
160,36.129903,-81.142565,Brushy Mountain Rd
160,36.169326,-81.142873,Walker Pl
160,36.159171,-81.353820,/US Hwy 421
160,36.164710,-81.126514,Armory Rd
334,36.156598,-81.144140,9th St//Wilkesboro Ave
160,36.177964,-81.185905,Welcome Home Rd/Welcome Home Church Rd
160,36.176746,-81.144053,Elkin Hwy/Elkin Rd
160,36.279334,-80.907542,/Austin Traphill Rd
160,36.321582,-81.000434,Hanks St/Dancy Hollow Dr
185,36.161609,-81.149478,10th St/E St
160,36.160851,-80.876871,State Rd 2014
185,36.161248,-80.955331,State Rd 2319
216,36.147657,-81.148498,Corporation St/E Henderson Dr
160,36.158072,-81.235784,Congo Rd/State Hwy 16
185,36.126176,-81.101167,W Magnolia Rd
216,36.149656,-81.250497,Holiness Church Rd/US Hwy 421
276,36.150073,-81.221872,Congo Rd/State Rd 1313
334,36.251537,-80.875994,Elkin Hwy
334,36.150024,-81.181974,Curtis Bridge Rd/Bus 421
160,36.203272,-81.138131,Forest Rd
160,36.269794,-81.100919,Camp Branch Dr/Maple Grove Church Rd
216,36.162411,-81.233469,Raven Maple/State Rd 1379/Raven-Midlawn
445,36.150160,-81.183464,US Hwy 421 Bus
185,36.159069,-81.164524,/Boone Trl
160,36.146776,-81.246587,S Holiness Ch Rd
216,36.145775,-81.273037,US Hwy 421
160,36.151456,-81.018941,/Old US 421 Rd
185,36.165187,-81.151766,I St/10th St
160,36.182065,-81.398040,Caseys Branch Rd/US Hwy 421
216,36.163210,-81.137763,3rd St/B St/Chestnut St
160,36.146379,-81.152166,/S West St
160,36.246718,-80.887440,Edwards Lakeview Dr/Elkin Hwy
160,36.135931,-81.101722,Holly Mountain Farm Rd
185,36.146830,-81.142294,Oakwoods Rd/Sunset Dr
160,36.241505,-81.195524,Windy Ridge Rd
160,36.110681,-81.142016,Country Club Rd
160,36.235828,-81.223589,/Mountain Valley Church Rd
160,36.166065,-81.190758,/Boone Trl
185,36.151177,-81.232652,Parsons Dr
160,36.179855,-81.142430,/Elkin Hwy
185,36.170789,-81.145342,Odell St/Mast St
160,36.137927,-81.171263,/Westwood Ln
160,36.165026,-81.125302,Maplewood Ct/Armory Rd
390,36.187062,-81.150761,Ridge St
305,36.159101,-81.154576,W D St
185,36.165475,-81.132459,Statesville Rd
160,36.333885,-80.999913,/Austin Traphill Rd
160,36.136052,-81.162223,/Exit 286A
160,36.218849,-80.946335,Elkin Hwy/Hillcrest
160,36.222197,-81.168599,Sparta Rd
160,36.147270,-81.158281,/N Pine St
160,36.159768,-81.142849,7th St
160,36.147149,-81.156889,W Main St
160,36.277958,-80.873639,/Elkin Creek Mill
160,36.151423,-81.203890,Dancy St
185,36.177501,-81.380633,US Hwy 321/US Hwy 421
160,36.207054,-81.083080,/Johnson Rd
160,36.353800,-80.900204,Thurmond Rd/E Tate Dr
160,36.147869,-81.156811,/N Poplar St
160,36.211864,-81.041470,Elkin Hwy
160,36.133813,-81.169516,Cedar Ln/Westwood Ln
276,36.160320,-81.144424,B St
160,36.165653,-81.128434,Orange St
185,36.091443,-81.180537,Brocktown/W Brocktown Rd
160,36.183908,-81.182132,Suncrest Orchard Rd
390,36.029506,-81.297990,Dickson/Herring Ridge
160,36.183634,-81.177257,Suncrest Orchard Rd/Suncrest Pl
160,36.158042,-81.169100,Magnolia St
160,36.161390,-81.145860,/Kensington Ave/8th St
160,36.144973,-81.289414,Lewis Fork Dr/Lewis Fork
246,36.149750,-81.221441,US Hwy 421
216,36.198811,-81.145367,/Hilltop Acres St
160,36.205630,-81.080143,Elkin Hwy
185,36.261301,-81.137723,Ethan Dr/Canna Dr/Carol Dr
216,36.169317,-81.163995,/Hollyridge
160,36.152361,-81.333738,/US Hwy 321
499,36.137014,-81.181695,Cynthia Ln/S Collegiate Dr
160,36.207955,-80.987442,Mast Ln
579,36.149633,-81.231606,New Browns Ford Rd/State Hwy 16
216,36.158907,-81.147797,10th St/B St
160,36.122541,-81.094483,Laurel Mountain Rd
216,36.178932,-81.143438,/Elkin Hwy
276,36.149513,-81.180489,Pennell St/Central St
160,36.277707,-80.873348,/Elkin Creek Mill/Elkin Creek Mill Rd
160,36.206581,-80.990113,/Elkin Hwy
185,36.185761,-81.286336,Purlear Rd
185,36.163558,-81.147269,8th St
160,36.176287,-81.146670,Pine Ave/Finley Ave
160,36.145715,-80.901547,421/Exit 270
160,36.179423,-81.143775,/Elkin Hwy
418,36.147853,-81.150067,East St/E South St
185,36.152386,-80.926520,421/Exit 272
160,36.224451,-81.112490,Airport Rd
160,36.188130,-81.228729,Hensley Eller Rd
160,36.336426,-80.893185,Hidden Chambers Dr/
216,36.147114,-81.267966,Leather Hinge/Leather Hinge Dr
305,36.164877,-81.139052,3rd St/D St
334,36.143955,-81.170744,Maple St/Hill Ave
185,36.158180,-81.162316,Boone Trl
334,36.149986,-81.182107,Curtis Bridge Rd/US Hwy 421 Bus
160,36.200896,-81.151294,Mountain View Rd
216,36.150552,-81.246110,Crestoak Dr/Crestview Dr
160,36.318074,-80.876146,Calm Trl
185,36.142876,-81.099791,Old US 421 Rd/Green Circle Dr
185,36.162009,-81.235281,Green Leaf Dr/State Hwy 16
160,36.325281,-81.222645,Sparta Rd
276,36.165537,-81.139687,3rd St
216,36.163665,-81.147339,F St/8th St
160,36.158783,-81.189430,Shepards Park Ln
160,36.350147,-81.030318,Bryan Ln
160,36.131110,-81.164844,Windsor St/Woodfield Way
160,36.178314,-81.147983,Hill St
185,36.190099,-81.148843,Reynolds Ave
160,36.214919,-81.190661,Windy Ridge Rd
160,36.168338,-81.132313,Beech St
160,36.207928,-81.125227,Charlie Brown Rd/Sturgill Farm
185,36.135902,-81.161905,/16/S Cherry St
160,36.148320,-81.217166,State Rd 1182/Cherry Brook Ln/Laurelwood
160,36.215709,-81.132199,Mountain View Rd
160,36.216083,-81.218874,Perry Dr
216,36.149766,-81.248861,US Hwy 421
160,36.151077,-81.018655,/Old US 421 Rd
185,36.226920,-80.925156,Elkin Hwy
160,36.146863,-81.158107,N Pine St/W Main St
185,36.373224,-80.980226,US Hwy 21
160,36.209359,-81.255550,Charity Church Rd/Bassett Rd
160,36.159420,-81.352664,Daniel/Daniel Dr
216,36.184595,-81.149885,Jolly St/Sparta Rd
185,36.174252,-81.240569,State Hwy 16
185,36.123523,-81.117226,Buck Thorn Dr
160,36.087854,-81.369079,Ferguson Third St/Champion Rd
160,36.207457,-81.057265,/Riddle Rd
160,36.285950,-80.919067,Greenhorn Rd
216,36.146790,-81.268018,Leather Hinge/US Hwy 421/Leather Hinge Dr
185,36.261753,-81.138208,Ethan Dr/
160,36.155389,-81.117081,Old US Hwy 421
160,36.099105,-81.181400,Moravian Falls Rd/Cemetery Rd
216,36.164275,-81.145755,F St/7th St
160,36.255396,-80.872262,State Hwy 268
160,36.230759,-80.917902,Cardinal Ln
160,36.213044,-81.060099,Kelsey
160,36.178596,-81.381979,Pumpkin Run/Pumkin Run Rd/US Hwy 421
160,36.119767,-81.474126,Stable Rd
160,36.154866,-81.281014,/Pilgrim Church Rd
160,36.124677,-81.224500,W State Hwy 268/Lake Ridge
276,36.147607,-81.001521,Millard Mathis Rd
160,36.206679,-81.008232,State Rd 1997
160,36.197007,-81.239350,Chauncey Dr/N State Hwy 16
526,36.165014,-81.142678,5th St
185,36.091344,-81.180283,S State Hwy 16/Brocktown
185,36.212314,-81.002136,White Plains Rd
185,36.081165,-81.182285,S State Hwy 16
160,36.120292,-81.127416,Greenfield Ln
185,36.154990,-81.172531,Old Brickyard Rd
390,36.150216,-81.184511,Bus 421
246,36.193126,-81.150415,Troy Dr/Sparta Rd
216,36.153126,-81.174620,W D St
185,36.135520,-81.103028,Statesville Rd
526,36.150285,-81.188737,State Hwy 16/Tyson
390,36.160581,-81.150567,11th St/Brame Ave
160,36.036838,-81.178332,S State Hwy 16
185,36.127802,-81.284216,State Rd 1192/Rocky Point Rd/Jacobs Way
216,36.162739,-81.136746,Vance St/Chestnut St
160,36.110942,-81.187899,Cain Ridge Rd
362,36.252235,-80.877868,State Hwy 268/Austin Traphill Rd
160,36.179206,-81.142821,Flint Hill Rd
216,36.153548,-81.233803,State Hwy 16
362,36.159988,-81.150667,/D St
160,36.151156,-80.907390,White Oaks Dr
160,36.148746,-81.255867,US Hwy 421
185,36.137106,-81.100877,US Hwy 421
216,36.216513,-81.164105,Peach Blossom Ln/Shatley Orchard St
160,36.155336,-81.116799,Old US Hwy 421
160,36.192566,-81.095122,Liberty Dr
216,36.168010,-81.144921,I St
185,36.091441,-81.359039,Lipford Rd
160,36.132781,-81.127841,421/Edgewood Rd
185,36.250951,-80.874444,Elk Spur St
160,36.156386,-81.191419,Union Methodist Church Rd
362,36.141038,-81.172372,/River St
160,36.129914,-81.161556,Oak Hill Dr/
185,36.158994,-81.161507,Locust St
160,36.168517,-81.229696,Lexi Dr/Green Acres Rd
216,36.198428,-81.150436,Fairplains Rd/Gentry St
160,36.175639,-81.143783,2nd St
160,36.160015,-81.143014,C B D Loop/7th St
160,36.158537,-81.163764,Jefferson/Boone Trl
160,36.255517,-81.066341,Little Mtn Church Rd/Shumate Dr
160,36.182574,-80.915458,/Lewis Ln
216,36.175521,-81.151382,Hackett St/Gordon St
160,36.148473,-81.154947,/North St
160,36.177858,-81.185794,Beshears-Owens Ln/Welcome Home Church Rd
185,36.114549,-81.134514,Country Club Rd/Country Club
246,36.155773,-81.165281,W Park Dr/W D St
216,36.319977,-80.873579,W Forest Dr/Martin Ridge Rd
160,36.112937,-81.206217,Germantown Rd/
160,36.152531,-81.146066,State Hwy 18/Wilkesboro Ave
185,36.167321,-81.191615,Boone Trl
160,36.232991,-81.176806,/Sparta Rd
185,36.151974,-81.203908,Dancy St
160,36.218714,-80.942952,Hoots Rd/Elkin Hwy
185,36.167578,-81.146063,I St/6th St
185,36.088322,-81.359234,Lipford Rd
185,36.136910,-81.102566,US Hwy 421
160,36.185342,-81.380046,/Pumkin Run Rd
185,36.219669,-81.164628,Chickadee Rd/Chicadee Rd
160,36.144771,-81.304149,/US Hwy 321/US Hwy 421
160,36.145735,-81.117520,James Knoll Dr/Maple Knoll Dr
185,36.301325,-81.006794,/Stoney Ridge School Rd
185,36.137822,-81.160945,/Exit 286A
160,36.146428,-81.269312,Eldrege/US Hwy 421
160,36.154349,-80.930736,421/Clingman
216,36.135186,-81.146620,/Oakwoods Rd
216,36.197102,-81.427834,US Hwy 421
334,36.156707,-80.989424,421/Exit 276
246,36.144811,-81.278549,/US Hwy 421
160,36.297998,-80.932790,Benham Church Rd
185,36.167178,-81.191472,Union School Dr/Boone Trl
334,36.028617,-81.298370,Dickson/Herring Ridge
160,36.182534,-81.150269,Duncan St/Sunset Dr
185,36.143202,-81.157052,Spruce St Exd
246,36.149692,-81.246330,Crestoak/US Hwy 421
185,36.070294,-81.177191,S State Hwy 16/Price Rd
216,36.139585,-81.178118,/S Collegiate Dr
185,36.174399,-81.143314,N St/2nd St
160,36.193258,-81.285238,Little Wesley Ln
160,36.241738,-81.195570,Windy Ridge Rd
472,36.251716,-80.876962,Austin Traphill Rd
499,36.149798,-81.184233,US Hwy 421/Bus 421
305,36.149756,-81.180617,Curtis Bridge Rd/Pennell St
246,36.135271,-81.146602,Oakwoods Rd/Exit 285
160,36.181506,-81.398168,Community Rd
160,36.225380,-81.251637,Zacks St
276,36.150622,-81.181696,Curtis Bridge Rd
160,36.147562,-81.162588,Woodland Blvd/Link St
160,36.201363,-81.089988,/Elkin Hwy
160,36.158221,-81.146797,Wilkesboro Blvd
160,36.147584,-81.173142,Brookwood Dr/Phillips Way
246,36.091370,-81.182324,Columbus Dr
160,36.112622,-81.076977,Statesville Rd/Spring Dr
160,36.208693,-81.462917,State Rd 1173
160,36.141892,-81.157916,S Spruce St/Church St
185,36.227878,-81.167045,Elso Rd/Elledge Mill Rd
160,36.192787,-81.265818,W Hi Acres Dr
160,36.241893,-80.882171,/J A Russell Dr
160,36.123965,-81.167425,State Hwy 16
185,36.131535,-81.165533,State Hwy 16/Woodfield Way/Westwood Ln
185,36.099951,-81.175434,State Hwy 16/Plaza Dr
185,36.121453,-81.152955,Forest Dr/Woodfield
305,36.145885,-81.161318,W Main St/S Cherry St/Bumgarner/River St
185,36.193492,-81.265858,W Hi Acres Dr/Stonebridge Rd
160,36.298585,-80.933088,Grange Rd/Austin Traphill Rd
216,36.248872,-80.873904,Wilkes St
185,36.191294,-81.411919,/US Hwy 421
160,36.319751,-80.970290,/Austin Traphill Rd
185,36.165328,-81.212335,Winkler Mill Rd/Castleberry Ln/Pads Rd
160,36.234612,-80.909652,/Pruitt Dr
160,36.148331,-81.063761,Old US 421 Rd/Fishing Creek
216,36.298026,-80.878341,Pleasant Ridge Rd
160,36.241026,-81.178730,/Yellow Banks Rd
160,36.211079,-81.056348,Rock Creek Rd/Elkin Hwy
160,36.235543,-80.903994,Elkin Hwy
185,36.149751,-81.222720,US Hwy 421
160,36.162234,-81.212039,Tyler/Winkler Mill Rd
185,36.187825,-81.235739,Boone Trl/Thunder Ln
276,36.155768,-81.162233,/W Park Ln
362,36.159731,-81.144746,7th St
334,36.156865,-81.144000,/Wilkesboro Ave
185,36.196284,-81.237899,Bumgarner Ln
160,36.170913,-81.218126,Pads Rd
552,36.149774,-81.231531,State Hwy 16/16/US Hwy 421
160,36.165867,-81.232439,Raven Green
658,36.150395,-81.189402,Winkler Mill Rd/US Hwy 421
334,36.170846,-81.140912,J St/2nd St
216,36.137733,-81.160531,/S Cherry St
160,36.145071,-81.308230,/US Hwy 421
185,36.158916,-81.162389,Locust St
160,36.165798,-81.129150,Orange St
160,36.359450,-81.246502,State Rd 1729/Sparta Rd
246,36.151075,-81.141546,Salem St/E Main St
246,36.159223,-81.154015,W D St
472,36.137531,-81.180504,/Moravian Creek
216,36.202408,-81.222315,Friendly Grove Church Rd/Millard Ln
160,36.121627,-81.148210,Town & Country Cir
160,36.119251,-81.153944,Forest Dr/Walnut Pl
160,36.160333,-81.141494,6th St
185,36.195593,-81.151558,Fairplains School Rd/Thomas St/Sparta Rd
160,36.097954,-81.185498,/Germantown Rd
160,36.158949,-81.361144,US Hwy 421
160,36.236563,-81.126668,Mountain View Rd/Holder St
160,36.163054,-81.235098,State Hwy 16/McClanery Rd
185,36.170926,-81.193694,Boone Trl
160,36.153501,-80.994527,421
160,36.147331,-81.264023,US Hwy 421
185,36.214518,-81.165986,Ruritan Park Rd/Meadowview Ln
160,36.195075,-81.423667,Fletcher Creek Ln/US Hwy 421
185,36.132882,-81.210145,Old Hwy 268/Old Nc 268
185,36.161163,-81.149186,10th St/Brame Ave
216,36.159603,-81.363986,Boone Trail/old 421/Old 421 Hwy
160,36.216877,-81.246787,/N State Hwy 16
160,36.158259,-81.163243,Boone Trl/Hickory St
160,36.153830,-81.044222,Old US 421 Rd/Robin Hill Rd
160,36.149333,-81.219187,State Rd 1182
160,36.230105,-81.161787,Clover St
160,36.178432,-81.148104,W Waugh St/Hill St
185,36.137627,-81.156580,Joines St
276,36.137627,-81.096028,US Hwy 421
160,36.325350,-81.222790,Sawmill Rd/18/Sparta Rd
160,36.339453,-81.038498,Traphill Mill Rd/Traphill Rd
185,36.173990,-81.149902,Sloan St/Finley Ave
185,36.149829,-81.244913,US Hwy 421
185,36.150584,-81.015168,/US Hwy 421
246,36.216060,-81.164242,Crabapple Ln
334,36.149069,-81.177622,Curtis Bridge Rd
185,36.144313,-81.281407,/US Hwy 421
160,36.165364,-81.174779,Green Bay Ln
185,36.222748,-81.169040,Sparta Rd/Briar Creek Dr
160,36.178661,-81.382368,US Hwy 421
216,36.142497,-81.158223,S Spruce St/Church St
185,36.159121,-81.146155,9th St
246,36.149810,-81.179407,W D St/Curtis Brg
658,36.150316,-81.190132,US Hwy 421
160,36.160185,-80.966980,421
160,36.161698,-81.183632,/Jessies Park Dr
216,36.187409,-81.151908,Gilreath Brook St
216,36.149516,-81.250497,/US Hwy 421
160,36.145905,-81.105075,Mimosa Ln/Holland St
185,36.132794,-81.209902,Old Hwy 268/Old Nc 268
216,36.159067,-81.364314,US Hwy 321/Lewis Fork Baptist Church Rd
160,36.333566,-80.877045,Mountain Park Rd
160,36.184984,-81.206907,Eastridge Ln
160,36.248904,-81.197957,Hill Ave
185,36.229224,-81.160836,Circle Dr/Mulberry Fields Rd/Elledge Mill Rd
216,36.168613,-81.373011,US Hwy 421
160,36.250985,-80.874794,Elk Spur St/Beauty St
160,36.170271,-81.161659,Don St
160,36.206329,-81.008944,Unnamed Pr Dr
185,36.251356,-80.878174,/Elkin Hwy/Lee St
160,36.137302,-81.104624,C C Wright School Rd
185,36.174109,-81.240570,State Hwy 16/McClanery Rd
334,36.145589,-81.177646,US Hwy 421
305,36.196046,-81.149634,Fairplains School Rd
160,36.244610,-81.168136,Yellow Banks Rd/Mill Ridge Rd
160,36.166928,-81.150231,J St
160,36.125918,-81.170834,Summerville Pl/Old N C Hwy 18 S
185,36.249815,-81.115433,Rock Creek Rd/Mountain View Rd/Traphill Rd
216,36.148278,-81.258611,S Minton Rd/US Hwy 421
246,36.346750,-80.897761,Mining School Rd
276,36.144768,-81.168281,Hill Ave/Elm St
160,36.146755,-81.116795,James Knoll Dr/James Knoll
160,36.158830,-81.233559,Raven Maple/Raven Poplar
160,36.183250,-81.164016,Osborne Sunset Dr
362,36.144508,-81.164108,Curtis Bridge Rd/W Main St/River St
216,36.138450,-81.169013,US Hwy 421
216,36.198856,-81.153048,Dancy St/Sparta Rd
185,36.184425,-81.129907,Fairplains Rd/Elkin Hwy
216,36.144924,-80.898612,421/
160,36.149768,-81.299403,/Boiling Springs Rd
185,36.159811,-81.141988,Cherry St
160,36.196789,-81.414124,Shady Walk Ln
160,36.211365,-81.056425,Rock Creek Rd/Rock Creek
185,36.154267,-81.093020,Butternut Rd/E Crooked Bow Rd
160,36.166091,-81.265970,N Minton Rd
160,36.151465,-81.145358,/State Hwy 18
216,36.186049,-81.150005,/Russell St/Sparta Rd
160,36.203670,-81.324576,Parsonville Rd
276,36.158265,-81.164240,Hickory St
160,36.343820,-80.916279,/S Center Church Rd
160,36.095261,-81.182546,Moravian Falls Rd/Homers Way Ln
160,36.132906,-81.128144,Edgewood Rd/US Hwy 421
160,36.199531,-81.149718,Gentry St/Blairfield Acres
216,36.143442,-81.287252,S Recreation Rd/N Recreation Rd/US Hwy 421
246,36.182467,-81.225956,Meadow Ln/Meadowland Dr
334,36.187022,-81.149963,Ridge St/Roger St/Sparta Rd
185,36.180510,-81.240498,N State Hwy 16/State Hwy 16/Rudd Miller Rd
160,36.165965,-81.265920,N Minton Rd
160,36.148882,-81.255884,US Hwy 421
160,36.297683,-81.348719,/N State Hwy 16
160,36.181778,-81.397765,US Hwy 421
362,36.166056,-81.136159,Statesville Rd
246,36.216024,-81.164185,Crabapple Ln
185,36.208909,-81.068044,/Rock Quarry Rd
762,36.150212,-81.195158,US Hwy 421/Addison Ave
160,36.109438,-81.152410,Fairway Ln
305,36.137587,-81.181245,/Moravian Creek
185,36.184202,-81.130134,Elkin Hwy
160,36.168397,-81.149436,K St
216,36.163061,-81.148685,F St/9th St
160,36.215264,-81.230814,/Martin Ln
216,36.138457,-81.086745,421
185,36.181602,-81.136831,White Pine St/Elkin Hwy
160,36.205834,-80.998723,/Elkin Hwy
246,36.149748,-81.207506,US Hwy 421
216,36.237305,-81.105343,/Airport Rd
160,36.115202,-81.239201,Timberlake Dr
160,36.161870,-81.125026,Statesville Rd/Highland Dr
216,36.133316,-81.123447,421
160,36.173086,-81.146118,4th St/N St
216,36.165508,-81.151038,I St/Trogdon St
216,36.198812,-81.144807,Hilltop Acres St
305,36.159799,-81.148351,C St/10th St
160,36.130133,-81.142960,Brushy Mountain Rd
185,36.137859,-81.191236,River St
160,36.160487,-80.945348,State Rd 2316
216,36.146804,-81.267919,Leather Hinge/US Hwy 421
160,36.208067,-81.137480,Mountain View Rd/Mtn Vw/Cartpath Rd
216,36.103388,-81.177267,Smithey Brook Dr/Talon Dr
160,36.167221,-81.149544,J St/8th St
246,36.163802,-81.140176,/4th St
160,36.089148,-81.188533,Falls Rd
160,36.144361,-81.189300,Stokes St/Industrial Dr
246,36.141195,-81.171216,Walnut Cir/River St
216,36.163320,-81.212408,/Winkler Mill Rd
185,36.227847,-81.166923,Earl Ln/Elledge Mill Rd
216,36.162318,-81.146410,8th St/Brame Ave
185,36.136664,-81.195585,W State Hwy 268/Ithaca Dr
185,36.200573,-81.092894,Elkin Hwy
185,36.148484,-81.151200,Broad St/E Main St
160,36.095400,-81.276467,Boomer Rd
160,36.126900,-81.102920,Statesville Rd/Major Dr
160,36.157807,-81.102611,Old State Hwy 60/Holland Woods Rd
216,36.198838,-81.163928,Deerfield Rd/Byrd Ridge Rd
216,36.135876,-81.169494,Overlook Dr
160,36.155385,-80.930808,Clingman/Exit 272
185,36.132319,-81.145837,Brushy Mountain Rd/Industrial Park Rd
160,36.111147,-81.269394,/Triple Cove Dr
185,36.188718,-81.409472,Shady Walk Ln/US Hwy 421
160,36.338936,-81.039370,Roundhill Ch/Roundhill Church Rd
185,36.157472,-81.159903,Oak St/W D St
216,36.146061,-81.315847,US Hwy 321
185,36.137676,-81.160431,S Cherry St
305,36.153870,-81.159732,W Park Rd/W Park
246,36.162910,-81.137631,Cherry St/Chestnut St
160,36.188891,-81.237235,/Boone Trl
160,36.248506,-81.202482,Mountain Valley Church Rd
216,36.121702,-81.125098,Fairview Ln
185,36.148815,-81.149765,E Main St
276,36.150121,-81.246284,Crestoak Dr/Crestoak
305,36.164439,-81.144095,6th St
185,36.137587,-81.160513,Exit 286A/S Cherry St
185,36.170875,-81.150912,Trogdon St/Elizabeth St
216,36.189210,-81.409945,US Hwy 421
160,36.188027,-81.124753,Elkin Hwy/Sidney Ave
160,36.267823,-80.899411,/Little Elkin Church Rd/Austin Traphill Rd
160,36.168089,-81.150105,Franklin St/8th St
185,36.150422,-81.070358,/Foster Mill Rd
216,36.176787,-81.150660,Riverside Dr/Riverside
160,36.150088,-81.110474,Statesville Rd/
216,36.215290,-81.163711,Sparta Rd
160,36.130183,-81.143064,Brushy Mountain Rd
334,36.165160,-81.130929,Statesville Rd/
160,36.214856,-81.162765,Sparta Rd
185,36.171888,-81.193582,Welcome Home Rd
216,36.149742,-81.217512,US Hwy 421
160,36.167528,-81.216273,Pads Rd
185,36.162743,-81.144073,/D St
160,36.213870,-81.157814,/Kyle St
160,36.219684,-81.220655,Goddard Ln/Porter St
472,36.251659,-80.876861,/Austin Traphill Rd
216,36.159096,-81.148736,Forester Ave
160,36.179764,-81.149876,Duncan St
185,36.161311,-81.142068,6th St/B St
160,36.111391,-81.131240,Brushy Mountain Rd/Valley Dr
185,36.228434,-81.165924,Gwyn Hayes St/Elledge Mill Rd
276,36.159517,-81.149011,C St/Forester Ave
160,36.307152,-81.081535,Traphill Rd/Absher Rd
334,36.146357,-81.168390,Woodland Blvd/Curtis Bridge Rd
216,36.151302,-81.182253,/Old Nc 16 Rd
418,36.155505,-81.167762,W D St
160,36.202213,-81.204067,N Oakgrove Exd/Grove Way
185,36.191992,-81.140812,Watkins Ln
216,36.149571,-80.921039,421
216,36.155424,-81.198919,/Walden Point Dr
185,36.143723,-81.176093,State Hwy 16/Motel Dr
216,36.171589,-81.150314,Hinshaw St/Cowles St
185,36.149775,-81.229214,US Hwy 421/Browns Ford Rd
160,36.196342,-81.152866,Rosemont Dr
160,36.165291,-81.127689,/Orange St
160,36.164431,-81.127394,Statesville Rd/Armory Rd
160,36.184794,-81.255561,Boone Trl/Boone Trail/old 421
185,36.158279,-81.147344,10th St/Cbd Loop
246,36.152057,-80.998885,421//US Hwy 421
160,36.148100,-81.221213,Azalea Ln
160,36.161917,-81.143239,C St
160,36.139287,-81.200293,/Industrial Dr
160,36.188708,-81.222512,Meadowbrook Cir/Meadowbrook Ln
216,36.143273,-81.165907,/Wilkes St
160,36.333450,-80.877239,Douglas Town Rd/Mountain Park Rd
160,36.175387,-81.377749,State Rd 1400
160,36.214923,-81.232538,Kent Rd
160,36.148536,-81.217184,State Rd 1182
246,36.135282,-81.146711,Exit 285/Oakwood Rd
390,36.165474,-81.142960,F St/5th St
216,36.144382,-81.281845,/US Hwy 421
185,36.176078,-81.146254,3rd St/Reynolds Rd
160,36.158549,-81.147538,10th St/
185,36.139548,-81.159381,S Cherry St
160,36.164157,-81.229611,State Rd 1379/Raven Oak Dr/Midlawn Dr/Raven Green
160,36.284925,-80.916450,/Austin Traphill Rd
160,36.170934,-81.148769,M St
246,36.149722,-81.211911,US Hwy 421
418,36.185832,-81.236435,Bobwhite Rd
160,36.135831,-81.103072,Statesville Rd
216,36.122979,-81.167842,Moravian Falls/State Rd 1194
160,36.325521,-81.222438,Sawmill Rd
160,36.337248,-80.895306,Mining Ridge Church Rd/Mountain Springs St
216,36.166757,-81.137128,/E St/2nd St
276,36.140101,-81.097956,H Anderson Rd/
160,36.127116,-81.156868,Fairview Cir/Woodfield Way
160,36.150626,-81.209556,Zion Hill Church Rd
216,36.145825,-81.170287,Woodland Blvd/Johnson St
185,36.255450,-80.878052,Edwards Lynwood Dr
160,36.170999,-81.148606,M St
305,36.164011,-81.143816,6th St/E St
160,36.169056,-81.143488,4th St/I St/Walker Pl
185,36.162082,-81.235734,Green Leaf Dr
160,36.150173,-81.066878,Wedford
160,36.160030,-80.966981,421
216,36.147661,-81.154668,/W Main St
160,36.261952,-81.121964,Saintclair Rd/Traphill Rd
185,36.250976,-80.874705,Elk Spur St
160,36.111301,-81.138446,Country Club Rd/Mayview Ave
160,36.218040,-81.154105,Ridgewood Dr/Wildwood Dr
160,36.163049,-80.992306,/Red White & Blue Rd
246,36.193344,-81.150519,/Sparta Rd
160,36.184738,-81.255664,Boone Trl/Boone Trail/old 421/Hacketts Rd
160,36.134248,-81.222840,/Ranger Rd
160,36.095099,-81.276334,B & R Rd/Boomer Rd
160,36.145937,-81.080372,Allsion Ln/Old US 421 Rd
216,36.194008,-81.150801,/Fairplains Church St/Sparta Rd
160,36.250903,-80.872809,Elk Spur St
160,36.289194,-81.098850,Hawkins Hollow Rd/Traphill Rd/Traphill
185,36.151193,-81.003132,US Hwy 421
185,36.141331,-80.877813,421
160,36.339169,-81.039519,Roundhill Ch/Traphill Rd
185,36.227838,-81.166153,Earl Ln
185,36.175733,-81.151459,Gordon St
160,36.230059,-81.157735,Elledge Mill Rd/Fields Rd
160,36.333207,-80.879082,/Old Hwy 21
160,36.173573,-81.376159,US Hwy 421
160,36.152925,-81.112547,Statesville Rd
216,36.220854,-81.248883,N State Hwy 16/Walker Ln
185,36.065993,-81.175910,S State Hwy 16/
185,36.250916,-80.873669,Elk Spur St
160,36.148247,-81.065075,/Old US 421 Rd
160,36.289144,-81.098884,New Covenant Church Rd/Traphill Rd/Traphill
160,36.249901,-80.873843,Greenwood/Wilkes St
160,36.218678,-81.167876,Chickadee Rd
362,36.149402,-81.192926,Addison Ave
185,36.155563,-81.343390,US Hwy 321/S Goforth Rd/US Hwy 421
276,36.180606,-81.159582,Myers Park Dr/Myers Park Ln
160,36.205881,-80.994661,Elkin Hwy
160,36.182229,-81.189777,Suncrest Orchard Rd/Welcome Home Church Rd
216,36.136204,-81.199458,Briarwood Ln/W State Hwy 268
216,36.149695,-81.247315,/US Hwy 421
160,36.179228,-81.144434,Circle Dr/Elkin Hwy
160,36.162359,-81.222367,Raven Oak Dr
216,36.257790,-80.884252,Bourbon St/Austin Traphill Rd
216,36.249323,-80.873871,Wilkes St
390,36.159561,-81.123052,Statesville Rd
390,36.158972,-81.155154,/W D St
160,36.183163,-81.132125,Legion Dr
185,36.151826,-80.997002,US Hwy 421
160,36.146503,-81.080088,/Allsion Ln
246,36.066875,-81.176172,S State Hwy 16/Garden Dr
160,36.317744,-80.993669,Hanks St/King Billings Rd
246,36.215963,-81.164501,Shatley Orchard St
160,36.141011,-81.167757,College St
160,36.273114,-80.902719,/Austin Traphill Rd
185,36.179449,-81.380518,Pumkin Run Rd
305,36.145175,-81.177470,State Hwy 16
185,36.271594,-80.880238,Morning Dr/L and L Rd
160,36.265687,-81.130185,/Yellow Banks Rd
185,36.141319,-81.179486,/River St
185,36.031946,-81.298826,/Herring Ridge
216,36.140702,-81.163853,Church St/S Moravian St
160,36.218239,-81.000129,White Plains Rd/Mallard Way
305,36.165044,-81.139153,3rd St
160,36.204166,-81.012778,McNeill Hill Dr/Elkin Hwy
216,36.160713,-81.148900,10th St/D St
160,36.158931,-81.353811,/US Hwy 321
160,36.135457,-81.110478,US Hwy 421
160,36.331278,-81.052418,Traphill Rd
390,36.252127,-80.877689,State Hwy 268/Austin Traphill Rd
185,36.170616,-81.149736,Franklin St/Hinshaw St
185,36.160690,-80.955193,421
160,36.190782,-81.144541,/Reynolds Ave
185,36.044814,-81.292459,S State Hwy 18/Ch Pl
160,36.339399,-81.038741,Traphill Rd
160,36.211101,-81.056195,Rock Creek/Elkin Hwy
246,36.197693,-81.149129,Fairplains Rd/Hilltop Acres St
160,36.206469,-81.077182,Elkin Hwy
160,36.168453,-81.146655,J St/6th St
305,36.162342,-81.140976,/5th St
160,36.154253,-80.993354,421
160,36.161206,-80.975322,421/Berry Ln
305,36.149731,-81.214378,US Hwy 421
160,36.217788,-80.951242,/Elkin Hwy
160,36.237784,-81.064470,Robys Rd
305,36.154055,-81.160551,Willow Ln
216,36.146632,-81.268030,/Leather Hinge/US Hwy 421
185,36.239998,-81.106216,/Airport Rd
185,36.203224,-81.255244,/Arbor Grove Church Rd
185,36.149829,-81.244763,Countryside Dr/US Hwy 421
246,36.147908,-81.153616,W Main St/N West St/S West St
160,36.262003,-81.300615,Colvard Rd
305,36.141044,-81.172126,Exit 286B/River St
160,36.150724,-81.008673,421
160,36.245316,-80.887627,State Rd 2301/J A Russell Dr
160,36.122055,-81.094529,Laurel Mountain Rd
246,36.152805,-81.202403,K St
185,36.135337,-81.162351,16
160,36.200237,-81.163447,/Byrd Ridge Rd
552,36.149903,-81.189322,/Addison Ave
276,36.186510,-81.236055,Caudill Ln
216,36.146510,-81.268846,/US Hwy 421
216,36.159257,-81.153856,W D St/D St
185,36.146709,-81.317543,US Hwy 321/Dragstrip Rd
160,36.168572,-81.238929,State Hwy 16/Remington St
160,36.281804,-81.100193,Traphill Rd
276,36.142900,-81.170796,Welborn Ave
246,36.149352,-81.028926,/US Hwy 421
334,36.158129,-81.158006,Boone Trl/W D St
276,36.150629,-81.203918,Dancy St
216,36.160823,-81.147237,/9th St
160,36.196362,-81.249758,Old Hwy 60/Hart Ln
160,36.292665,-80.999704,/N Lomax Rd
160,36.098962,-81.281058,W State Hwy 268
185,36.124718,-81.115376,/Mahogany/Buck Thorn Dr
160,36.213302,-81.157644,Kyle St/Cartpath Rd
160,36.149925,-81.109000,Old State Hwy 60
160,36.134107,-81.188750,Skyland/Wood Run Dr/Skyland Dr
185,36.149715,-81.210106,US Hwy 421
160,36.188305,-81.123911,Elkin Hwy
185,36.122400,-81.167635,Moravian Falls/State Hwy 16
160,36.208587,-81.254669,L and R St/Emerald Village Park Rd/Huffman Park Rd
216,36.187545,-81.237113,Green Acres Myers St/
305,36.157526,-81.164188,Hickory St
160,36.138312,-81.159272,Ruffin St
216,36.150702,-81.002723,US Hwy 421
160,36.155489,-81.116643,Statesville Rd/Old US Hwy 421
216,36.135191,-81.146291,Exit 285
160,36.135241,-81.110727,421
160,36.080875,-81.198400,/Falls Rd
216,36.149798,-81.234961,/US Hwy 421
185,36.131924,-81.149354,State Rd 2516/Industrial Park Rd
160,36.158014,-81.146791,Cherry St/Wilkesboro Blvd
445,36.149885,-81.184256,Bus 421
216,36.156519,-81.345332,US Hwy 421
160,36.225311,-81.251518,Zacks St
185,36.162015,-81.169276,Friendship Cross St
185,36.125550,-81.153070,Fairview Cir
305,36.187810,-81.149913,Paradise Rd/Sparta Rd
160,36.143443,-81.090019,Old US 421 Rd/Parkers Farm Rd
185,36.135431,-81.103019,/Statesville Rd/Holly Mtn Farm
246,36.164355,-81.121989,Armory Yard
160,36.129459,-81.162565,Woodfield Way
160,36.108125,-81.208593,Germantown Rd
185,36.204992,-81.157892,Handy Walker St/Sparta Rd
160,36.135085,-81.176902,School St/College Ave
185,36.229245,-81.161775,Mulberry Fields Rd/Elledge Mill Rd
526,36.141400,-81.177617,S Collegiate Dr/River St
160,36.211816,-81.164591,Monticello/Monticello Dr
362,36.151195,-81.190141,Winkler St/Winkler Mill Rd
160,36.169835,-81.280857,Huffman River Ln
499,36.149778,-81.184173,US Hwy 421/Bus 421
160,36.205496,-81.136387,Forest Rd/Doncaster Dr
185,36.149421,-81.322388,US Hwy 421
185,36.144935,-81.306602,US Hwy 321/US Hwy 421
246,36.169604,-81.164013,Coffey St
160,36.129261,-81.166065,Windsor St/State Rd 2525
160,36.154230,-80.993820,Windy Gap Rd
160,36.173002,-81.201551,Prospect Dr/Cricket Pl
160,36.173791,-81.150541,Pilson St/Hinshaw St/Gordon St/Finley Ave
160,36.208096,-81.255009,/Emerald Village Park Rd
160,36.096926,-81.182301,Moravian Falls Rd
185,36.182489,-81.148410,Sunset Dr/Sparta Rd
160,36.163176,-81.187262,Curtis Bridge Rd/Boone Trl
160,36.091600,-81.181201,Shamrock Rd/W Brocktown Rd
160,36.206513,-81.077029,Elkin Hwy
216,36.160729,-81.143442,7th St/B St
160,36.166214,-81.063158,/Shew Ridge Mission Rd
185,36.178370,-81.381659,US Hwy 421
160,36.259853,-80.880220,Decatur Ave/Pleasant Hill Dr
216,36.184621,-81.149645,Jolly St
246,36.132234,-81.167678,Fletcher St/Old N C Hwy 18 S/Westwood Ln
216,36.131433,-81.165602,State Hwy 16
216,36.148959,-81.149155,E Main St
246,36.066674,-81.189634,/Morning Light Dr
216,36.143494,-81.166046,Wilkes St/River St
185,36.169173,-81.054755,Shew Ridge Mission Rd/Shepherd Pl
185,36.197315,-81.428156,Fall Creek Rd/US Hwy 421
185,36.063884,-81.193718,/Overlook Dr/Morning Light Dr
216,36.137644,-81.160606,/Exit 286A/S Cherry St
160,36.142682,-81.158329,Spruce St Exd/S Spruce St
160,36.144073,-81.283648,US Hwy 421
185,36.146671,-81.273322,Pilgrim Church Rd
185,36.119516,-81.137414,Brushy Mountain Rd
160,36.163881,-81.145455,7th St
160,36.242772,-81.172646,Yellow Banks Rd/Sandy Flats Rd
160,36.210210,-81.061472,/Justice Dr/Elkin Hwy
160,36.163184,-81.218979,N Silver Creek Rd
160,36.127792,-81.103311,Statesville Rd
185,36.124796,-81.101821,Gordon Rd
185,36.214863,-81.237972,Pleasant Home Church Rd
160,36.202678,-81.256676,Ridgewood Ln/Arbor Grove Church Rd
216,36.148324,-81.034501,421
160,36.153645,-80.994798,421
216,36.149642,-81.250585,/US Hwy 421
305,36.181042,-81.187731,Rolling Pine St
185,36.235046,-81.073346,/Richardson Ln
160,36.160241,-81.104967,Holland Woods Rd
160,36.131470,-81.165440,Woodfield Way/16
276,36.256997,-80.883543,Pleasant Hill Dr/Austin Traphill Rd
185,36.169230,-81.144791,J St/Euclid Ave
160,36.162623,-81.183613,/Jessies Park Dr/Oak Ave
276,36.256540,-80.883007,Piedmont Rd/Austin Traphill Rd
160,36.307286,-80.947339,Edwards Cedar Ln/Austin Traphill Rd
160,36.215298,-81.001917,Wo Blackburn Rd/State Rd 1997
160,36.208285,-81.257423,Bassett Rd
160,36.182715,-81.133140,Elkin Hwy/Legion Dr
185,36.152424,-80.997175,421
185,36.150137,-81.145733,/E Main St
334,36.156997,-81.143940,Wilkesboro Ave
160,36.185028,-81.130178,Wf Gaddy Rd/Fairplains Rd
216,36.198468,-81.150421,Gentry St
160,36.313021,-81.214219,Antler Dr/Sparta Rd
246,36.140107,-81.099181,Green Circle Dr
160,36.202285,-81.169694,Mount Olive Ln
305,36.156386,-80.989343,421/
160,36.175212,-81.150014,Gwyn St
216,36.192307,-81.414076,US Hwy 421
185,36.208691,-81.461675,US Hwy 421
185,36.166670,-81.145533,H St/6th St
334,36.143516,-81.162038,Highland St/Factory St
390,36.149882,-81.184911,State Hwy 16/Bus 421
185,36.161739,-81.142364,/6th St
216,36.165299,-81.146100,G St
185,36.154272,-81.092554,E Crooked Bow Rd
246,36.215279,-81.231284,Alonzo McNeil Dr/Martin Ln
160,36.106815,-81.141886,Holly Tree Dr
185,36.141319,-81.179382,/River St
305,36.160620,-81.146362,C St/Gordon Ave
160,36.147551,-81.318840,Churchview Dr/US Hwy 421
185,36.218942,-80.941253,Old Traphill Rd/Main St/Elkin Hwy
160,36.166018,-81.064116,Shew Ridge Mission Rd
185,36.145082,-81.187704,Industrial Dr
160,36.281759,-80.913329,Marcus Tucker Rd/Austin Traphill Rd
305,36.057803,-81.304999,/Yellow Bird Ln
160,36.130673,-81.161590,/Oak Hill Dr
246,36.154428,-81.163397,/W Park Cir
185,36.364917,-80.930307,US Hwy 21
160,36.216400,-81.234648,Alonzo McNeil Dr/Pleasant Home Church Rd
216,36.174685,-81.150879,Herndon St/Gordon St
160,36.169038,-81.149343,Trogdon Ave
185,36.145905,-81.272232,US Hwy 421
160,36.166412,-81.148946,8th St
160,36.215028,-81.250366,Country Ln
160,36.215399,-81.001554,Unnamed Private Dr/White Plains Rd
185,36.155455,-81.343536,US Hwy 321/S Goforth Rd
160,36.143916,-81.281182,/Fox Ridge Rd/Fox Rd
216,36.249921,-81.115594,Mtn Vw/Traphill Rd
