Estimated daily crossings,Latitude,Longitude,Name
160,29.359057,-99.133462,Ave D
185,29.534484,-99.109695,State Hwy 173/Co Rd 2481
276,29.335000,-99.261901,Co Rd 5217
185,29.373945,-99.159631,/FM 462
185,29.343138,-99.138602,24th St/Ave J
246,29.146029,-98.901163,/E Coker Ave
185,29.320745,-99.325596,US Hwy 90/Pvt Rd 5120
305,29.146439,-98.915218,Cardinal Dr/W Hondo Ave
216,29.355750,-98.877248,London St/Lorenzo St
472,29.349311,-99.140676,17th St/Ave K
216,29.345553,-98.874867,/Constantinople St
185,29.338870,-99.146145,Ave Q/28th St
216,29.350498,-98.881520,Algiers St/Lafayette St
160,29.312735,-99.291290,/Cr 512
160,29.316794,-98.927844,Co Rd 5606/Co Rd 561
276,29.148830,-98.890624,Harralton Cir
246,29.355399,-98.858509,US Hwy 90
160,29.622450,-99.207346,Co Rd 131
160,29.315375,-98.819335,Co Rd 4713
185,29.314984,-98.918621,Co Rd 561/Co Rd 5601
185,29.344740,-99.138084,Ave I/22nd St
216,29.351026,-99.060993,/US Hwy 90
160,29.096553,-98.947114,Co Rd 7612/I- 35 Access Rd
160,29.348833,-98.937146,/US Hwy 90
185,29.101585,-98.941798,/I- 35 Access Rd
216,29.348653,-98.956167,US Hwy 90
160,29.437844,-98.885380,/FM 471
160,29.235293,-98.804679,FM 2790/Laredo
246,29.179901,-98.848767,Unknown Pr Rd
185,29.349424,-99.117404,18th St
160,29.348737,-98.949913,/US Hwy 90
160,29.137835,-98.893273,Rossville Rd
160,29.357244,-98.880659,Petersburg St/Angelo St
865,29.347889,-99.134893,19th St/Ave F
160,29.353560,-98.999394,US Hwy 90/Co Rd 454
445,29.353967,-98.879306,US Hwy 90/London St
160,29.388748,-99.212999,/Co Rd 421
185,29.190955,-98.859816,3rd St/Pearson St
216,29.358350,-98.861514,Country Ln/Hollow Dr
216,29.365411,-98.804751,US Hwy 90
160,29.545360,-98.924563,/Co Rd 2611
276,29.352016,-98.881535,London St/Constantinople St
160,29.278155,-98.841731,/Co Rd 5714
216,29.336111,-99.280815,Commerce St
160,29.320637,-98.813228,/FM 471
246,29.177882,-98.873554,Co Rd 6721
185,29.654389,-98.817124,State Hwy 16
160,29.351569,-98.952541,Pvt Rd 4619
246,29.348790,-98.971092,/Co Rd 4614/US Hwy 90
216,29.156291,-98.892426,Co Rd 774
185,29.355531,-98.837329,US Hwy 90/Pvt Rd 4751
579,29.132149,-98.904608,Ross Ave/King Ave
276,29.144045,-98.909518,Windy Knoll Dr/Brown Ave/N Windy Knoll Dr
305,29.331481,-99.276680,Main St
276,29.200688,-98.822200,I- 35
362,29.139613,-98.903862,N Transportation Dr/Briscoe Ave
160,29.347103,-99.127317,22nd St
418,29.188941,-98.837683,Co Rd 6767
185,29.140693,-98.911442,Howell Ave/Jamison Dr
160,29.310025,-98.811738,Tarde Ave
160,29.350835,-99.147594,15th St/Ave R
246,29.548751,-98.893386,Co Rd 2702/Co Rd 2701/Co Rd 2700
160,29.353708,-99.155495,Cedar St/Ave Y
185,29.361627,-98.950023,Pr Dr
160,29.302862,-98.805037,W FM 2790 S/Lytle-Lacoste Rd
160,29.321482,-98.877729,Co Rd 5737/Co Rd 5735/Blue Point Ln
246,29.353180,-98.887103,Houston St/
305,29.346147,-99.148877,Ave T/20th St
276,29.349795,-99.150378,16th St/Ave U
418,29.346522,-99.152639,19th St/Avenue W
216,29.133728,-98.897898,E Hondo Ave
276,29.351253,-98.882398,Algiers St/London St
216,29.145414,-98.901554,/Fernandez Ave
185,29.235260,-98.809419,/Co Rd 681
160,29.187035,-98.941017,Co Rd 664
185,29.461301,-98.837553,Co Rd 3822/Co Rd 3830
390,29.154740,-98.904099,Fox Run/Libold Dr
160,29.302796,-98.805103,Lytle-Lacoste Rd
216,29.220648,-99.018165,Co Rd 545/Co Rd 653
160,29.612974,-98.996271,Pr 1512
276,29.113204,-98.927180,I- 35 Access Rd
334,29.155065,-98.909593,Hickory Hwy/N Windy Knoll Dr
216,29.352805,-98.871602,Lower Lacoste Rd/Van de Walle Ln
185,29.348286,-98.901023,US Hwy 90
246,29.350776,-99.047523,US Hwy 90
185,29.331368,-99.259605,Co Rd 5226
185,29.217634,-98.949087,/FM 1343
305,29.147739,-98.878464,I- 35/
362,29.344566,-99.141472,22nd St/Ave M
216,29.200018,-98.852564,2nd St
552,29.351750,-98.885263,US Hwy 90/Madrid St
160,29.540216,-98.884329,/FM 1283
160,29.336431,-99.246139,US Hwy 90
216,29.378314,-98.883534,Pvt Rd 4703
160,29.143920,-98.918766,Bluebonnet Ave
160,29.187070,-98.863483,3rd St/Bartlett St
160,29.128701,-98.904906,FM 3176
334,29.153103,-98.873737,I- 35/FM 463
160,29.355897,-98.991128,Co Rd 4643
305,29.348388,-99.139484,18th St/Ave J
160,29.319807,-98.913573,/FM 1343
160,29.417240,-99.116855,State Hwy 173
216,29.350672,-99.052297,US Hwy 90 E/US Hwy 90
160,29.332020,-99.258159,Co Rd 422/Co Rd 5216
160,29.157084,-98.909593,Wedgewood Way/N Windy Knoll Dr
305,29.339308,-99.140826,Ave L/28th St
246,29.315380,-99.354815,US Hwy 90
216,29.136733,-98.909033,Wallace Ave
160,29.348749,-98.933343,US Hwy 90/Pvt Rd 4626
276,29.137943,-98.888242,Rossville Rd
362,29.355071,-98.890025,Washington St/Geneva St
160,29.134203,-98.908269,/S Commercial Dr
160,29.357484,-98.891103,Old River Rd
246,29.189958,-98.860760,3rd St/Kearney St
276,29.144871,-98.919156,FM 2200 W/Cardinal Dr
276,29.351844,-99.129702,15th St/Ave A
185,29.348301,-98.878985,Algiers St/Gentilz St
160,29.122733,-98.889481,/Cotton Gin Rd/Co Rd 7711
160,29.307074,-98.811718,Ney Ave
334,29.330897,-99.272729,/Alta Vista St
334,29.153922,-98.924410,Co Rd 4514/State Hwy 173
472,29.345300,-99.146051,21st St/Ave Q
305,29.133875,-98.903682,S Tilley Dr/Webb Ave
305,29.335180,-99.135515,/Ave G
418,29.348298,-98.910878,/US Hwy 90
185,29.214582,-98.833567,State Hwy 132
185,29.349442,-99.138419,17th St/Ave I
390,29.310513,-98.814377,N Front St/Castro Ave
185,29.232804,-98.804681,FM 2790
185,29.151364,-98.886208,E Colonial Pkwy
160,29.332970,-99.143054,34th St/Ave O
390,29.139520,-98.886814,Rossville Rd
216,29.162390,-98.899437,/Cemetery Rd
160,29.362692,-98.874181,/FM 471
362,29.141347,-98.899078,Loraine Dr
472,29.185831,-98.842214,Co Rd 6767/
362,29.111517,-98.928055,/I- 35
185,29.334575,-98.975300,Co Rd 4646
160,29.164281,-98.899457,Co Rd 676
160,29.108495,-98.922488,7617/
160,29.176819,-98.925228,Co Rd 4514/Co Rd 6614
216,29.335900,-99.135517,31st St/Ave G
276,29.349297,-99.152626,16th St/Avenue W
216,29.152306,-98.877652,Co Rd 773
246,29.379495,-99.150856,Co Rd 444/Lone Oak Rd
160,29.219972,-98.810216,Co Rd 6843
185,29.140838,-98.909488,S Windy Knoll Dr/Windy Knoll Dr/W College Ave
160,29.225192,-98.812871,/State Hwy 132
160,29.315580,-98.811652,Bexar St/Carle Ave
246,29.358594,-98.826860,/US Hwy 90
160,29.355784,-98.887492,Berlin St/Algiers St
390,29.153794,-98.904175,Libold Dr/Colonial Pkwy
334,29.137903,-98.903733,/Wilson Ave
216,29.336859,-99.176378,US Hwy 90
418,29.146208,-98.904251,N Sayers Dr/W Coker Ave/Coker Ave
160,29.175003,-98.909337,Pvt Rd A
526,29.142342,-98.909673,McAnnely Ave/W Hondo Ave
246,29.336354,-99.195076,US Hwy 90
276,29.348460,-99.124298,19th St
472,29.187229,-98.847923,Walton St/del Monte Dr/FM 471
185,29.356286,-98.922056,Co Rd 4516
185,29.348787,-99.116482,US Hwy 90
276,29.188630,-98.858980,5th St/Kearney St
305,29.341445,-99.143489,Ave O/26th St
276,29.349501,-99.137027,17th St/Ave H
472,29.117607,-98.919899,I- 35/I- 35 Access Rd/State Hwy 132
216,29.122575,-98.903425,FM 3176
160,29.325445,-98.889591,Pr Dr
216,29.349205,-99.020362,/US Hwy 90
185,29.345491,-99.142673,21st St/Avenue N
684,29.185446,-98.845693,FM 471
216,29.349050,-99.145178,17th St/Ave P
160,29.301827,-98.804877,/FM 2790
390,29.356756,-98.862654,Meadow Dr
160,29.515198,-99.122282,/Co Rd 246
185,29.348915,-98.899909,Co Rd 4516
362,29.351412,-99.137405,15th St/Ave H
246,29.345864,-99.135889,21st St/Ave G
334,29.348438,-99.138357,Ave I/18th St
160,29.358336,-99.165079,Arnold/McHaughten
185,29.364458,-98.949471,Pr Dr
246,29.146100,-98.899477,Pilgrim Dr/N Transportation Dr
246,29.115446,-98.925131,/I- 35 Access Rd
185,29.363802,-98.944384,Pr Dr/Co Rd 4516
185,29.357635,-98.861524,Brook Dr/Country Ln
160,29.353732,-99.152014,Cedar St
160,29.215517,-98.818056,Co Rd 6846/Co Rd 6845
160,29.316246,-98.809459,Zinsmeyer Ave/Bexar St
185,29.432347,-98.855261,FM 1957
736,29.347866,-99.136036,19th St/Ave G
160,29.328504,-98.869430,Co Rd 5722/Co Rd 5723
276,29.344005,-99.140842,23rd St/Ave L
246,29.459626,-98.831538,Co Rd 3823/Co Rd 3826
216,29.354451,-99.143025,11th St/Avenue N
246,29.145644,-98.915706,Dove Ave
185,29.158895,-98.888796,/State Hwy 132
246,29.137128,-98.905493,Transportation Dr/S Transportation Dr/Bowman Ave
305,29.351827,-99.130352,15th St/Ave B
185,29.344097,-99.154774,22nd St
160,29.357238,-98.924617,Pr 4625
246,29.154617,-98.918432,W Colonial Pkwy/Pr Rd 7614
276,29.145115,-98.881244,I- 35
160,29.330413,-98.877924,Co Rd 5722
160,29.330613,-99.275767,Buena Vista St/East Ave
418,29.346602,-99.140479,20th St/Ave K
185,29.357085,-98.869319,Provident Ave
276,29.334450,-99.261899,US Hwy 90/Co Rd 5217
445,29.349630,-99.135025,17th St/Ave F
246,29.191834,-98.828255,Co Rd 6865
160,29.324650,-99.302807,US Hwy 90
472,29.348246,-98.898881,US Hwy 90/FM 1343
160,29.357238,-98.877242,Paris St/Fiorella St
246,29.315101,-99.354764,US Hwy 90
185,29.138832,-98.909187,Zig Zag Ave
185,29.351208,-98.848836,/FM 471
185,29.129717,-98.886067,/Co Rd 779
216,29.186991,-98.847230,Pr 6701
246,29.145924,-98.899911,E Coker Ave
246,29.331953,-99.271264,/Old Hwy 90
160,29.357078,-98.894361,Geneva St/River Trl
160,29.196655,-98.855824,Corto St/2nd St
160,29.459945,-98.837568,Co Rd 3823/Co Rd 3830
185,29.390234,-99.028377,Co Rd 4517/Co Rd 4518
185,29.194020,-98.889581,Pvt Rd 6750/Co Rd 675
160,29.357985,-98.884928,Berlin St/Naples St
160,29.142398,-98.911161,McAnnely Ave
185,29.277966,-98.861707,Co Rd 5714/FM 471
216,29.144680,-98.908966,Lee Dr/W Park Ave
160,29.358876,-99.116532,State Hwy 173
185,29.134012,-98.905682,Oneal Dr/Webb Ave
160,29.386307,-99.060900,FM 2676
185,29.147372,-98.911863,Mesquite Ave
246,29.222162,-98.810227,Co Rd 6842/Co Rd 6843
526,29.347678,-99.139418,19th St/Ave J
160,29.103752,-98.927614,Old Oaks
445,29.345241,-99.147169,21st St/Ave R
185,29.339298,-99.280890,Co Rd 4212
246,29.350954,-99.074028,/US Hwy 90
160,29.547524,-98.924986,Pvt Rd 2622
160,29.365957,-99.143798,Robin Ct/Robin Dr
185,29.350832,-99.129200,16th St/Ave A
185,29.158666,-98.930237,/State Hwy 173
526,29.347039,-99.150402,Ave U
552,29.189858,-98.852398,E Sanchez St
160,29.173371,-98.909028,/Co Rd 6612
160,29.372016,-98.959069,Co Rd 464/Co Rd 465
160,29.330289,-99.283218,Sacarosa Ave/Piedra Pinta Ave
160,29.323612,-98.888736,Co Rd 5732/Co Rd 5733
185,29.138894,-98.910445,Judson Dr/Zig Zag Ave
185,29.425817,-98.956320,/Pvt Rd 3660
160,29.297565,-98.843133,/FM 471
216,29.156646,-98.909601,/N Windy Knoll Dr
216,29.223970,-98.894144,Co Rd 672 W
216,29.345410,-99.148841,21st St/Ave T
216,29.353954,-98.887857,/Vienna St
185,29.351635,-98.889387,Houston St/Alsace Ave
160,29.361903,-98.866573,Country Ln
891,29.347972,-99.134899,19th St/Ave F
605,29.352941,-98.882072,US Hwy 90/Paris St
160,29.114512,-98.878140,Co Rd 773
216,29.358082,-98.861518,Country Ln
160,29.226905,-98.814556,Coal Mine St
276,29.355259,-98.841164,US Hwy 90
185,29.312370,-98.815141,Castro Ave/Uvalde St
185,29.629967,-98.849107,Pvt Rd 1705/Pvt Rd 1706/Pvt Rd 1704
185,29.340193,-99.153496,Southern Breeze Dr
216,29.353471,-98.884873,Petersburg St/Algiers St
185,29.348520,-98.935610,US Hwy 90
418,29.141099,-98.898342,Wilkens Way
160,29.522477,-98.813412,/FM 471
185,29.349925,-99.147505,Ave R/16th St
160,29.200867,-98.900661,Pvt Rd 6736/Co Rd 6610
160,29.137951,-98.893178,Covey Ln
788,29.347948,-99.133777,Avenue E/19th St
246,29.170626,-98.855879,/I- 35 Access Rd
276,29.145025,-98.880960,I- 35
246,29.150059,-98.913306,Fay Ave
552,29.351797,-98.885138,US Hwy 90
276,29.322658,-99.313674,US Hwy 90
305,29.342319,-99.151426,Ave V/24th St
305,29.145677,-98.918039,Eagle Dr
305,29.188330,-98.860797,4th St/Cresson St
185,29.139890,-98.998058,/Co Rd 765
160,29.302932,-98.804962,W FM 2790 S/Co Rd 584/Lytle-Lacoste Rd
216,29.110504,-98.861647,/Co Rd 7720
160,29.552168,-98.898329,Co Rd 2709
160,29.144496,-98.836761,Co Rd 770
216,29.326903,-99.291127,US Hwy 90/Main St
216,29.141587,-98.903163,E Park Ave/N Commercial Dr
246,29.137980,-98.904901,S Transportation Dr/Hayden Ave
160,29.162289,-98.911526,W Malone Dr
160,29.159079,-99.137426,FM 462/Co Rd 732
305,29.239895,-98.804674,FM 2790
160,29.154754,-98.920625,W Colonial Pkwy
160,29.357150,-98.924649,Pr 4625/Co Rd 4516
526,29.348263,-99.134920,Ave F
305,29.345012,-99.131129,22nd St
160,29.309220,-98.812607,Val Verde St/Ney Ave
160,29.187491,-98.839184,/I- 35
276,29.335937,-99.140192,/31st St
160,29.505573,-99.132120,Co Rd 246/Co Rd 241
216,29.137306,-98.905398,Transportation Dr/E Herring Ave/S Transportation Dr
185,29.341774,-98.805529,Gross Ln
499,29.355865,-98.865554,US Hwy 90/Sharp St
185,29.356491,-98.878088,Paris St/Lorenzo St
185,29.351447,-99.133314,15th St/Ave D
160,29.141041,-98.901617,Breeze Dr/E Park Ave
160,29.332455,-99.273157,Main St
526,29.148109,-98.900147,N Teel Dr/State Hwy 132
246,29.192372,-98.832046,Co Rd 6860/I- 35 Access Rd
246,29.130780,-98.901892,Gutierrez/Watson Ave
160,29.338616,-99.139088,29th St/Ave K
216,29.310395,-98.810667,D Hanis Ave/
160,29.335187,-99.136495,/Ave H
246,29.329271,-99.276822,Palo Alto St/Co Rd 5214
160,29.351432,-99.147807,Ave R/14th St
185,29.305516,-98.814461,Buchel St
362,29.203100,-98.819088,I- 35
185,29.369254,-98.965736,Pr Dr/Co Rd 4642
160,29.333038,-99.270376,US Hwy 90/Main St
160,29.224853,-98.887552,FM 463
160,29.349763,-98.880665,Algiers St/Florence St
276,29.158284,-98.868260,I- 35
246,29.365358,-98.805951,US Hwy 90
160,29.310363,-98.920010,Co Rd 5634
390,29.345880,-99.158733,19th St/Boerne Ave
160,29.636679,-98.821065,Park Rd 37
185,29.328519,-99.286378,Main St
160,29.350680,-98.948178,Pr Dr
160,29.358747,-98.882344,Angelo St/Vienna St
185,29.180255,-98.877670,Co Rd 6716/Co Rd 6725/Co Rd 6611
216,29.355574,-98.890595,Geneva St
185,29.214333,-98.834044,State Hwy 132/Co Rd 6711
160,29.131452,-98.910230,State Hwy 132
276,29.348584,-99.136113,18th St/Ave G
418,29.348533,-99.136938,Ave H/18th St
216,29.333398,-99.280049,Reiley Ave/FM 1796
160,29.375835,-98.887813,Prdr
160,29.362434,-99.129891,Co Rd 443
185,29.349117,-99.112762,/US Hwy 90
390,29.353460,-99.144136,12th St/Ave O
658,29.347100,-99.147334,Ave R/19th St
216,29.097852,-98.946690,I- 35 Access Rd
160,29.235259,-98.810338,1st St/Co Rd 681
216,29.313348,-98.811904,D Hanis Ave
305,29.185559,-98.840417,/I- 35 Access Rd
160,29.559970,-98.904760,/FM 1283
160,29.306789,-98.810411,Tarde Ave/Buchel St
160,29.357991,-98.879805,Petersburg St/Lorenzo St
334,29.138480,-98.902672,E Hondo Ave
160,29.589204,-98.900602,FM 1283
160,29.351844,-99.127676,15th St/
160,29.348944,-98.942543,US Hwy 90
362,29.346233,-99.155438,Ave Y/19th St
216,29.097340,-98.946087,I- 35 Access Rd
185,29.331995,-99.259616,Co Rd 5226/Co Rd 5216/Old Church Rd
334,29.338618,-99.137588,Ave I/29th St
160,29.108527,-98.922539,7617
276,29.179611,-98.848868,Unknown Pr Rd
160,29.144841,-98.836926,Co Rd 770
390,29.351496,-99.141959,Ave M/14th St
185,29.353089,-98.894949,River Forest/River Valley
305,29.211253,-98.809016,/I- 35 Access Rd
499,29.138314,-98.903453,Wilson Ave/Adams Ave
246,29.138966,-98.911456,Zig Zag Ave/Jamison Dr
160,29.185248,-98.971788,Co Rd 6644/Co Rd 653
185,29.462622,-98.837534,Co Rd 3821/Co Rd 3830
160,29.309913,-98.810471,D Hanis Ave/Val Verde St
160,29.193146,-99.216785,FM 2200/
216,29.340213,-98.976927,Co Rd 4639/Co Rd 4638
216,29.135751,-98.907198,E Wallace Ave/S Commercial Dr
216,29.338795,-99.153489,Southern Breeze Dr
684,29.354598,-98.877665,US Hwy 90/Angelo St
390,29.350726,-99.149496,15th St/Ave T
160,29.380290,-99.133766,Cr 442/Vandenberg Rd
334,29.117382,-98.920881,I- 35
216,29.145681,-98.905748,W Dilley Ave/N Washington Dr
185,29.136039,-98.876315,/Co Rd 773
216,29.333951,-99.133402,Avenue E
390,29.355403,-99.143036,10th St/Avenue N
216,29.350188,-98.947954,Pr Dr
276,29.145804,-98.915897,Cardinal Dr/Dove Ave/Jay Dr
185,29.547079,-98.847948,Co Rd 2726
216,29.184863,-98.862533,Bennett St/5th St
160,29.628372,-98.850401,/Park Rd 37
216,29.146542,-98.909542,W Coker Ave/Windy Knoll Dr/N Windy Knoll Dr
246,29.344655,-99.139708,22nd St/Ave K
216,29.334194,-99.144273,33rd St
246,29.186919,-98.847289,Pr 6701
185,29.309639,-98.922248,/Co Rd 5635
185,29.348770,-99.116931,US Hwy 90/State Hwy 173
1615,29.355720,-98.871440,Lower Lacoste Rd/US Hwy 90/FM 471
160,29.529372,-98.838341,Co Rd 2803
185,29.143588,-98.901532,Dilley Ave/E Dilley Ave
160,29.356498,-98.886654,Berlin St/Constantinople St
246,29.123008,-98.903954,FM 3176
185,29.225593,-98.813152,/San Jose St
160,29.384588,-99.150994,/Co Rd 442
185,29.307504,-98.808339,Buchel St/Carle Ave
160,29.311353,-98.919364,Co Rd 5633
185,29.181555,-98.847830,Co Rd 6717
160,29.388651,-99.229525,Co Rd 421/Koehler Ln
160,29.492590,-99.255962,Pvt Rd 3213
160,29.163401,-98.910024,Jack Nicklous
276,29.355396,-99.144116,10th St/Ave O
216,29.307288,-98.815461,Contis Ave/Pecos St
160,29.204434,-98.847780,Co Rd 6712
160,29.404298,-98.890256,/Co Rd 271/FM 471
160,29.160532,-98.911600,Sollock Dr
160,29.187100,-98.925488,/Co Rd 4514/Co Rd 664
160,29.473354,-98.808163,Co Rd 3841
185,29.354322,-98.889153,Berlin St/Geneva St
185,29.207814,-98.812203,I- 35 Access Rd
160,29.332239,-99.273959,Old Hwy 90/Main St
160,29.352886,-98.875715,Angelo St
185,29.154995,-98.924439,W Colonial Pkwy/Co Rd 4514
276,29.344681,-99.139215,22nd St/Ave J
185,29.338605,-99.136489,29th St/Ave H
216,29.447202,-98.811520,Co Rd 381
185,29.369353,-98.965737,Pr Dr/Co Rd 4642
276,29.141231,-98.905003,E Benton Ave/N Teel Dr/W Benton Ave
305,29.306215,-98.809033,D' Hanis/Heidelberg Dr
160,29.191294,-98.857944,4th St/Miller St
552,29.348001,-99.132653,19th St/Ave D
185,29.316381,-98.813984,Tarde Ave/Garden St
334,29.348831,-99.149350,17th St/Ave T
305,29.187047,-98.846150,Heather Cir/Heathet Hollow
160,29.123000,-98.893623,Co Rd 7711
185,29.349175,-98.947420,Pr Dr
160,29.316547,-98.927337,Co Rd 561
160,29.325259,-98.889293,Pr Dr
334,29.111671,-98.927890,I- 35
185,29.315356,-98.816382,Castro Ave/Keller St
160,29.316906,-98.921710,Co Rd 5603
305,29.342857,-99.147071,Ave R/24th St
160,29.320210,-98.879081,Pecos Ct/Co Rd 5738
185,29.350042,-98.948713,Pr Dr
246,29.314738,-99.360911,US Hwy 90/Co Rd 411
160,29.306894,-98.811617,Ney Ave
160,29.351879,-99.127576,15th St
160,29.121060,-98.818419,/Co Rd 770
160,29.141864,-98.897808,Wilkens Way/Corley Dr
552,29.144186,-98.902983,N Teel Dr/W Dilley Ave/E Dilley Ave
445,29.117366,-98.919733,I- 35
185,29.376238,-98.882573,Pvt Rd 4709/Pvt Rd 4703
246,29.350370,-99.192262,Pvt Rd 4303
185,29.154666,-98.919209,W Colonial Pkwy
185,29.331637,-99.252951,Pr 5246/Pr 5247/Pr 5240
185,29.191963,-98.861888,Rivera Ln
160,29.242127,-98.826819,FM 463
160,29.350968,-99.146476,15th St/Ave Q
160,29.315444,-98.837300,Co Rd 5712/Co Rd 4713
160,29.311637,-98.927055,Co Rd 5631/Co Rd 5636/Co Rd 5634
160,29.335937,-99.142012,Ave M/31st St
185,29.155925,-98.926901,/State Hwy 173
917,29.353512,-98.881524,Mexico St/Paris St
160,29.355075,-98.886645,Algiers St/Vienna St
276,29.138888,-98.902412,Briscoe Ave/Rosewood St
445,29.177784,-98.849965,I- 35
276,29.120671,-98.907307,I- 35
160,29.149926,-98.896366,N Transportation Dr/Harralton Cir
390,29.159195,-98.908337,Ingram Rd/Howard Wallace
160,29.357230,-98.890735,Ranchero St/Athens St
160,29.521456,-98.815226,FM 471
472,29.187393,-98.848141,Walton St/Heather Hollow/FM 471
445,29.343051,-99.150416,23rd St/23rd Cir/Ave U
160,29.250407,-98.834944,Co Rd 5716
185,29.330274,-99.283200,Sacarosa Ave
160,29.347544,-98.881517,Lisbon St/Geneva St
216,29.150775,-98.895339,State Hwy 132/Dixon Dr/N Transportation Dr
276,29.138312,-98.900160,/Rossville Rd
160,29.166521,-98.915563,Co Rd 768
276,29.346813,-99.154759,18th St
160,29.150673,-98.901513,E Davis Ave/Devine Dr
160,29.379202,-99.135966,Co Rd 442/Cr 4404
246,29.344143,-99.160103,22nd St/Castro Ave
185,29.359338,-98.824722,US Hwy 90
362,29.188368,-98.837187,I- 35 Access Rd
185,29.351851,-98.872248,Fischer Ln
160,29.516627,-98.832424,FM 1283/Red Wing Rd
185,29.329546,-99.275729,Palo Alto St/East Ave
160,29.330580,-99.275965,Buena Vista St
216,29.163227,-98.905255,Jack Nicklous
552,29.354257,-98.877247,Angelo St/Lafayette St
160,29.188005,-98.853450,9th St/Miller St
362,29.153601,-98.900881,Oakridge Ave/Colonial Pkwy
185,29.315981,-99.351509,/US Hwy 90
160,29.365732,-99.143595,Robin Ct
216,29.130822,-98.902447,Chapa Dr/Watson Ave
160,29.331917,-99.281223,Old Eagle Pass Rd
185,29.364831,-98.931841,Pr Rd 4666
160,29.216018,-99.000776,State Hwy 173
276,29.354897,-98.840018,Co Rd 4718
185,29.305908,-98.806256,Heidelberg Dr/Edelweiss Dr
334,29.348821,-99.118377,US Hwy 90
185,29.351159,-99.143052,15th St/Avenue N
185,29.357053,-98.865552,Provident Ave
276,29.161008,-98.887260,Co Rd 772/State Hwy 132
160,29.215201,-98.818059,Co Rd 6846
160,29.328389,-98.851661,Cr 599/Co Rd 4713
216,29.358011,-98.886662,Washington St/Mexico St/Old River Rd
185,29.524543,-98.960790,Pvt Rd 2670
160,29.355749,-98.885816,Vienna St/Constantinople St
160,29.299161,-99.106524,/Elstone Rd
160,29.287063,-99.043379,/Co Rd 456
185,29.203799,-98.827231,Cr 6812
160,29.636773,-98.809494,State Hwy 16
160,29.189260,-98.864725,Depot St
160,29.131289,-98.909590,Watson Ave
185,29.351878,-98.872741,Lower Lacoste Rd/Fischer Ln
499,29.357381,-98.862639,Brook St
160,29.313771,-98.923867,Co Rd 561
334,29.348695,-99.118370,US Hwy 90
246,29.348957,-99.125742,18th St
160,29.173385,-98.914699,Pvt Rd A/Co Rd 6612
445,29.138773,-98.903142,E Hondo Ave/Wilson Ave
499,29.186506,-98.841343,/Co Rd 6767
160,29.348935,-98.941946,US Hwy 90
160,29.351635,-99.157826,Austin Ave/Carter
246,29.153841,-98.899257,/Cemetery Rd
276,29.345429,-99.143792,21st St/Ave O
185,29.351456,-99.145352,14th St/Ave P
216,29.362462,-98.814948,US Hwy 90
160,29.163257,-98.911513,Jack Nicklous
216,29.192545,-98.855176,5th St
160,29.226350,-98.810609,/State Hwy 132
160,29.325468,-98.889512,Pr Dr/Co Rd 574
160,29.344605,-98.849168,Airport Rd
216,29.629183,-98.851173,/Pvt Rd 1702
185,29.344016,-99.138630,23rd St/Ave J
362,29.141504,-98.899099,Karen Kourt
160,29.348690,-98.942622,US Hwy 90
185,29.136509,-98.806514,Co Rd 787/Co Rd 785
185,29.353591,-98.889989,Berlin St/Jackson St
160,29.140093,-98.909462,S Windy Knoll Dr
160,29.159183,-98.909579,Ingram Rd/N Windy Knoll Dr
362,29.137297,-98.907679,S Teel Dr/Galbreath Ave
160,29.286245,-99.043375,/Lower Elstone Rd
305,29.346622,-99.156764,18th St
216,29.350386,-99.198946,Pvt Rd 4303
160,29.137828,-98.893124,Rossville Rd
160,29.338151,-98.976949,Co Rd 4641/Co Rd 4638
362,29.143585,-98.909511,W Benton Ave/N Windy Knoll Dr
276,29.341457,-99.139742,26th St/Ave K
160,29.307730,-99.143251,/Co Rd 532
160,29.317540,-98.927367,Co Rd 5606/
305,29.344437,-98.873877,Co Rd 4713
185,29.313773,-99.378439,US Hwy 90
160,29.364508,-98.932645,Pr Rd 4664
160,29.161041,-98.885735,Co Rd 772
185,29.542359,-98.924795,Medina Dam Rd/Co Rd 2617
160,29.349005,-98.950607,/US Hwy 90
216,29.350229,-99.010940,Co Rd 458/US Hwy 90
185,29.343039,-99.151499,23rd St/Ave V
305,29.331927,-99.273071,/Old Hwy 90
305,29.355541,-98.840941,US Hwy 90/Pvt Rd 4751
246,29.342396,-99.146201,Ave Q/25th St
334,29.351294,-98.885730,Madrid St/Geneva St
216,29.198551,-98.826154,Co Rd 6812
526,29.347220,-99.146194,Ave Q/19th St
160,29.150314,-98.876469,Co Rd 773/I- 35
445,29.183751,-98.844000,I- 35/FM 471
160,29.248991,-98.815401,/Co Rd 6710
246,29.154334,-98.913764,W Colonial Pkwy
216,29.355732,-98.878957,Angelo St/Paris St
185,29.234028,-98.805353,Blume Dr/FM 2790
305,29.339290,-99.144429,Ave P/28th St
185,29.351470,-99.145208,Ave P/14th St
185,29.121470,-98.869437,Co Rd 7719/Co Rd 7711
736,29.348313,-99.133801,Avenue E
472,29.351215,-99.141932,15th St/Ave M
185,29.149997,-98.897037,State Hwy 132
160,29.317389,-98.925476,Co Rd 5605
216,29.350393,-99.198284,/Pvt Rd 4303
216,29.149488,-98.891407,Encino Pl
160,29.262613,-98.804783,/FM 2790
362,29.185071,-98.860846,6th St/Bartlett St
305,29.143419,-98.911438,State Hwy 173/W Hondo Ave/Jamison Dr
762,29.352815,-98.882403,US Hwy 90/Paris St/Constantinople St
185,29.155466,-98.900799,Mockingbird Ln/Oakridge Ave
334,29.146300,-98.905338,N Washington Dr/W Coker Ave
160,29.388884,-99.153558,Co Rd 442/Co Rd 341
390,29.154832,-98.906787,Monticello Cir/Azalea Ave
160,29.323616,-98.893064,Co Rd 5733
160,29.139761,-98.907357,S Upson Dr/W College Ave
160,29.204102,-98.847749,2nd St
160,29.350117,-98.887703,Alsace Ave
185,29.352818,-98.885791,Petersburg St/Athens St
216,29.146022,-98.901671,/N Teel Dr/E Coker Ave/W Coker Ave
305,29.153534,-98.899922,Allman Cemetery Ln/Colonial Pkwy
276,29.338905,-99.150369,Ave U
246,29.120522,-98.907759,I- 35
160,29.361159,-98.928884,Pvt Rd 4663/Pvt Rd 4662
418,29.189533,-98.851906,9th St
185,29.307628,-98.811056,Brewster St
160,29.352891,-98.890848,Berlin St/H 2 O
160,29.189198,-98.864989,Depot St/FM 471
160,29.162994,-98.907140,Jack Nicklous
246,29.460882,-98.830537,Co Rd 3822
185,29.179031,-98.873750,Co Rd 6721
185,29.192207,-98.861336,Rivera Ln/Pearson St
246,29.146311,-98.909536,Windy Knoll Dr/N Windy Knoll Dr/W Moore Ave
216,29.140568,-98.909483,S Windy Knoll Dr/Howell Ave/Windy Knoll Dr
160,29.307841,-99.116237,Co Rd 532/Elstone Rd
160,29.165847,-98.885423,FM 463/Co Rd 774
160,29.356951,-98.893750,River Trl
216,29.317155,-98.923603,Co Rd 5604
160,29.099146,-98.870195,/State Hwy 173
216,29.308810,-98.917659,Co Rd 5631/Co Rd 5635
891,29.348138,-99.140587,Ave K
216,29.338124,-99.141938,29th St/Ave M
160,29.339547,-99.135551,28th St/Ave G
185,29.348263,-99.155446,17th St/Ave Y
185,29.348862,-99.148561,17th St/Avenue S
160,29.350848,-99.076030,/US Hwy 90
160,29.349023,-98.879818,Lisbon St/Algiers St
276,29.133928,-98.904451,Ross Ave/Webb Ave
390,29.341311,-99.137581,Ave I/26th St
185,29.337916,-99.146134,29th St/Ave Q
185,29.313013,-98.928393,Co Rd 5633/Co Rd 5636
160,29.336083,-99.280031,/FM 1796
160,29.326418,-99.294762,US Hwy 90
185,29.347261,-98.841772,FM 471
185,29.347757,-99.159641,/Castro Ave
185,29.349003,-98.947076,/US Hwy 90
276,29.146080,-98.902269,Tuttle Dr/W Coker Ave
185,29.156586,-98.899437,/Cemetery Rd
445,29.147637,-98.902106,Tuttle Dr
216,29.360561,-98.881249,San Jacinto St/
579,29.346770,-99.150404,19th St/Ave U
160,29.327662,-99.109136,/State Hwy 173
246,29.151811,-98.877596,Co Rd 773/FM 463/E Colonial Pkwy
246,29.355765,-98.847224,Pvt Rd 4749
362,29.344372,-99.144845,22nd St/Ave P
418,29.348255,-98.899500,US Hwy 90/FM 1343
185,29.666314,-98.828244,/State Hwy 16
160,29.311234,-98.924822,Co Rd 5634
160,29.337929,-99.144340,29th St/Ave P
246,29.348232,-99.156922,Austin Ave/17th St
185,29.336813,-99.171655,30th St
160,29.339281,-98.823795,/FM 471
160,29.362396,-99.130015,Co Rd 443
160,29.152090,-98.924360,/Co Rd 4514
160,29.316119,-98.809504,Zinsmeyer Ave
160,29.362459,-98.927226,Pvt Rd 4661/Pvt Rd 4660
160,29.336891,-99.134430,Ave F/30th St
160,29.339499,-98.824307,/FM 471
160,29.322149,-98.877701,/Blue Point Ln
334,29.134612,-98.898608,/E Hondo Ave
246,29.350375,-99.191797,Pvt Rd 4303
276,29.331624,-99.278572,Sacarosa Ave
276,29.153176,-98.892955,State Hwy 132
736,29.347490,-99.142810,Avenue N/19th St
185,29.146378,-98.906576,Jefferson Dr/W Coker Ave
276,29.154122,-98.910246,W Colonial Pkwy
160,29.537866,-98.875021,/FM 1283
305,29.161007,-98.899435,Bain Dr/Cemetery Rd
216,29.353497,-98.876389,Angelo St/Florence St
160,29.345907,-99.116998,/State Hwy 173
390,29.339526,-99.150369,28th St/Ave U
185,29.228391,-98.864129,Co Rd 678 E/Co Rd 6780
185,29.348735,-98.947088,/US Hwy 90
216,29.150979,-98.920797,State Hwy 173
160,29.344098,-99.157038,22nd St/Ave Z
305,29.111876,-98.928520,I- 35 Access Rd
160,29.266128,-98.804771,FM 2790
246,29.113045,-98.925532,/I- 35 Access Rd
246,29.343167,-99.137896,Ave I/24th St
276,29.350987,-99.007450,/US Hwy 90
276,29.361210,-98.818552,US Hwy 90
276,29.243015,-98.810116,Waterfall Cir
246,29.353684,-98.840439,Co Rd 4719/Co Rd 4720
276,29.355023,-98.884971,Houston St/Constantinople St
305,29.130866,-98.903034,Flores Dr/Watson Ave
160,29.351350,-99.151524,14th St/Ave V
276,29.355527,-98.848913,US Hwy 90
160,29.615442,-99.000006,/Pr 1508
246,29.467995,-98.807174,Co Rd 3841
160,29.255483,-98.869253,FM 471
160,29.311752,-98.927648,Co Rd 5636
891,29.130841,-98.895587,/E Hondo Ave/State Hwy 173
362,29.149359,-98.906255,Crouch Ave/Shaver Dr
185,29.163263,-98.908628,Jack Nicklous
160,29.187121,-98.905405,Co Rd 664
160,29.303854,-98.806053,FM 2790
334,29.341441,-99.141947,Ave M/26th St
160,29.522648,-98.812790,FM 471
216,29.201273,-98.824082,Co Rd 6854/Co Rd 6846
160,29.186907,-98.964926,FM 1343/State Hwy 173/Co Rd 653
160,29.654993,-98.818125,State Hwy 16/Pvt Rd 1831
216,29.195517,-98.828385,/I- 35
160,29.164541,-98.924776,Co Rd 4514
390,29.344838,-99.136370,22nd St/Ave H
246,29.151513,-98.879730,E Colonial Pkwy
276,29.312327,-98.924620,Co Rd 5633
305,29.345017,-99.133333,22nd St/Avenue E
418,29.147988,-98.917122,Hall Ave/W Hondo Ave
390,29.142257,-98.909501,S Windy Knoll Dr/N Windy Knoll Dr/W Hondo Ave
305,29.342910,-99.146211,Ave Q/24th St
305,29.130980,-98.904709,Ross Ave/FM 3176/Watson Ave
334,29.132833,-98.892832,/I- 35
185,29.143526,-98.900063,Melinda Ln
362,29.144202,-98.905533,N Sayers Dr/W Moore Ave
160,29.190798,-98.875986,/Co Rd 6716
418,29.358357,-98.862645,Hollow Dr
160,29.361902,-98.865847,Country Ln
305,29.144512,-98.897618,Djon St
185,29.356943,-98.892925,Geneva Ct
185,29.173367,-98.908837,/Co Rd 6612
246,29.340470,-99.144523,27th St/Ave P
160,29.418615,-99.264499,Pvt Rd 322
185,29.361957,-98.814769,Co Rd 482
160,29.312827,-99.291151,Cr 512/Nester Ln
160,29.307619,-98.814405,Casiano Ave/Pecos St
185,29.150148,-98.876238,Co Rd 773/I- 35
305,29.355539,-98.841165,US Hwy 90
185,29.137024,-98.903155,Cude Dr/Hayden Ave
160,29.539787,-98.858598,Co Rd 2723/Co Rd 2725
160,29.354373,-99.016552,Co Rd 4510
160,29.404346,-98.908448,Co Rd 271
276,29.159851,-98.905680,Downing Dr/Sollock Dr
276,29.343248,-99.165172,/19th St
160,29.356481,-98.876390,London St/Fiorella St
246,29.356502,-98.881520,Amelia St/Petersburg St
185,29.226799,-98.813907,/San Jose St/Hidalgo St
160,29.351314,-98.890556,Old US Hwy 90
185,29.369833,-98.966589,Pr Dr
418,29.348357,-99.126161,19th St/Veterans Blvd
276,29.158275,-98.867829,I- 35
390,29.198685,-98.825072,/Co Rd 6812
185,29.355906,-98.895934,River Meadow/River Trl
390,29.141827,-98.883924,I- 35
160,29.319892,-99.328757,US Hwy 90
160,29.219285,-98.824391,Co Rd 683/State Hwy 132
160,29.352586,-98.895548,River Valley
160,29.309821,-98.916949,Co Rd 5631/Co Rd 5634
160,29.373758,-99.260805,/Co Rd 422
185,29.361702,-98.949197,Pr Dr
334,29.145861,-98.899010,Pilgrim Dr/Rosemary St
216,29.158181,-98.909584,Williamsburg Rd/N Windy Knoll Dr
160,29.453407,-99.157663,Co Rd 341
160,29.162147,-98.996861,Co Rd 660/
418,29.340449,-99.146184,27th St/Ave Q
185,29.325694,-99.273400,South St/Co Rd 5223
216,29.460785,-98.829234,Co Rd 3822
216,29.148618,-98.891352,Encino Pl
216,29.345919,-98.875165,Lower Lacoste Rd//Constantinople St
160,29.503743,-98.820026,Co Rd 283/FM 471
445,29.150601,-98.904327,E Davis Ave/Libold Dr
160,29.451369,-98.808801,Co Rd 382
185,29.467428,-99.116994,/State Hwy 173
276,29.380540,-99.152929,Park Lane Rd/Co Rd 4443
185,29.171098,-98.865152,Co Rd 6719/Co Rd 6720
334,29.143559,-98.911609,State Hwy 173/W Hondo Ave/Jamison Dr
276,29.355010,-98.879810,Amelia St/Paris St
160,29.528707,-98.838718,Co Rd 2801E/Co Rd 2803
185,29.617486,-98.991490,Pr 1517/Pr 1501
445,29.130922,-98.903969,S Tilley Dr/Watson Ave
185,29.293724,-98.850663,FM 471/Co Rd 5713
185,29.351838,-99.128333,15th St/
185,29.348499,-98.933988,US Hwy 90
185,29.537994,-98.875759,Co Rd 273/FM 1283
160,29.351489,-98.875705,Amelia St
216,29.346728,-99.138227,Ave I/20th St
216,29.356799,-98.875061,Alamo St/Isabelle St
160,29.660637,-98.822988,State Hwy 16
185,29.228397,-98.861996,Co Rd 678 E
552,29.340506,-99.136472,27th St/Ave H
362,29.348260,-98.899870,US Hwy 90
160,29.346554,-99.117035,State Hwy 173
185,29.179897,-98.873278,State Hwy 132
334,29.189614,-98.853392,8th St/Palfrey St
445,29.346414,-99.143855,Ave O/20th St
499,29.346925,-99.148940,Ave T/19th St
305,29.149261,-98.904377,Crouch Ave/Libold Dr
160,29.336308,-99.200571,US Hwy 90/Co Rd 424/Richter Ln
160,29.105905,-98.924338,/Old Oaks
362,29.355260,-98.849691,US Hwy 90
390,29.152792,-98.896629,Allman Cemetery Ln/Colonial Pkwy
246,29.145734,-98.914355,Cardinal Dr/W Hondo Ave
246,29.146000,-98.909546,Ehlinger Ave/N Windy Knoll Dr
216,29.141912,-98.899856,Steven St
390,29.223121,-98.812575,/Co Rd 6841
579,29.354156,-98.878820,Amelia St/US Hwy 90
160,29.336580,-99.200590,US Hwy 90/Co Rd 424
160,29.364144,-98.812954,Co Rd 480/Pvt Rd 4804
160,29.209347,-98.811473,I- 35 Access Rd
362,29.339583,-99.146171,Ave Q/28th St
185,29.160648,-98.905364,Downing Dr/W Malone Dr
216,29.311142,-98.810275,S Front St
160,29.350796,-99.055449,US Hwy 90
216,29.362491,-98.814861,Co Rd 482/US Hwy 90
445,29.146241,-98.904455,Libold Dr/W Coker Ave
216,29.344950,-98.874318,Constantinople St/Co Rd 4713
185,29.153180,-98.894580,Co Rd 774
216,29.348792,-98.935240,US Hwy 90
185,29.145658,-98.908277,Lee Dr/W Moore Ave
160,29.215506,-98.819677,Co Rd 6847/Co Rd 6845
605,29.346355,-99.144995,Ave P/20th St
246,29.122662,-98.903532,I- 35/FM 3176
185,29.140733,-98.912366,Howell Ave
160,29.201585,-98.983025,State Hwy 173
362,29.152867,-98.896904,Colonial Pkwy
472,29.358140,-98.862655,Hollow Dr
362,29.348780,-99.150376,17th St/Ave U
390,29.150238,-98.904341,Davis Ave/Libold Dr
246,29.348701,-98.952491,US Hwy 90
160,29.348963,-98.943731,Pr Dr/US Hwy 90
216,29.242154,-98.810247,Waterfall Cir/FM 463
418,29.346032,-99.151497,Ave V/20th St
418,29.187023,-98.854397,Pearson St
185,29.333822,-98.812934,/FM 471
185,29.351786,-99.131924,Ave C/15th St
390,29.331214,-99.277582,Main St/Co Rd 5214
552,29.346546,-99.141613,Ave M/20th St
216,29.135190,-98.907576,S Commercial Dr
216,29.327404,-99.276505,Palo Duro St/Co Rd 5214
160,29.157730,-98.940027,/Co Rd 761
216,29.348857,-99.155461,Ave Y/Westwood Dr
160,29.315505,-99.103391,State Hwy 173
334,29.340980,-99.146180,Ave Q
185,29.355740,-98.884124,Houston St/Mexico St
246,29.365097,-98.805835,US Hwy 90
246,29.349493,-99.137289,17th St/Ave H
216,29.143382,-98.901337,Transportation Dr/N Transportation Dr/Corley Dr
276,29.153499,-98.899607,Devine Dr/Colonial Pkwy/Cemetery Rd
160,29.348560,-98.937156,/US Hwy 90
276,29.330909,-99.278608,Sabinal Ave/Main St
526,29.347895,-99.139436,Ave J
216,29.356492,-98.879817,Angelo St/Madrid St
185,29.188876,-98.851290,el Paso
216,29.202370,-98.819189,I- 35 Access Rd
246,29.150810,-98.920392,Pr Dr
160,29.359502,-99.116532,State Hwy 173
185,29.348660,-98.921003,Co Rd 4612/US Hwy 90
160,29.136200,-98.903676,Cude Dr/Bowman Ave
160,29.235247,-98.813005,Co Rd 681
160,29.364802,-99.148882,Kollman Dr
305,29.355426,-99.141958,10th St/Ave M
160,29.332030,-99.257582,Co Rd 5227/Co Rd 5216
216,29.353918,-98.911166,Co Rd 4721
160,29.163473,-98.901322,E Malone Dr/Jack Nicklous
246,29.191050,-98.862213,Kearney St
305,29.352368,-99.146338,Ave Q/13th St
160,29.356739,-98.831378,/US Hwy 90
185,29.350758,-99.131964,Ave C/16th St
499,29.355250,-98.874764,Alamo St/US Hwy 90/Florence St
276,29.336875,-99.136508,Ave H/30th St
658,29.355590,-98.861320,US Hwy 90
160,29.503741,-98.826459,Co Rd 283/Co Rd 282
160,29.332024,-99.264695,Co Rd 5225/Co Rd 5216
276,29.351344,-99.139668,15th St/Ave J
472,29.355740,-98.875541,Fiorells St/Lafayette St/Fiorella St
710,29.147587,-98.918098,Dove Ave
552,29.348152,-99.143981,Ave O/18th St
526,29.151837,-98.891825,Colonial Pkwy/Dixon Dr
305,29.355493,-98.873043,US Hwy 90
160,29.331038,-98.865590,/Co Rd 4713
160,29.325343,-98.889252,Pr Dr/Co Rd 574
185,29.242154,-98.811159,FM 463
246,29.348063,-99.131524,19th St/Ave D
160,29.315343,-98.815156,Ney Ave/Keller St
160,29.216331,-98.864014,/FM 471
334,29.345259,-99.133354,22nd St/Avenue E
362,29.137485,-98.908921,S Upson Dr
216,29.192608,-98.859716,Hwy 132 N/Miller St/2nd St
216,29.348268,-99.156144,17th St/Ave Z
526,29.348255,-98.898275,US Hwy 90
246,29.134782,-98.901542,Gutierrez/Hester Ave/Hayden Ave
276,29.202713,-98.818744,I- 35 Access Rd
418,29.346293,-99.146124,Ave Q/20th St
276,29.355449,-98.873367,US Hwy 90
216,29.348276,-99.151505,17th St/Ave V
552,29.144950,-98.898280,Peggy St/Sunshine Dr
160,29.351781,-99.132520,15th St
246,29.349289,-99.150392,16th St/Ave U
216,29.144391,-98.912488,Warhorse Dr
216,29.108771,-98.931117,I- 35 Access Rd
160,29.235246,-98.866371,Co Rd 679
160,29.353895,-99.149927,11 1/2 St/Ave T
185,29.350809,-99.129169,/16th St
605,29.351926,-98.884806,US Hwy 90/Athens St
160,29.334847,-99.258134,US Hwy 90/Co Rd 422
305,29.151751,-98.891069,E Colonial Pkwy
943,29.341392,-99.135555,Ave G
246,29.316404,-98.816299,Garden St/Castro Ave
160,29.185613,-98.866508,Flores St/2nd St
185,29.534476,-99.109875,Co Rd 2481
160,29.362689,-99.129051,/Co Rd 443
160,29.161034,-98.886039,Co Rd 772
305,29.351329,-99.156676,14th St
390,29.339307,-99.141950,Ave M/28th St
185,29.241004,-98.804638,N Prairie St
216,29.344709,-99.138641,22nd St/Ave J
305,29.138429,-98.902308,/Rossville Rd/Briscoe Ave
185,29.335737,-98.906936,/FM 1343
246,29.348980,-98.952506,US Hwy 90/Pvt Rd 4619
185,29.348732,-98.946243,US Hwy 90
305,29.148805,-98.877865,I- 35/
390,29.346781,-99.137097,Ave H/20th St
305,29.154264,-98.912516,E Warhorse Dr/W Colonial Pkwy
526,29.347334,-99.145068,Ave P/19th St
216,29.365679,-98.804752,US Hwy 90
185,29.349873,-98.846644,FM 471
390,29.340501,-99.138570,27th St/Ave J
185,29.180099,-98.873098,Big Key Rd/State Hwy 132
658,29.347426,-99.143935,Ave O/19th St
160,29.305844,-98.809680,Rathskeller Dr/Heidelberg Dr
160,29.141317,-98.902757,E Park Ave/N Transportation Dr
216,29.327412,-99.283132,Palo Duro St/Palo Alto St
362,29.351426,-99.137550,15th St/Ave H
160,29.537519,-98.871955,/FM 1283
160,29.190335,-98.817766,Co Rd 6866
305,29.336847,-99.139755,/30th St
276,29.153025,-98.891084,Enterprise Ave/Dixon Dr
305,29.339552,-99.136476,Ave H/28th St
160,29.214647,-98.863479,Co Rd 674 E
994,29.341466,-99.136476,26th St/Ave H
362,29.350480,-99.137353,Ave H/16th St
445,29.186562,-98.848981,del Monte Dr
276,29.191953,-98.833810,I- 35 N
185,29.144873,-98.918684,Cardinal Dr
185,29.352106,-98.886629,Petersburg St/Geneva St
305,29.112988,-98.926886,I- 35/
160,29.341540,-99.133355,Avenue E/26th St
246,29.348277,-99.152625,17th St/Avenue W
246,29.353320,-98.895134,River Forest
185,29.145096,-98.915034,Cardinal Dr/Dove Ave
160,29.464871,-99.116985,/State Hwy 173
390,29.141336,-98.898631,Loraine Dr
305,29.187743,-98.847736,Heather Hollow
160,29.185228,-98.866863,2nd St
160,29.134962,-98.903671,S Tilley Dr/Hester Ave
390,29.348653,-99.131262,18th St
418,29.348274,-99.150391,17th St/Ave U
185,29.666229,-98.828141,/State Hwy 16
246,29.351108,-99.070531,/US Hwy 90
185,29.136944,-98.907004,S Bright Dr/Galbreath Ave
160,29.106875,-98.946994,Pvt Rd 7621
390,29.355246,-98.854465,US Hwy 90/FM 471
160,29.351432,-99.147626,Ave R/14th St
185,29.324373,-99.305871,US Hwy 90/Old US Hwy 90
216,29.357076,-98.868555,Provident Ave/Schott St
305,29.197390,-98.825099,I- 35 Access Rd
216,29.356479,-98.893878,Geneva St
185,29.149043,-98.915000,Littleton Dr
276,29.161771,-98.900617,Howard
362,29.354415,-99.147967,Ave R/11th St
160,29.324161,-99.305449,US Hwy 90
185,29.208087,-98.842563,Pvt Rd 6744/State Hwy 132
160,29.305818,-99.350826,/Old Sabinal Rd
334,29.341300,-99.139742,26th St/Ave K
499,29.139280,-98.904012,E Hondo Ave/S Transportation Dr/N Transportation Dr
334,29.151355,-98.875496,I- 35
160,29.350124,-99.094335,/US Hwy 90
160,29.336463,-99.113309,State Hwy 173/Pvt Rd 4420
160,29.134291,-98.908554,/S Teel Dr
418,29.348091,-99.138323,Ave I
160,29.357896,-99.165034,Arnold
160,29.352123,-98.889971,H 2 O/Alsace Ave/Vienna St
216,29.307962,-98.813323,Castro Ave/Pecos St
185,29.323598,-98.894508,Co Rd 5742/Co Rd 5733
160,29.118404,-98.903003,Co Rd 7712/FM 3176
185,29.351016,-99.072834,/US Hwy 90
305,29.343851,-99.133331,23rd St/Avenue E
185,29.334586,-98.974040,Co Rd 4646/Co Rd 4645
246,29.348323,-98.915797,/US Hwy 90
305,29.146862,-98.915724,Bentson Dr/W Hondo Ave
216,29.335998,-98.815942,/FM 471
276,29.112469,-98.927035,I- 35
160,29.327408,-99.334847,Pvt Rd 5120
216,29.144458,-98.912775,State Hwy 173/W Hondo Ave
246,29.156285,-98.890703,/State Hwy 132
216,29.140620,-98.910212,Howell Ave
246,29.131225,-98.897823,/L C Martin Dr
216,29.144740,-98.900865,Tehama Ave
160,29.108402,-98.922340,7617
362,29.351384,-99.138565,15th St/Ave I
185,29.241156,-98.804648,Lake St/FM 2790/N Prairie St
160,29.209485,-99.232430,FM 2200
246,29.348959,-99.125711,18th St
276,29.334967,-99.144274,/Ave P/32nd St
160,29.236381,-98.950018,/FM 1343
216,29.350959,-99.052437,US Hwy 90/Co Rd 455
276,29.629235,-98.853764,Pvt Rd 1702
160,29.320498,-99.325418,US Hwy 90/Pvt Rd 5120
160,29.310592,-98.919272,Co Rd 5633
160,29.189953,-98.828028,Co Rd 6860/Co Rd 6861/Co Rd 6867
216,29.187363,-98.861714,Aubrey St/4th St
552,29.347548,-99.145084,Ave P
246,29.339560,-99.139090,Ave K/28th St
185,29.348556,-98.962635,US Hwy 90
276,29.355255,-98.855677,/US Hwy 90
160,29.285532,-99.099483,/Co Rd 543
276,29.629223,-98.853772,Pvt Rd 1702
334,29.353252,-99.145233,12th St/Ave P
305,29.123541,-98.902068,Co Rd 777/Co Rd 7711
185,29.581810,-98.864938,Co Rd 2760/Co Rd 2757/Co Rd 2759
160,29.328848,-98.845961,Co Rd 5711
390,29.355530,-98.850602,US Hwy 90
917,29.348248,-99.141721,Ave M/18th St
246,29.187303,-98.857169,7th St/Kearney St
334,29.132159,-98.892507,Co Rd 777/Co Rd 778
246,29.359152,-99.141965,New Fountain/Ave M
185,29.349742,-98.878987,Lisbon St/Constantinople St
216,29.137236,-98.911620,Thompson Ave/Jamison Dr
216,29.462196,-98.830790,Co Rd 3821
246,29.330267,-99.280806,Lindsay Ave/Seco Ave/Main St
185,29.196532,-98.976809,State Hwy 173
305,29.339297,-99.143300,Ave O/28th St
334,29.342390,-99.149053,24th St
160,29.315113,-98.919418,/Co Rd 561
160,29.353287,-98.999348,US Hwy 90/Co Rd 454
160,29.327813,-99.290122,Huegele Ln/Nester Ln
185,29.242235,-98.868501,FM 463/FM 471
160,29.373935,-99.264678,Co Rd 422
246,29.111557,-98.927490,I- 35 Access Rd
185,29.348405,-98.927851,/US Hwy 90
552,29.348559,-99.133818,Avenue E/18th St
160,29.313378,-98.811992,Uvalde St
160,29.306954,-98.816546,Flores Ave/Pecos St
160,29.173383,-98.916406,Co Rd 6612
160,29.249003,-98.804756,N Prairie St/Co Rd 6710
334,29.340494,-99.137570,Ave I/27th St
160,29.548276,-98.893251,Co Rd 2702/Co Rd 2700
160,29.189539,-98.865533,/FM 471
499,29.151242,-98.909571,Kempf Ave/N Windy Knoll Dr
160,29.357150,-99.149940,Ave T/8th St
160,29.364391,-98.876286,FM 471
185,29.173388,-98.912571,Co Rd 6612
160,29.636679,-98.821148,/Park Rd 37
160,29.194006,-98.868654,/Co Rd 6715
160,29.339932,-98.825312,/FM 471
418,29.349678,-99.133911,17th St/Avenue E
185,29.349138,-99.122398,18th St
216,29.149429,-98.902348,Devine Dr
276,29.355960,-98.867093,US Hwy 90/Suehs St
160,29.148147,-98.895966,Jonesboro Ave/Harralton Cir
216,29.462018,-98.837549,Co Rd 3830
185,29.349247,-99.116899,State Hwy 173
185,29.338911,-99.144413,Ave P/28th St
160,29.373991,-99.156801,FM 462
305,29.345780,-99.159633,19th St/Castro Ave
160,29.364245,-98.808795,/US Hwy 90
160,29.643090,-98.811336,/Co Rd 183
160,29.308977,-98.810095,D Hanis Ave/Pecos St
160,29.564590,-98.855427,Co Rd 2747
160,29.194575,-98.857829,Hwy 132 N/FM 471/2nd St
185,29.349773,-99.152645,Elaine Dr/Avenue W
185,29.337712,-99.136499,Ave H/29 1/2 St
160,29.144762,-98.932233,/FM 2200 W
216,29.350603,-99.135104,16th St/Ave F
445,29.143706,-98.904616,N Upson Dr/W Moore Ave
160,29.339545,-99.148091,28th St
185,29.135351,-98.902069,Bowman Ave
334,29.339804,-99.144481,27th St S/Ave P
160,29.350016,-98.885900,Jackson St
305,29.336497,-99.210028,/US Hwy 90
334,29.214280,-98.804733,I- 35
160,29.336169,-99.217982,US Hwy 90
160,29.358016,-98.926595,Pr 4625
160,29.350130,-99.039091,Co Rd 4545/US Hwy 90/Lower Elstone Rd
160,29.453306,-98.879073,FM 471
160,29.311081,-98.815862,Casiano Ave/Kinney St/Kenney
246,29.353996,-98.887115,Vienna St/Athens St
160,29.207753,-98.887606,Co Rd 669/FM 463
185,29.137854,-98.906366,E Herring Ave/S Bright Dr
276,29.352761,-98.880667,London St/Mexico St
246,29.344445,-99.143720,22nd St/Ave O
334,29.349472,-98.845971,FM 471
390,29.139120,-98.902900,Wilson Ave/Briscoe Ave
216,29.310940,-98.810688,/S Front St
160,29.321209,-99.290442,Co Rd 5224/Cr 512/Nester Ln
185,29.373656,-99.159632,Castro Ave
160,29.515949,-98.830516,FM 1283
246,29.189611,-98.858014,5th St/Pearson St
246,29.354906,-98.838816,Co Rd 4712/Co Rd 4718
185,29.355863,-98.834811,US Hwy 90
160,29.173650,-98.863898,Co Rd 6719
276,29.329629,-99.282980,Main St/Rio Frio Ave
160,29.348711,-98.844551,FM 471
276,29.345567,-99.153750,20th St/Ave X
185,29.363804,-98.932483,Pr Rd 4664/
160,29.137842,-98.893426,Rossville Rd/Live Oak Dr
968,29.348186,-99.129235,19th St/Brian Pl
305,29.140410,-98.899146,Breeze Dr/Loraine Dr
445,29.348988,-99.146312,17th St/Ave Q
216,29.356533,-98.888355,Washington St/Algiers St
216,29.339318,-99.139095,Ave K/28th St
160,29.118372,-98.886259,Co Rd 7712/Co Rd 7713
160,29.170738,-98.945082,State Hwy 173
160,29.305650,-98.813981,Buchel St
185,29.331922,-99.280887,Old Eagle Pass Rd/Commerce St
1020,29.347812,-99.141693,Ave M
160,29.176172,-98.830638,Co Rd 6813
216,29.340474,-99.143395,27th St/Ave O
216,29.318860,-99.335860,US Hwy 90/Pvt Rd 5121
334,29.161337,-98.899428,Cemetery Rd
185,29.351771,-99.133312,15th St/Ave D
160,29.543830,-98.837049,Co Rd 2812
185,29.337277,-99.171858,/19th St
305,29.151753,-98.877906,/E Colonial Pkwy
216,29.345571,-99.150440,Ave U
246,29.122836,-98.903745,I- 35/FM 3176
160,29.529952,-98.809330,/State Hwy 211
390,29.141233,-98.907570,N Sayers Dr/W Hondo Ave/S Sayers Dr
160,29.183416,-98.825098,Co Rd 6872
160,29.336580,-99.200569,US Hwy 90/Co Rd 424
160,29.360735,-98.881795,San Jacinto St/Berlin St
276,29.330609,-99.280934,Lindsay Ave
246,29.178907,-98.848504,/I- 35
334,29.344098,-99.151520,22nd St/Ave V
160,29.180262,-98.885712,Big Key Rd/FM 463/Co Rd 6611
185,29.364099,-99.142909,Oak Ln/Acorn Rd
160,29.315909,-98.810598,Bexar St/Raymond Ave
246,29.350776,-99.130552,Ave B/16th St
160,29.336925,-99.144272,Ave P/30th St
160,29.242992,-98.868513,/FM 471
334,29.342264,-99.138741,25th St
160,29.359980,-99.116515,State Hwy 173/Winding Trl
160,29.137156,-98.910565,Judson Dr/Thompson Ave
246,29.307117,-98.809340,D Hanis Ave/D' Hanis/Buchel St
160,29.349765,-98.882354,Lafayette St/Athens St
246,29.363769,-98.954584,Pr Dr
246,29.126958,-98.892469,/State Hwy 173
246,29.475057,-98.805303,Co Rd 384
160,29.109608,-98.878564,Co Rd 773/State Hwy 173
185,29.142532,-98.913400,Renfro Dr/McAnnely Ave
160,29.111519,-98.889891,/Co Rd 7713
418,29.343562,-99.146201,Ave Q/24th St
305,29.186045,-98.855370,Kearney St
185,29.232905,-98.804715,FM 2790
216,29.359188,-99.138510,New Fountain
472,29.347649,-99.145092,Ave P
160,29.096650,-98.905030,FM 3176
160,29.313884,-99.400560,US Hwy 90
185,29.162806,-98.899440,Cemetery Rd
185,29.156179,-98.905546,Mockingbird Ln/Mt Vernon Dr
160,29.488919,-98.931764,/Co Rd 271
305,29.345791,-99.137033,21st St/Ave H
185,29.152338,-98.894910,Colonial Pkwy
246,29.160149,-98.899432,Dubose Dr/Cemetery Rd
334,29.154605,-98.904111,Libold Dr
160,29.345783,-98.838706,Co Rd 4712/FM 471
305,29.120782,-98.906266,I- 35
334,29.350048,-99.145268,Ave P/16th St
246,29.151335,-98.874394,/Pvt Rd 7731
216,29.157808,-98.929188,State Hwy 173/Co Rd 761
185,29.348677,-98.926518,US Hwy 90
160,29.362936,-99.145559,Kollman Dr
160,29.381696,-98.911742,/Pr Rd 478
276,29.130411,-98.894236,Co Rd 777/
305,29.155385,-98.891356,State Hwy 132
185,29.628283,-98.850598,/Park Rd 37
160,29.350907,-99.147579,15th St/Ave R
160,29.316191,-98.809646,Zinsmeyer Ave/Bexar St
185,29.337203,-99.172052,19th St/30th St
160,29.313595,-99.400670,US Hwy 90
216,29.310327,-98.916912,Co Rd 563/Co Rd 5631/Co Rd 5634
305,29.408765,-99.025873,Co Rd 4501/FM 2676
216,29.190291,-98.858909,4th St/Pearson St
160,29.163511,-98.901525,Jack Nicklous
246,29.200740,-98.821280,I- 35 Access Rd
334,29.111821,-98.928198,I- 35
305,29.135105,-98.901509,Hayden Ave
246,29.153812,-98.892486,State Hwy 132/Enterprise Ave
418,29.346923,-99.153756,18th St/Ave X
216,29.229412,-98.804684,State Hwy 132
216,29.220858,-98.812846,Co Rd 6842
185,29.143188,-98.903663,N Teel Dr/E Moore Ave/W Moore Ave
160,29.439539,-98.863379,Pr 3701
160,29.157081,-98.909280,Wedgewood Way/Azalea Ave
185,29.328344,-99.283445,Buena Vista St/Nueces Rd/Nueces Ave
246,29.549824,-98.893879,/Co Rd 2702
305,29.348662,-99.120621,19th St
472,29.344106,-99.147090,22nd St/Ave R
185,29.235246,-98.811849,Co Rd 681
216,29.330569,-98.893464,Pr Dr/Co Rd 572
160,29.308912,-98.817284,S Front St/Flores Ave
160,29.343870,-98.880766,Alsace Ave
160,29.379753,-99.133804,Co Rd 442/Vandenberg Rd
160,29.388651,-99.229697,Pvt Rd 4323/Koehler Ln
552,29.352019,-98.884904,Madrid St/Athens St
246,29.350115,-99.144128,Ave O/16th St
160,29.144873,-98.918213,Cardinal Dr
160,29.187097,-98.925541,/Co Rd 4514/Co Rd 664
472,29.345087,-99.131910,22nd St/Ave D
246,29.182294,-98.842518,/FM 471
160,29.328998,-99.284965,Main St
160,29.169302,-98.900767,Co Rd 676
185,29.144951,-98.911595,Jamison Dr
334,29.340587,-99.150380,Ave U
334,29.331729,-99.275831,Main St/East Ave
216,29.179258,-98.909259,Co Rd 665
246,29.229187,-98.805083,State Hwy 132
305,29.354429,-99.145214,Ave P/11th St
334,29.177414,-98.849584,I- 35 Access Rd
160,29.348650,-98.986153,/Co Rd 4631
390,29.149851,-98.909565,Fay Ave/N Windy Knoll Dr
160,29.103450,-98.928497,/Old Oaks
216,29.344579,-99.153748,21st St/Ave X
276,29.344866,-99.135821,22nd St/Ave G
185,29.349008,-98.874588,Lower Lacoste Rd/Payne's Haven
160,29.351022,-99.145331,15th St/Ave P
185,29.380520,-99.150865,Lone Oak Rd
418,29.143817,-98.902261,E Dilley Ave/N Bright Dr
246,29.198872,-98.825762,Co Rd 6812
276,29.355371,-98.858107,US Hwy 90
305,29.155203,-98.899230,Allman Cemetery Ln/Cemetery Rd
160,29.103507,-98.904284,/FM 3176
160,29.344259,-98.975503,Co Rd 4635/Co Rd 4634
334,29.154605,-98.900818,Fox Run/Oakridge Ave
185,29.351634,-99.157112,Carter
246,29.194943,-98.829588,I- 35
305,29.222977,-98.812848,Co Rd 6841
185,29.315715,-99.351509,/US Hwy 90
305,29.137490,-98.904023,Wilson Ave/Hayden Ave
334,29.339761,-99.146162,27th St S/Ave Q
216,29.090873,-98.954987,I- 35/
216,29.152445,-98.895348,Colonial Pkwy
472,29.354255,-98.875544,Florence St/Lorenzo St
185,29.160726,-98.887464,/State Hwy 132
160,29.589313,-98.900726,FM 1283
185,29.187132,-98.885802,FM 463/W Calame Stone Rd
185,29.347102,-99.126159,22nd St/Veterans Blvd
1149,29.355813,-98.870656,/US Hwy 90
216,29.345949,-98.875142,Lower Lacoste Rd/Co Rd 4711
185,29.356640,-98.892339,Geneva Ct/Geneva St
418,29.346636,-99.151509,Ave V/19th St
390,29.355266,-98.847286,/US Hwy 90/Pvt Rd 4749
216,29.354748,-98.890390,Riverbend/Washington St
185,29.425814,-98.955828,Pvt Rd 3660
418,29.159198,-98.907891,Williamsburg Rd/Ingram Rd
160,29.336173,-99.234150,US Hwy 90/Co Rd 5216
216,29.333041,-99.280049,/FM 1796
305,29.348306,-98.912372,US Hwy 90
246,29.152171,-98.894203,Colonial Pkwy
246,29.198136,-98.824308,I- 35 Access Rd
160,29.144859,-98.920677,FM 2200 W
305,29.336857,-99.140817,Ave L/30th St
160,29.323602,-98.885844,Co Rd 5734/Co Rd 5733
160,29.142257,-98.902098,Breeze Dr/N Transportation Dr
160,29.159101,-98.916060,/Co Rd 769
185,29.147092,-98.875437,Co Rd 773
185,29.351083,-99.144207,15th St/Ave O
185,29.188284,-98.856220,7th St/Pearson St
185,29.199775,-98.980786,/State Hwy 173
334,29.161207,-98.865378,I- 35
246,29.311528,-98.811165,D Hanis Ave/N Front St
445,29.128381,-98.893611,/State Hwy 173
185,29.348515,-98.934644,/US Hwy 90
160,29.197099,-98.854094,Town and Country Ln
390,29.355260,-98.850590,/US Hwy 90
246,29.144999,-98.897318,Djon St/Pilgrim Dr
160,29.185681,-98.857137,8th St
160,29.442294,-98.823172,/Co Rd 385
362,29.350673,-99.133996,Avenue E/16th St
160,29.359292,-98.868354,Sunnyland Dr
160,29.323957,-98.888729,Co Rd 5732
160,29.638373,-98.810679,State Hwy 16
445,29.139469,-98.904612,S Commercial Dr
472,29.189360,-98.852086,9th St
160,29.199816,-98.887568,/FM 463
246,29.140744,-98.909165,W College Ave/S Washington Dr
160,29.325225,-98.838785,Co Rd 5711
305,29.347118,-99.151506,Ave V/18th St
160,29.353465,-99.141953,12th St/Ave M
160,29.309113,-98.816209,Contis Ave/S Front St
276,29.348564,-99.122377,19th St
160,29.575688,-98.902231,Co Rd 2705
276,29.342392,-99.139745,25th St/Ave K
305,29.342383,-99.138593,Ave J
216,29.330899,-99.273105,/Alta Vista St
246,29.348718,-98.951282,/US Hwy 90
246,29.194941,-98.829114,I- 35
185,29.359319,-98.867380,Willow Dr
216,29.352135,-98.888306,Houston St/Jackson St
216,29.131966,-98.902358,Chapa Dr/King Ave
276,29.338120,-99.140830,29th St/Ave L
1149,29.355214,-98.871431,Lower Lacoste Rd/Old US Hwy 90 E
160,29.454126,-98.831646,Co Rd 3827
216,29.344122,-98.838738,/Co Rd 4712
276,29.149734,-98.919268,State Hwy 173
185,29.172028,-98.911511,Pvt Rd 6703
216,29.137155,-98.887618,Co Rd 777
246,29.150071,-98.913567,Warhorse Dr/Fay Ave
362,29.209606,-98.809902,/I- 35 Access Rd
418,29.348190,-99.131141,19th St
185,29.174563,-98.817280,Co Rd 6814
334,29.315327,-98.813231,D Hanis Ave/Keller St
216,29.355266,-98.838818,Co Rd 4712/US Hwy 90
185,29.373874,-99.164335,FM 462
160,29.157731,-98.947603,Co Rd 761
185,29.316369,-98.815185,Ney Ave/Garden St
185,29.264255,-98.870688,/FM 471
216,29.346921,-98.974814,Co Rd 4633
362,29.346448,-99.155459,Ave Y
710,29.352001,-98.883251,Algiers St/Paris St
710,29.132085,-98.903854,S Tilley Dr/King Ave
276,29.346221,-99.159659,Castro Ave
160,29.255871,-98.855371,Co Rd 5715/Co Rd 5719 E
160,29.334603,-99.260535,US Hwy 90
216,29.351869,-98.849915,/FM 471
216,29.210473,-98.825918,Co Rd 6852/Co Rd 6850
472,29.160400,-98.908288,Sollock Dr/Howard Wallace
160,29.111512,-98.902107,Co Rd 7713
160,29.309516,-98.817449,N Front St
334,29.338602,-99.137588,Ave I/29th St
160,29.351631,-99.158755,Carter
160,29.357346,-98.830428,US Hwy 90
160,29.330939,-99.259647,Co Rd 5226/Co Rd 5239
276,29.132930,-98.902907,Lucas Ave
246,29.352489,-99.141950,Ave M/13th St
472,29.132217,-98.896689,E Hondo Ave/L C Martin Dr
160,29.569374,-98.868215,Co Rd 2753
246,29.311261,-98.811052,/D Hanis Ave
216,29.336907,-99.173699,19th St
185,29.544254,-98.894187,FM 1283
160,29.163616,-98.901651,Jack Nicklous
185,29.355164,-98.896448,River Forest/River Trl
246,29.315347,-98.813981,Tarde Ave/Keller St
160,29.121103,-98.999577,/Co Rd 765
160,29.331918,-99.281403,Old Eagle Pass Rd/Lindsay Ave
216,29.336956,-99.173297,19th St/30th St
160,29.542120,-98.810814,State Hwy 211
160,29.157735,-98.941201,/Co Rd 761
160,29.336717,-99.167130,Taylor Ln/30th St
185,29.369269,-98.966429,Pr Dr
216,29.163709,-98.904893,Lynx Cir
813,29.355570,-98.861012,US Hwy 90
246,29.162283,-98.864378,I- 35
185,29.357163,-99.159618,Harper/Castro Ave
185,29.344113,-99.152618,22nd St/Avenue W
305,29.155228,-98.897241,/Allman Cemetery Ln/Cemetery Ln
216,29.350931,-99.074431,/US Hwy 90
362,29.154397,-98.905704,Mt Vernon Dr
216,29.357220,-98.875554,London St/Isabelle St
160,29.350421,-99.039089,Co Rd 4545/US Hwy 90
216,29.356920,-98.861532,Country Ln/Meadow Dr
246,29.090876,-98.955539,I- 35
246,29.348270,-99.153769,17th St/Ave X
160,29.351210,-99.210580,/Co Rd 424
276,29.355079,-98.861596,Old US Hwy 90 E
246,29.314474,-99.360914,US Hwy 90/Co Rd 411/Co Rd 515
160,29.190944,-98.856736,5th St
160,29.404306,-99.133737,Cr 442/Cr 448/Co Rd 448
160,29.351086,-99.055512,US Hwy 90
276,29.334738,-99.261900,US Hwy 90/Co Rd 5217
160,29.137054,-98.909602,Wallace Ave
246,29.189948,-98.851522,9th St/FM 471
185,29.187956,-98.858086,6th St/Kearney St
160,29.150492,-98.895624,N Transportation Dr
160,29.210929,-98.887609,/FM 463
160,29.157742,-98.944348,Co Rd 761
160,29.350617,-98.947622,Pr Dr
160,29.359167,-99.133468,Ave D
160,29.344306,-98.883304,/Alsace Ave
246,29.138240,-98.907076,W Herring Ave/E Herring Ave/S Teel Dr
185,29.104637,-98.902013,Co Rd 7715
185,29.153792,-98.894157,Co Rd 774
246,29.137530,-98.888807,Rossville Rd
216,29.315344,-98.813895,Tarde Ave/Keller St
216,29.230892,-98.804717,Blume Dr
160,29.314670,-98.916686,Co Rd 5600/Co Rd 561
390,29.341310,-99.138576,26th St/Ave J
276,29.143998,-98.909508,Lee Dr/Windy Knoll Dr/N Windy Knoll Dr
216,29.351633,-99.156676,Carter
246,29.144215,-98.912498,State Hwy 173/Brown Ave/W Hondo Ave
185,29.320275,-98.813323,FM 471/Old Lacoste - Castroville Rd
418,29.117239,-98.920216,I- 35/I- 35 Access Rd
185,29.332003,-99.267025,Old Hwy 90/Co Rd 5216
160,29.100437,-98.871229,Co Rd 7718/State Hwy 173
185,29.349818,-99.149408,Ave T/16th St
216,29.354586,-98.854271,FM 471
160,29.311181,-98.812229,N Front St/Tarde Ave
185,29.335731,-98.815304,Co Rd 482/FM 471
362,29.160134,-98.901013,Dubose Dr
276,29.363056,-98.812946,US Hwy 90
216,29.349031,-98.883207,Geneva St/Lafayette St
216,29.357021,-98.861529,Country Ln
362,29.145446,-98.899281,Rosemary St
160,29.373985,-99.157165,FM 462
246,29.335902,-99.133423,Avenue E/31st St
160,29.353844,-98.907682,Co Rd 479
276,29.331633,-99.278540,Sacarosa Ave/Co Rd 525
160,29.261311,-98.804781,FM 2790
472,29.348546,-98.898895,/Old Hwy 90/Old US Hwy 90
185,29.336878,-99.135880,30th St
160,29.357746,-98.874346,London St
160,29.361124,-99.260672,Co Rd 422/Co Rd 424
185,29.356169,-98.894839,River Knoll
185,29.356213,-98.874947,Alamo St/Lafayette St
418,29.125261,-98.889302,/Co Rd 7710
246,29.181146,-98.845629,/I- 35 Access Rd
160,29.649285,-98.814569,/State Hwy 16
185,29.245377,-98.804754,N Prairie St
160,29.143209,-98.906208,N Sayers Dr/W Park Ave
334,29.309811,-98.814077,S Front St/Castro Ave
160,29.242218,-98.866345,FM 463
185,29.282761,-98.840903,Pvt Rd 5764
185,29.304866,-98.806540,Rathskeller Dr/Edelweiss Dr
185,29.336176,-99.217256,US Hwy 90
185,29.333610,-98.882436,Co Rd 5720/Co Rd 573
160,29.319929,-98.878809,Co Rd 5735
185,29.348839,-98.962495,US Hwy 90
276,29.351411,-99.148915,14th St/Avenue S
216,29.214648,-98.864013,Co Rd 674 W/Co Rd 674 E/FM 471
160,29.338016,-99.280027,FM 1796/Co Rd 4212
445,29.344265,-99.147096,22nd St/Ave R
160,29.305656,-98.827220,FM 471/Co Rd 583
246,29.154083,-98.909590,W Colonial Pkwy/Colonial Pkwy/N Windy Knoll Dr
185,29.140293,-98.897241,Breeze Dr
216,29.349378,-99.139558,17th St/Ave J
185,29.144820,-98.901663,Tehama Ave/E Onion Ave/N Bright Dr
185,29.314887,-98.813740,Bexar St/Tarde Ave
216,29.327340,-99.283477,Palo Alto St/Nueces Ave
185,29.152441,-98.922576,State Hwy 173
160,29.207766,-98.871395,Co Rd 6714 W
472,29.189486,-98.851955,9th St/E Sanchez St
276,29.351093,-99.066543,US Hwy 90
526,29.341478,-99.137560,Ave I/26th St
160,29.312830,-98.927388,Co Rd 5633
865,29.149243,-98.918660,State Hwy 173/W Hondo Ave
362,29.346046,-99.150425,20th St/Ave U
160,29.319371,-98.813796,/FM 471
185,29.137510,-98.905749,E Herring Ave
246,29.330513,-98.882535,Co Rd 572/Co Rd 573
160,29.187071,-98.931007,Co Rd 664
276,29.331179,-99.281127,Lindsay Ave/Co Rd 525
160,29.334112,-99.135519,33rd St/Ave G
160,29.554762,-98.895967,Co Rd 2706
160,29.350854,-99.155477,Colony Dr/Ave Y
160,29.454517,-98.834818,Co Rd 3828
160,29.667497,-98.806321,Pvt Rd 1831
246,29.350493,-99.047533,US Hwy 90 E/US Hwy 90
185,29.343457,-98.881080,/Alsace Ave
160,29.187377,-98.876004,/Co Rd 6716
160,29.327994,-99.281180,Palo Alto St/Rancheros Ave
160,29.142566,-98.902487,E Moore Ave/N Commercial Dr
390,29.330872,-99.271313,/Alta Vista St
185,29.354436,-98.887309,Vienna St/Vienna
160,29.330203,-99.277194,Buena Vista St/Co Rd 5214
362,29.188999,-98.861684,Cresson St/3rd St
185,29.334419,-98.813285,FM 471/Co Rd 484
160,29.348870,-98.886284,Alsace Ave
160,29.287535,-99.043447,/Co Rd 456
276,29.230522,-98.805707,/Blume Dr
605,29.349246,-99.141806,17th St/Ave M
246,29.353572,-98.886634,Houston St/Athens St
185,29.366919,-99.141992,FM 462/Ave M
276,29.353493,-98.878105,Amelia St/Lafayette St
185,29.146721,-98.913717,Atkins Ave/Church Dr
160,29.242119,-98.833718,Co Rd 6712/FM 463
246,29.355969,-98.867279,US Hwy 90
472,29.183553,-98.843797,I- 35/FM 471
305,29.197179,-98.825357,/I- 35 Access Rd
185,29.241265,-98.804846,N Prairie St
246,29.351057,-99.007217,US Hwy 90
185,29.145156,-98.902277,W Onion Ave/N Teel Dr/E Onion Ave
216,29.186779,-98.850856,Miller St
216,29.192589,-98.855134,5th St/FM 471
246,29.186694,-98.867342,Flores St
216,29.351100,-99.067353,/US Hwy 90
185,29.223726,-98.815722,Co Rd 6840/State Hwy 132
160,29.446595,-98.810334,Co Rd 381
160,29.190630,-98.857049,5th St/Miller St
185,29.247369,-98.884787,Co Rd 570
362,29.354301,-98.884090,Petersburg St/Constantinople St
185,29.349169,-98.947637,Pr Dr
390,29.355014,-98.881519,Naples St/Madrid St
216,29.145402,-98.901167,/Fernandez Ave
160,29.111147,-98.878422,Co Rd 773
216,29.336863,-99.138326,Ave J/30th St
362,29.137826,-98.908676,S Upson Dr/Galbreath Ave
160,29.375061,-99.140480,Pvt Rd 4422
160,29.197666,-98.854843,Town and Country Ln/2nd St
160,29.352617,-99.002113,US Hwy 90
891,29.347807,-99.137165,Ave H/19th St
160,29.330965,-99.257573,Co Rd 5227/Co Rd 5239
185,29.221252,-98.816218,Co Rd 6844/Co Rd 6841
216,29.135993,-98.907657,E Wallace Ave/S Bright Dr
185,29.148001,-98.895295,Jonesboro Ave
276,29.150699,-98.913686,W Warhorse Dr
216,29.357235,-98.885792,Berlin St/Mexico St
185,29.136372,-98.906028,Ross Ave/S Transportation Dr
216,29.314512,-98.816037,Castro Ave
246,29.185979,-98.839795,I- 35 Access Rd
246,29.351824,-99.130568,15th St/Ave B
216,29.139025,-98.912525,Griffin Dr/Zig Zag Ave
185,29.350471,-99.046911,US Hwy 90
246,29.335932,-99.139780,/31st St
216,29.350913,-99.074753,/US Hwy 90
305,29.348699,-99.118899,US Hwy 90/19th St
160,29.666163,-98.828061,Oak Country/State Hwy 16
390,29.330836,-99.271401,/Alta Vista St
216,29.135526,-98.908234,/S Teel Dr
160,29.334979,-99.140232,/32nd St
216,29.344114,-99.158646,22nd St/Boerne Ave
246,29.090872,-98.954515,/I- 35 Access Rd
552,29.144851,-98.898332,Peggy St
305,29.108973,-98.927139,/Squirrel Run Rd
216,29.353562,-98.888308,Vienna St/Geneva St
160,29.336457,-99.234125,US Hwy 90/Co Rd 5216
160,29.302742,-98.805157,FM 2790/Lytle-Lacoste Rd
160,29.135645,-98.857712,Co Rd 777
160,29.110166,-98.926160,Liveoak Ln/7616
185,29.235250,-98.868635,FM 463/FM 471/Co Rd 679
185,29.159253,-98.903747,Libold Dr/Ingram Rd/W Malone Dr
216,29.331563,-99.281274,Lindsay Ave
216,29.348736,-99.117575,US Hwy 90
185,29.304058,-98.806340,FM 2790
160,29.204251,-98.847723,Co Rd 6712/Mann Rd
160,29.455847,-98.828054,Co Rd 3820
216,29.351320,-99.156289,14th St/Ave Z
362,29.150343,-98.906167,Davis Ave/Shaver Dr
185,29.353732,-99.148911,11 1/2 St/Avenue S
418,29.155159,-98.905682,Mt Vernon Dr/Monticello Cir
185,29.348413,-98.929660,/US Hwy 90
160,29.453920,-98.821252,Co Rd 381
710,29.352356,-98.883627,US Hwy 90/Algiers St
216,29.345329,-99.150418,21st St/Ave U
276,29.125746,-98.900101,I- 35
276,29.147313,-98.907717,Lee Dr
334,29.185334,-98.840599,I- 35 Access Rd
160,29.333169,-99.270881,US Hwy 90/Main St
362,29.141667,-98.884454,I- 35
160,29.215536,-98.815657,Co Rd 6844/Co Rd 6845
305,29.351847,-99.129171,15th St/Ave A
246,29.141732,-98.905976,W Benton Ave/N Upson Dr
185,29.246726,-98.948400,/FM 1343
216,29.227319,-98.808706,State Hwy 132
246,29.153151,-98.891001,Dixon Dr
216,29.351452,-99.146337,14th St/Ave Q
472,29.117725,-98.919425,I- 35
276,29.330582,-99.279732,Main St/Blanco Ave
160,29.355958,-99.155505,Ave Y/Disosway Rd
246,29.201105,-98.821694,I- 35/
185,29.188021,-98.885801,/FM 463
160,29.330511,-98.889520,Co Rd 574/Co Rd 572
390,29.310259,-98.814273,Castro Ave
499,29.145351,-98.898027,Pilgrim Dr/Peggy St
160,29.351274,-98.952533,Pvt Rd 4619
160,29.336144,-99.246141,US Hwy 90
246,29.329059,-99.282757,Rio Frio Ave
445,29.150781,-98.904326,Libold Dr
305,29.202897,-98.818907,I- 35
362,29.190611,-98.861645,Hwy 132N/Kearney St/2nd St
185,29.373879,-99.159631,/Castro Ave
276,29.172029,-98.854579,I- 35 Access Rd
276,29.315383,-98.812241,Bexar St
185,29.147241,-98.909554,Mesquite Ave/N Windy Knoll Dr
160,29.349849,-99.094341,/US Hwy 90
185,29.350574,-98.886566,Jackson St/Madrid St
276,29.159213,-98.905340,Mt Vernon Dr/Ingram Rd
160,29.364590,-98.876508,FM 471
276,29.360354,-98.880639,San Jacinto St/Vienna St
160,29.543095,-98.840216,/Co Rd 2801E
160,29.145243,-98.916553,Cardinal Dr/Jay Dr/Robin Ave
160,29.211223,-98.887609,FM 463
216,29.150885,-98.895166,State Hwy 132/Dixon Dr
160,29.185448,-98.859026,/Aubrey St/7th St
276,29.140818,-98.913380,Howell Ave/Renfro Dr
160,29.159059,-98.919759,Co Rd 769
160,29.336890,-98.805582,Gross Ln
185,29.366523,-99.141995,Ave M/Robin Dr
305,29.159663,-98.904756,Sollock Dr
160,29.137289,-98.912641,Griffin Dr/Thompson Ave
185,29.308889,-98.813711,Val Verde St/Castro Ave
160,29.211959,-98.949060,FM 1343
246,29.233204,-98.810057,1st St
216,29.325870,-99.296232,US Hwy 90
185,29.188043,-98.862617,Aubrey St/3rd St
160,29.204779,-98.864091,FM 471
160,29.361902,-98.950018,Pr Dr
185,29.349013,-98.873566,Payne's Haven
185,29.364232,-99.141987,Oak Ln/Ave M
160,29.633273,-98.805935,State Hwy 16
185,29.349296,-99.151516,Ave V/16th St
160,29.338568,-98.976953,Co Rd 4638
160,29.310324,-98.915619,Co Rd 563/FM 1343
472,29.345365,-99.144921,21st St/Ave P
305,29.141717,-98.908476,N Washington Dr/W Hondo Ave/S Washington Dr
160,29.336107,-98.974055,Co Rd 4644/Co Rd 4645
160,29.374018,-99.135801,Cr 4404
185,29.182975,-98.833611,/Co Rd 6723
185,29.359214,-99.135692,New Fountain
362,29.343346,-99.144761,Ave P/24th St
160,29.351382,-98.890293,Old US Hwy 90
160,29.352205,-99.062138,Co Rd 451
246,29.350893,-99.075109,/US Hwy 90
160,29.299155,-99.108013,Elstone Rd
246,29.345565,-99.152631,20th St/Avenue W
305,29.150485,-98.893076,/Dixon Dr
246,29.351323,-99.062154,US Hwy 90/Co Rd 451
160,29.323703,-98.887202,Co Rd 5733
160,29.235246,-98.812816,Co Rd 681
305,29.341435,-99.144592,Ave P/26th St
185,29.364523,-98.808822,/US Hwy 90
185,29.339264,-99.167159,Taylor Ln
160,29.142727,-98.905293,N Upson Dr/W Park Ave
305,29.153713,-98.924146,State Hwy 173
160,29.363627,-98.943857,Co Rd 464/Co Rd 4516
362,29.138226,-98.902257,E Hondo Ave/
160,29.575317,-98.903297,/Pvt Rd 2705/Co Rd 2705
246,29.145674,-98.903261,W Onion Ave/N Upson Dr
362,29.353181,-99.139676,Ave J
160,29.140206,-98.829276,Co Rd 770/Co Rd 782
185,29.342393,-99.140854,Ave L/25th St
246,29.120470,-98.907069,I- 35
216,29.548187,-98.889177,Co Rd 277
185,29.240825,-98.804900,FM 2790
276,29.147631,-98.907696,Lee Dr
160,29.349132,-98.943701,Pr Dr
160,29.566499,-98.851226,Co Rd 2744/Co Rd 2745
276,29.342391,-99.143577,Ave O/25th St
418,29.355807,-98.889188,Washington St/Athens St
418,29.346389,-99.153747,19th St/Ave X
160,29.162322,-98.961710,Co Rd 762
160,29.349121,-98.949584,Pr Dr
185,29.355765,-98.890799,Cheateau St/Geneva St
160,29.354772,-99.140336,11th St
160,29.373210,-99.260687,/Co Rd 422
185,29.348584,-98.960781,US Hwy 90
246,29.130617,-98.894035,Co Rd 777/
216,29.109306,-98.928442,/Liveoak Ln
160,29.388747,-99.214154,Co Rd 421
160,29.316358,-98.813224,D Hanis Ave/Garden St/Old Lacoste - Castroville Rd
160,29.350899,-99.058035,US Hwy 90
305,29.352280,-98.991134,Co Rd 4643/Co Rd 4621/US Hwy 90
216,29.162111,-98.864139,I- 35
334,29.348702,-99.130507,Ave B/18th St
362,29.347897,-98.899347,FM 1343
246,29.209639,-98.811093,/I- 35 Access Rd
216,29.353685,-98.841209,Co Rd 4719
160,29.310269,-98.919495,Co Rd 5634
160,29.313679,-99.412442,US Hwy 90
160,29.346941,-98.980140,Co Rd 4637
334,29.346745,-99.155453,Ave Y/18th St
362,29.355251,-98.854682,US Hwy 90
160,29.310501,-98.811936,S Front St/Tarde Ave
658,29.346907,-99.134895,20th St/Ave F
185,29.350538,-98.847731,FM 471
216,29.344619,-99.140340,22nd St/Ave K
160,29.382021,-98.911130,/Pr Rd 478
185,29.159213,-98.905676,Downing Dr/Ingram Rd
305,29.351224,-98.838815,Co Rd 4716/Co Rd 4712
276,29.342042,-99.150410,24th St/Ave U
246,29.136374,-98.908025,S Teel Dr/Teel Aly
160,29.387013,-99.133777,Cr 442/Co Rd 4401
160,29.204182,-98.847650,Mann Rd/2nd St
160,29.226803,-98.810760,Diaz St/
246,29.219700,-98.815757,Co Rd 6844/Co Rd 6842/Co Rd 6841
246,29.355400,-99.145228,10th St/Ave P
160,29.357935,-98.927028,Co Rd 468/Co Rd 4516
160,29.327496,-99.290104,Huegele Ln/Main St/Nester Ln
160,29.298572,-98.841127,Pvt Rd 5764/FM 471
160,29.324467,-98.889662,Pr Dr
185,29.357251,-98.878952,Madrid St/Lorenzo St
185,29.225882,-98.813337,Diaz St/San Jose St
160,29.545614,-98.885021,/Co Rd 277
160,29.325436,-98.889494,Pr Dr/Co Rd 574
305,29.353467,-99.145219,12th St/Ave P
334,29.355753,-98.880664,Amelia St/Madrid St
305,29.240001,-98.804998,FM 2790
246,29.188958,-98.857121,6th St/Pearson St
185,29.348692,-98.929668,US Hwy 90
472,29.130071,-98.894966,State Hwy 173
160,29.352754,-98.870662,Van de Walle Ln
185,29.354067,-98.853509,FM 471
216,29.150924,-98.895105,State Hwy 132
216,29.372774,-99.142256,FM 462/Co Rd 341
246,29.190945,-98.855188,6th St/Palfrey St
160,29.356452,-98.895586,River Knoll/River Trl
160,29.335142,-99.258131,US Hwy 90/Co Rd 422
160,29.309812,-98.810430,D Hanis Ave
185,29.180211,-98.873305,Big Key Rd/Co Rd 6725
305,29.199932,-98.822692,/I- 35
631,29.347645,-99.143929,Ave O
185,29.137601,-98.905908,E Herring Ave/S Commercial Dr
160,29.144802,-98.915613,Cardinal Dr
160,29.529210,-98.839397,Co Rd 2799/Co Rd 2801E
160,29.235245,-98.846130,Co Rd 679
160,29.188104,-98.845235,Heathet Hollow
160,29.321377,-99.320581,US Hwy 90
216,29.112327,-98.926465,/I- 35 Access Rd
160,29.388375,-99.264282,FM 1796/Co Rd 421
305,29.346655,-99.139355,20th St/Ave J
334,29.179163,-98.848748,I- 35
185,29.201983,-98.819691,I- 35 Access Rd
499,29.144717,-98.903920,W Dilley Ave/N Upson Dr
160,29.125233,-98.891086,State Hwy 173/Co Rd 7710
216,29.352313,-99.148907,13th St/Avenue S
216,29.359496,-98.879806,Houston St/Florella St/Fiorella St
185,29.355048,-98.888328,Berlin St/Athens St
185,29.348674,-98.941938,US Hwy 90
276,29.346308,-99.159657,Castro Ave
276,29.359786,-99.141975,/Ave M
216,29.366031,-99.144441,Robin Dr/Shady Ln
160,29.218322,-98.826266,State Hwy 132/Co Rd 6850
185,29.122923,-98.892538,Co Rd 7711
276,29.361555,-98.818376,US Hwy 90
160,29.349634,-99.103274,US Hwy 90
160,29.429509,-98.805002,FM 1957
185,29.351488,-99.144125,Ave O/14th St
160,29.107130,-98.870286,/Co Rd 7719
160,29.358755,-98.885800,Washington St/Naples St
472,29.346226,-99.147243,Ave R/20th St
276,29.161750,-98.899431,Howard/Cemetery Rd
160,29.363545,-99.126330,/Co Rd 443
276,29.126196,-98.898874,Co Rd 777
160,29.256010,-98.869836,Co Rd 5705/FM 471
445,29.353503,-98.883218,Madrid St/Constantinople St
160,29.144937,-98.917245,Cardinal Dr
185,29.348681,-98.927833,/US Hwy 90
160,29.522403,-98.805891,State Hwy 211
216,29.330509,-98.887593,Co Rd 572
185,29.362738,-98.814958,/US Hwy 90
160,29.379765,-99.141936,Co Rd 442/Cr 341
160,29.207492,-98.823602,/Co Rd 6851
185,29.381110,-99.133756,Co Rd 442/Cr 442
246,29.351059,-99.062137,US Hwy 90/Co Rd 451
160,29.360864,-98.846812,Pvt Rd 4749
160,29.242127,-98.827007,/FM 463
160,29.349857,-98.947614,Pr Dr
684,29.355605,-98.861542,US Hwy 90/Country Ln
276,29.355745,-98.920516,Co Rd 4516
160,29.166651,-98.940036,/State Hwy 173
276,29.351438,-99.134079,15th St/Avenue E
305,29.142209,-98.904321,N Teel Dr/E Park Ave/W Park Ave
305,29.361563,-98.818354,US Hwy 90/Pvt Rd 481
160,29.325384,-98.889555,Pr Dr
185,29.350299,-99.152628,15th St/Avenue W
390,29.355970,-98.868577,US Hwy 90/Schott St
418,29.350220,-99.141883,Ave M/16th St
185,29.374205,-99.082814,Co Rd 4526
246,29.388208,-99.139565,/Co Rd 4401
185,29.350465,-99.007284,/Co Rd 4514
246,29.336223,-99.210028,/US Hwy 90
185,29.356748,-99.141958,Ave M
362,29.354267,-98.882377,Mexico St/Madrid St
160,29.226453,-98.814733,Hidalgo St
276,29.138345,-98.900580,Rossville Rd/Rosewood St
891,29.347625,-99.140538,19th St/Ave K
185,29.544269,-98.894261,Co Rd 2700/FM 1283
305,29.351324,-99.156939,Austin Ave/14th St
216,29.192856,-98.832645,I- 35N/I- 35 N
216,29.351441,-99.146487,14th St/Ave Q
160,29.375389,-98.888158,Prdr
160,29.127286,-98.817145,Co Rd 7810/Co Rd 770
334,29.391190,-98.890363,/Co Rd 474/FM 471
216,29.155691,-98.904018,Mockingbird Ln/Libold Dr
418,29.147495,-98.916510,W Hondo Ave/Littleton Dr
185,29.344999,-99.134936,22nd St/Ave F
246,29.349557,-99.136166,17th St/Ave G
160,29.354762,-99.137609,/11th St/Ave H
160,29.123862,-98.817301,Co Rd 770/Co Rd 7811
418,29.146192,-98.903818,W Coker Ave/Devine Dr
160,29.373984,-99.157254,/FM 462
216,29.185155,-98.862311,5th St
246,29.189961,-98.856148,6th St/Miller St
276,29.214224,-98.805191,/I- 35 Access Rd
526,29.184441,-98.854932,Natalia Isd
390,29.151767,-98.874640,I- 35/
160,29.350166,-99.142999,Avenue N/16th St
160,29.205404,-98.987721,/State Hwy 173
160,29.141696,-98.897493,Corley Dr
160,29.460440,-98.825209,Co Rd 3820/Co Rd 3822
418,29.473813,-98.805263,Co Rd 3841
418,29.146435,-98.918086,Robin Ave
246,29.308127,-98.810957,Tarde Ave
246,29.330713,-99.281546,Sacarosa Ave
305,29.344018,-99.141508,23rd St/Ave M
362,29.141520,-98.884205,I- 35
185,29.186395,-98.862653,4th St/Bartlett St
305,29.350689,-99.150389,15th St/Ave U
160,29.396374,-99.264351,/FM 1796
160,29.325337,-98.888713,Co Rd 574/Co Rd 5732
658,29.348253,-99.128022,Stage Coach Dr/19th St
185,29.132131,-98.888743,Co Rd 778
276,29.356509,-98.883241,Houston St/Naples St
276,29.153849,-98.905227,Colonial Pkwy/Hermitage Loop
160,29.235260,-98.876807,Pvt Rd 6705/FM 463
216,29.156004,-98.910431,Pr Dr
246,29.345917,-99.134922,21st St/Ave F
305,29.115027,-98.924074,/I- 35
246,29.365252,-98.805290,US Hwy 90
418,29.340490,-99.140832,27th St/Ave L
185,29.349031,-99.116910,/State Hwy 173
246,29.137504,-98.887887,I- 35
160,29.132211,-98.882753,Co Rd 778
185,29.152390,-98.895126,Co Rd 774/Colonial Pkwy
160,29.211499,-98.838090,/State Hwy 132
246,29.336632,-99.195103,US Hwy 90
246,29.131910,-98.901762,Gutierrez/King Ave
160,29.352746,-98.870237,Van de Walle Ln
160,29.324901,-99.302993,US Hwy 90
160,29.326152,-99.294645,US Hwy 90
362,29.151766,-98.891216,E Colonial Pkwy/Colonial Pkwy
160,29.376353,-98.887815,Prdr/Demontell Ln
499,29.347432,-99.146219,Ave Q
160,29.357987,-98.878093,Madrid St/Fiorella St
160,29.357324,-98.830489,Pvt Rd 4753/US Hwy 90
216,29.150494,-98.913606,Warhorse Dr/E Warhorse Dr/W Warhorse Dr
390,29.339553,-99.137579,Ave I/28th St
943,29.354966,-98.871436,/Lower Lacoste Rd/Karm St
160,29.361094,-98.866393,Harvest Moon
334,29.189602,-98.862621,Cresson St/Depot St/Hwy 132N/2nd St
160,29.388650,-99.229843,Pvt Rd 4323/Co Rd 421/Koehler Ln
160,29.361257,-98.874094,Hans St
160,29.330071,-98.877044,Co Rd 5722
216,29.308684,-98.811043,Pecos St
246,29.173387,-98.911497,Co Rd 6612/Pvt Rd 6703
185,29.307711,-98.810791,Brewster St/Tarde Ave
334,29.549848,-98.892975,Co Rd 2700
185,29.350771,-99.148683,15th St/Avenue S
445,29.345542,-99.141542,21st St/Ave M
216,29.140248,-98.908258,S Sayers Dr/W College Ave
160,29.344036,-99.157031,/Ave Z
246,29.186304,-98.846713,Heathet Hollow/FM 471
160,29.346879,-99.039091,Co Rd 4514/Lower Elstone Rd
160,29.163969,-98.899451,Co Rd 676/Cemetery Rd
160,29.321272,-99.268241,/Co Rd 5224
160,29.637544,-98.810057,/State Hwy 16
160,29.337335,-99.133417,29th St/Avenue E
216,29.316155,-98.813214,D Hanis Ave/Carle Ave
185,29.333945,-98.812986,/FM 471
246,29.460873,-98.830488,Co Rd 3822
160,29.151515,-98.888762,E Colonial Pkwy
160,29.349863,-99.155467,Elaine Dr/Ave Y
160,29.164444,-98.872213,/Co Rd 772
276,29.348905,-98.974431,Biry Dunley Rd/Co Rd 4631
160,29.325289,-98.889631,Pr Dr
216,29.346137,-98.875390,Constantinople St
160,29.209648,-98.805604,Co Rd 6817
216,29.135385,-98.908261,/S Teel Dr
216,29.351108,-98.887166,Jackson St/US Hwy 90
160,29.365620,-99.261461,Pr 4221
160,29.314352,-99.391457,/US Hwy 90
160,29.327197,-99.290114,Main St/Nester Ln
160,29.374054,-99.151196,/FM 462/Lone Oak Rd
160,29.329901,-99.278252,Buena Vista St/Sabinal Ave
246,29.127006,-98.897958,Co Rd 777
160,29.358752,-98.878958,Petersburg St/Fiorella St
160,29.225272,-98.812714,State Hwy 132
160,29.491727,-98.885113,Co Rd 2615
160,29.637740,-98.810590,State Hwy 16
216,29.140848,-98.904292,E Benton Ave/N Bright Dr
246,29.351371,-99.150385,/14th St/Ave U
160,29.173383,-98.915323,Co Rd 6612
160,29.171593,-98.879590,State Hwy 132
185,29.133780,-98.901610,Gutierrez/Webb Ave
160,29.308381,-98.808667,Brewster St/Carle Ave
160,29.219631,-98.824527,Co Rd 683
579,29.145305,-98.899025,Rosemary St/Sunshine Dr
276,29.349355,-98.974360,Biry Dunley Rd/US Hwy 90/Co Rd 4642
185,29.330494,-99.282274,Sacarosa Ave
160,29.121808,-98.874558,Co Rd 775/Co Rd 7711
160,29.374062,-99.150525,FM 462
216,29.351560,-98.887272,Petersburg St
160,29.547819,-98.805684,State Hwy 211
185,29.357692,-99.133435,Ave D
276,29.348643,-98.977131,Co Rd 4632/Co Rd 4631
185,29.202004,-98.850459,Pvt Rd 6708/2nd St
246,29.136241,-98.908124,Wallace Ave/Teel Aly
185,29.351836,-99.128089,15th St/16th St
552,29.354244,-98.878923,Amelia St/London St
334,29.190614,-98.852406,FM 471/8th St
160,29.570767,-98.864246,Co Rd 2753/Co Rd 2756
160,29.157194,-98.905466,Mt Vernon Dr/Hickory Hwy
276,29.344567,-99.152634,21st St/Avenue W
246,29.139246,-98.906384,E College Ave/S Teel Dr/W College Ave
216,29.136211,-98.908080,E Wallace Ave/Wallace Ave/S Teel Dr
185,29.360100,-98.867368,Willow Dr/Village Path
185,29.374277,-99.264246,/Co Rd 4215
305,29.145831,-98.899675,N Transportation Dr
276,29.355948,-98.921105,Co Rd 4612/Co Rd 4516
160,29.342464,-99.116108,/State Hwy 173/Elstone Rd
160,29.175090,-98.914856,Pvt Rd A
334,29.342242,-99.138593,25th St/Ave J
160,29.348960,-98.943503,/US Hwy 90
185,29.306898,-98.806073,Edelweiss Dr/Buchel St
185,29.351237,-98.880656,Constantinople St/Lafayette St
185,29.348357,-98.921019,US Hwy 90
160,29.209050,-98.805613,Co Rd 6817
334,29.149462,-98.907902,Crouch Ave/Parker Pl
160,29.357107,-98.830328,US Hwy 90
276,29.348643,-98.976811,Co Rd 4631
185,29.454698,-98.832180,Co Rd 3826/Co Rd 3828/Co Rd 3827
362,29.139505,-98.904421,E Hondo Ave
160,29.100013,-98.879528,Co Rd 773
216,29.350678,-99.052447,US Hwy 90/Co Rd 455
276,29.365554,-98.805268,Co Rd 485/US Hwy 90
334,29.114148,-98.923670,Co Rd 7611
185,29.180265,-98.873736,/Co Rd 6725
246,29.113427,-98.925034,/I- 35 Access Rd
418,29.347229,-99.150406,18th St/Ave U
276,29.138877,-98.905668,E College Ave/S Bright Dr
160,29.418989,-99.264473,/Pvt Rd 322
216,29.352872,-98.872377,Karm St/Schmidt Ln
246,29.364872,-98.806626,US Hwy 90/Pvt Rd 484
445,29.152083,-98.893766,State Hwy 132/Colonial Pkwy
305,29.179604,-98.849007,Unknown Pr Rd
160,29.353621,-98.906942,Co Rd 4770
185,29.313454,-99.391596,/US Hwy 90
499,29.344072,-99.150427,22nd St/Ave U
160,29.313645,-98.814437,Ney Ave/Medina St
160,29.261305,-98.804781,FM 2790
160,29.365799,-99.260738,Pr 4221/Co Rd 422
246,29.628908,-98.851835,/Pvt Rd 1702
390,29.347958,-99.147383,Ave R/18th St
552,29.152047,-98.893598,Colonial Pkwy
160,29.312893,-98.899768,Pr Dr/Co Rd 5781
216,29.228244,-98.806930,/State Hwy 132
185,29.193900,-98.856944,Walton St/3rd St/FM 471
185,29.353940,-98.889596,Berlin St/
418,29.186815,-98.847373,Pr 6701/FM 471
185,29.344085,-99.143693,23rd St/Ave O
185,29.225681,-98.813208,San Jose St
334,29.143616,-98.901804,E Dilley Ave/N Commercial Dr
445,29.347971,-99.138313,Ave I
160,29.347283,-98.877826,Algiers St
710,29.340512,-99.135539,27th St/Ave G
160,29.184407,-98.859973,Bartlett St/7th St
160,29.545246,-98.923189,Co Rd 271/Co Rd 2611
526,29.351433,-99.136312,15th St/Ave G
216,29.147101,-98.914172,Freedom Dr/Atkins Ave
185,29.524419,-98.960721,Pvt Rd 2670/Gilliam Switch Rd
216,29.337719,-99.137571,Ave I/29 1/2 St
185,29.347036,-99.132612,20th St/Ave D
185,29.144803,-98.901537,/Tehama Ave
160,29.338116,-99.144341,29th St/Ave P
160,29.140704,-98.998109,FM 2200/Co Rd 765
216,29.399617,-98.890289,FM 471
160,29.224970,-98.816192,Juarez St
160,29.170575,-98.814727,Co Rd 6815
185,29.351057,-99.072202,/US Hwy 90
246,29.154713,-98.899257,/Cemetery Rd
160,29.173387,-98.925101,Co Rd 6612/Co Rd 4514
160,29.351152,-99.075551,US Hwy 90
160,29.327376,-99.279680,Palo Duro St/Seco Ave
160,29.336440,-99.217986,US Hwy 90
445,29.344299,-99.146216,22nd St/Ave Q
160,29.313566,-99.410426,/US Hwy 90
276,29.351237,-99.007616,US Hwy 90
160,29.161417,-98.911523,W Malone Dr
334,29.191600,-98.860682,Pearson St/2nd St
185,29.137182,-98.884176,/Co Rd 777
185,29.352838,-98.887484,Houston St/Geneva St
160,29.340985,-99.167170,Taylor Ln/19th St
472,29.340484,-99.141951,27th St/Ave M
246,29.142222,-98.906883,N Sayers Dr/W Benton Ave
160,29.507818,-98.868584,Co Rd 371/Co Rd 278
185,29.218007,-98.815834,Co Rd 6844
552,29.139834,-98.905014,E Hondo Ave/S Bright Dr/N Bright Dr
334,29.121236,-98.905955,I- 35
526,29.138969,-98.904212,S Transportation Dr
185,29.147890,-98.890863,Harralton Cir
216,29.351485,-99.144212,Ave O/14th St
160,29.354436,-99.141961,Ave M/11th St
276,29.350737,-99.133320,16th St/Ave D
160,29.541655,-98.923652,Co Rd 2612/Co Rd 2617
390,29.348924,-99.147437,17th St/Ave R
246,29.352848,-98.889125,Jackson St/Vienna St
160,29.214843,-98.833067,State Hwy 132
160,29.565665,-98.847873,Co Rd 2744/Co Rd 2720
445,29.348772,-99.129087,/18th St
160,29.161247,-98.908221,Howard Wallace/W Malone Dr
185,29.317682,-98.878805,Co Rd 5740/Sabine Pass Rd/Co Rd 5735
160,29.343371,-99.142506,Avenue N/24th St
216,29.314228,-98.815921,Bexar St/Castro Ave
276,29.154128,-98.896846,Cemetery Ln
160,29.168837,-98.868809,Co Rd 772/
160,29.142415,-98.911458,McAnnely Ave/Jamison Dr
185,29.142707,-98.907798,W Benton Ave/N Washington Dr
185,29.154570,-98.917680,W Colonial Pkwy
276,29.190952,-98.835099,Co Rd 6767/I- 35 N
160,29.357958,-98.889670,Old River Rd
160,29.144983,-98.909528,N Windy Knoll Dr/W Park Ave
839,29.355505,-98.860177,/US Hwy 90
246,29.191966,-98.858845,3rd St/Miller St
160,29.309568,-98.923626,Co Rd 5635
246,29.147236,-98.906842,Jefferson Dr
216,29.137100,-98.882621,Co Rd 777
160,29.149246,-98.895423,Harralton Cir
160,29.146092,-98.911412,Ehlinger Ave
160,29.093015,-98.913754,Co Rd 7717
160,29.143175,-98.900274,Melinda Ln/Corley Dr
216,29.150646,-98.895006,Dixon Dr
160,29.349431,-98.943628,Pr Dr
185,29.333391,-99.280877,Reiley Ave/Commerce St
185,29.347899,-99.148488,18th St/Avenue S
305,29.343052,-99.137588,Ave I/24th St
246,29.200353,-98.821795,/I- 35 Access Rd
160,29.242122,-98.821281,/FM 463
472,29.138463,-98.903340,/Wilson Ave
160,29.351437,-98.923665,Co Rd 4611
418,29.185740,-98.861756,5th St/Bartlett St
160,29.137831,-98.893188,Covey Ln/Rossville Rd
160,29.429747,-98.806081,/FM 1957
334,29.151700,-98.878301,E Colonial Pkwy
160,29.186571,-98.964513,/State Hwy 173
917,29.347859,-99.140566,Ave K
390,29.330925,-99.279867,Blanco Ave
160,29.348985,-98.933341,/Pvt Rd 4626
246,29.345049,-98.837046,FM 471
160,29.235253,-98.875190,FM 463
160,29.235256,-98.875755,FM 463
246,29.349052,-98.971093,/US Hwy 90
160,29.407105,-99.116815,/State Hwy 173
362,29.336851,-99.140259,/30th St
185,29.350751,-99.046961,US Hwy 90
216,29.352854,-98.871569,Lower Lacoste Rd/Schmidt Ln
305,29.341431,-99.146196,26th St/Ave Q
246,29.308643,-98.811163,Tarde Ave/Pecos St
276,29.138332,-98.904686,S Transportation Dr
185,29.345754,-99.138159,Ave I/21st St
160,29.136152,-98.910614,Judson Dr
216,29.126865,-98.892393,State Hwy 173
276,29.363412,-98.812677,Co Rd 480/US Hwy 90
418,29.188774,-98.837538,I- 35
276,29.222798,-98.813204,Co Rd 6841
276,29.146614,-98.899127,/N Transportation Dr
160,29.334961,-99.142011,Ave M/32nd St
160,29.322494,-98.877701,Co Rd 574/Co Rd 5735/Blue Point Ln
160,29.353598,-99.130377,Ave B
185,29.241153,-98.804610,Lake St
216,29.348925,-98.956162,US Hwy 90
160,29.235260,-98.876399,FM 463/Pvt Rd 6704
334,29.152875,-98.896993,N Teel Dr/Colonial Pkwy/Cemetery Ln
160,29.350286,-99.151518,15th St/Ave V
185,29.353461,-99.143040,12th St/Avenue N
160,29.192961,-98.857886,3rd St/Palfrey St
334,29.348087,-99.145126,Ave P/18th St
160,29.130293,-98.904766,FM 3176
160,29.360088,-98.866397,Village Path/Tumbleweed Dr
362,29.151654,-98.878637,E Colonial Pkwy
305,29.355261,-98.840872,US Hwy 90
160,29.207495,-98.821529,/Co Rd 6848
185,29.304016,-98.806279,FM 2790/Drainage Row
246,29.151124,-98.920978,State Hwy 173
160,29.338119,-99.139092,29th St/Ave K
216,29.351013,-99.082747,Co Rd 4526
246,29.312456,-98.811544,D Hanis Ave/Kinney St
160,29.588975,-98.900349,FM 1283
605,29.355000,-98.878106,Angelo St/London St
276,29.126267,-98.898796,Co Rd 777
276,29.349630,-98.974347,US Hwy 90/Co Rd 4642
160,29.352846,-99.157820,/Austin Ave
160,29.194009,-98.882531,Co Rd 6715
445,29.339526,-99.150027,28th St
334,29.347009,-99.152614,18th St/Avenue W
160,29.242163,-98.804784,FM 463/N Prairie St
362,29.188191,-98.837839,I- 35
160,29.344020,-99.139723,23rd St/Ave K
160,29.439546,-98.848821,Pr 3701
185,29.135017,-98.904426,Ross Ave/Hester Ave
160,29.130527,-98.910872,State Hwy 132
160,29.334839,-99.280041,Martin Ave/FM 1796
160,29.353710,-98.894237,River Meadow/River Valley
246,29.331914,-99.278114,Old Eagle Pass Rd
362,29.351503,-98.885970,US Hwy 90/Geneva St
160,29.361903,-98.866395,Country Ln/Harvest Moon
246,29.324911,-99.276114,/FM 2200
499,29.357636,-98.862650,Brook Dr/Brook St
185,29.248586,-98.804756,N Prairie St
305,29.144141,-98.911228,Brown Ave
185,29.327368,-99.282155,Palo Duro St/Co Rd 5209
185,29.194923,-98.828715,I- 35 Access Rd
216,29.358813,-98.826235,US Hwy 90
160,29.548565,-98.894009,Co Rd 2701
160,29.195476,-98.856956,2nd St/Cerca St
160,29.184208,-98.861680,Bennett St/6th St
185,29.359050,-98.824719,US Hwy 90
216,29.313298,-98.815527,Medina St/Castro Ave
160,29.157733,-98.952049,Cr 761/Cr 764
246,29.330133,-98.882400,Co Rd 5722/Co Rd 573
185,29.214240,-98.819852,Co Rd 6847
276,29.361493,-98.818553,/US Hwy 90
362,29.135898,-98.905097,Fullerton Dr/Ross Ave
160,29.302168,-98.804948,FM 2790/Lytle-Lacoste Rd
305,29.355526,-98.855376,US Hwy 90
276,29.159793,-98.905683,Downing Dr/Sollock Dr
390,29.346846,-99.135962,20th St/Ave G
276,29.349984,-99.146397,Ave Q/16th St
160,29.320182,-98.878784,Pecos Ct/Co Rd 5735
246,29.342318,-99.139726,25th St/Ave K
160,29.357924,-98.889766,Old River Rd
185,29.136710,-98.876260,Co Rd 773/Co Rd 777
418,29.351298,-98.884070,Paris St/Athens St
499,29.138807,-98.904323,S Transportation Dr/Adams Ave
160,29.641057,-98.843918,Pvt Rd 189
276,29.322923,-99.313762,/US Hwy 90
160,29.318950,-98.903004,Pr Dr
160,29.349021,-98.878148,Constantinople St/Gentilz St
276,29.346476,-99.142747,Avenue N/20th St
160,29.358341,-99.166029,/McHaughten
185,29.373775,-99.082829,Co Rd 4526
276,29.311435,-98.814770,Castro Ave/Kenney/Kinney St
160,29.186677,-98.856283,Kearney St/8th St
185,29.425815,-98.956679,Pvt Rd 3660
362,29.348119,-99.139444,Ave J
334,29.331755,-99.278091,Sacarosa Ave
160,29.107205,-98.947313,/Pvt Rd 7621
185,29.154557,-98.917488,W Colonial Pkwy
160,29.148457,-98.983650,Co Rd 763
160,29.359004,-98.885510,Washington St
305,29.350407,-99.138497,Ave I/16th St
160,29.316107,-98.902512,Pr Dr
216,29.143921,-98.919563,Bluebonnet Ave
216,29.338598,-99.138283,29th St/Ave J
216,29.327200,-99.291117,US Hwy 90/Main St
160,29.343368,-99.139727,Ave K/24th St
305,29.315129,-98.813084,D Hanis Ave/Bexar St
334,29.188956,-98.852489,9th St/el Paso/Palfrey St
246,29.125265,-98.890084,/Co Rd 7710
472,29.150555,-98.909565,Davis Ave/N Windy Knoll Dr
334,29.132982,-98.903753,S Tilley Dr/Lucas Ave
160,29.349023,-98.949867,/US Hwy 90
160,29.636337,-98.809155,Park Rd 37/State Hwy 16
160,29.330334,-99.275746,East Ave
216,29.351378,-99.070531,/US Hwy 90
160,29.351212,-98.840437,Co Rd 4716/Co Rd 4720
160,29.148920,-98.916142,Hall Ave
418,29.161008,-98.900599,Bain Dr
160,29.107266,-99.006704,Co Rd 754/Co Rd 765
160,29.488578,-98.931617,Co Rd 271
334,29.350360,-99.139616,16th St/Ave J
160,29.313924,-98.927216,/Co Rd 5632
445,29.357082,-98.862658,Meadow Dr
305,29.186765,-98.845706,Heather Cir
160,29.356119,-98.893181,River Ct/Geneva St
994,29.348068,-99.129238,Brian Pl
605,29.347875,-99.143952,Ave O
605,29.354982,-98.876389,US Hwy 90/Lafayette St/Lorenzo St
216,29.187623,-98.845723,Heathet Hollow
305,29.150869,-98.906112,Kempf Ave
246,29.112762,-98.927141,I- 35
472,29.132019,-98.902996,King Ave/Flores Dr
276,29.348764,-99.152643,Westwood Dr/Avenue W
160,29.362585,-98.944431,Pr Dr
160,29.533135,-98.832369,Co Rd 2806
445,29.345494,-99.147211,21st St/Ave R
276,29.348674,-99.122380,19th St
160,29.479631,-98.805314,Co Rd 3841
185,29.349006,-98.947424,Pr Dr/US Hwy 90
334,29.344801,-99.136950,22nd St/Ave H
160,29.108397,-98.930756,/Liveoak Ln
160,29.522733,-98.805897,FM 471/State Hwy 211
334,29.355251,-98.853561,US Hwy 90
216,29.344067,-99.142555,23rd St/Avenue N
160,29.162399,-98.911526,W Malone Dr
246,29.310865,-98.810875,D Hanis Ave/S Front St
185,29.133469,-98.908879,S Commercial Dr/S Teel Dr/State Hwy 132
185,29.328629,-99.282598,Buena Vista St/Rio Frio Ave
160,29.318078,-98.885871,Co Rd 5740/Co Rd 5734
305,29.330863,-99.281010,Sacarosa Ave/Lindsay Ave
246,29.154084,-98.909665,W Colonial Pkwy
160,29.328496,-98.869515,Co Rd 5722
216,29.347790,-99.150385,18th St/Ave U
246,29.194977,-98.829905,I- 35N/I- 35 N
185,29.207484,-98.843340,/State Hwy 132
185,29.148900,-98.893976,Harralton Cir
160,29.363968,-98.886967,Pvt Rd 4779
216,29.187631,-98.855318,Pearson St/8th St
160,29.173386,-98.910554,Co Rd 6612
246,29.135850,-98.906357,S Transportation Dr
160,29.381470,-99.170966,FM 462
160,29.119837,-98.886767,/State Hwy 173
185,29.348396,-98.926521,US Hwy 90
160,29.335345,-98.907036,/FM 1343
472,29.348563,-98.898959,Old Hwy 90
865,29.348086,-99.141711,Ave M
216,29.344098,-99.153758,22nd St/Ave X
160,29.542497,-98.841279,Co Rd 2801E/Co Rd 2815
160,29.334851,-99.260842,US Hwy 90
160,29.163655,-98.996858,Co Rd 660
418,29.147963,-98.917092,W Hondo Ave
160,29.362688,-99.141974,Ave M
185,29.345257,-99.134907,22nd St/Ave F
160,29.306737,-98.810576,Schnapps Dr/Buchel St
246,29.153905,-98.906196,Colonial Pkwy/Hermitage Loop
276,29.148025,-98.914444,Bentson Dr
160,29.161661,-98.911524,W Malone Dr
216,29.187694,-98.846284,Heather Cir
276,29.161214,-98.864961,I- 35
160,29.336107,-98.976953,Co Rd 4638/Co Rd 4644
185,29.336484,-99.183816,/US Hwy 90
160,29.492132,-98.884966,/Co Rd 2615
160,29.207715,-98.924210,Co Rd 669
216,29.334126,-99.133402,Avenue E/33rd St
334,29.354439,-99.144124,Ave O/11th St
710,29.140214,-98.905701,E Hondo Ave/N Teel Dr/S Teel Dr/W Hondo Ave
216,29.382894,-99.133756,Cr 442
185,29.317315,-98.815576,FM 471/Castro Ave
216,29.379228,-99.150862,Park Lane Rd/Lone Oak Rd
185,29.332043,-98.882779,Co Rd 573
216,29.186668,-98.845509,Heather Cir
246,29.235266,-98.805553,FM 2790/Co Rd 681
334,29.130533,-98.895336,I- 35/State Hwy 173
160,29.128125,-98.904957,/FM 3176
216,29.138224,-98.912574,Griffin Dr/Curtis Ave
160,29.188709,-98.863522,Aubrey St/2nd St
216,29.308050,-98.809719,D Hanis Ave/Brewster St
216,29.350484,-99.082697,US Hwy 90/Co Rd 456
185,29.185076,-98.856335,Natalia Isd
362,29.149565,-98.909552,Crouch Ave/N Windy Knoll Dr
185,29.235257,-98.872620,/FM 463
160,29.203895,-98.925798,Co Rd 4514
305,29.352555,-98.991135,Co Rd 4643/US Hwy 90
160,29.355932,-99.148926,9th St/Avenue S
216,29.153958,-98.907269,Monticello Cir/Colonial Pkwy
160,29.390995,-99.116836,State Hwy 173
160,29.101183,-98.942325,Pvt Rd 7621/I- 35 Access Rd
472,29.353489,-98.879810,London St/Naples St
710,29.353701,-98.880088,US Hwy 90/Naples St
160,29.349019,-98.881524,Florence St/Athens St
276,29.138621,-98.905201,E College Ave/S Commercial Dr
160,29.331913,-99.278570,Old Eagle Pass Rd/Co Rd 525
185,29.304350,-98.806882,FM 2790/Edelweiss Dr
216,29.360387,-98.880737,San Jacinto St
305,29.348804,-99.118900,US Hwy 90/19th St
160,29.099799,-98.978032,/I- 35 Access Rd
276,29.192887,-98.831810,I- 35
334,29.155985,-98.909599,Pr Dr/N Windy Knoll Dr
246,29.181544,-98.847445,Co Rd 6717
216,29.365040,-99.145128,Acorn Rd/Robin Dr
160,29.518859,-98.817352,FM 1283
160,29.353534,-99.133363,Ave D
276,29.312931,-98.921800,/Co Rd 5632
305,29.344571,-99.151521,21st St/Ave V
160,29.403988,-98.890263,/FM 471
390,29.350295,-99.140745,16th St/Ave K
216,29.440004,-98.883782,Co Rd 373/FM 2676/FM 471
160,29.362551,-99.129511,Co Rd 443
526,29.212945,-98.805594,I- 35 Access Rd/Co Rd 6817
185,29.348987,-98.946231,US Hwy 90
160,29.429572,-98.805201,FM 1957
185,29.354293,-98.887469,Vienna St/Athens St/Vienna
160,29.187133,-98.909312,Co Rd 664
160,29.334873,-99.257897,US Hwy 90
160,29.332374,-98.903868,Co Rd 571
160,29.321653,-99.320663,/US Hwy 90
160,29.522711,-98.805578,FM 471
362,29.342392,-99.144678,Ave P/25th St
390,29.348214,-99.142877,Avenue N/18th St
216,29.327767,-98.881660,Co Rd 573/Co Rd 575
185,29.144010,-98.836484,Co Rd 770
839,29.355135,-98.870799,/Old US Hwy 90 E
276,29.462179,-98.830335,Co Rd 3821
160,29.344016,-99.138032,Ave I/23rd St
160,29.122712,-98.889077,Cotton Gin Rd/State Hwy 173/Co Rd 7711
305,29.146336,-98.915082,W Hondo Ave
160,29.343958,-98.834603,/FM 471
160,29.313869,-98.924370,Co Rd 561/Co Rd 5636
160,29.310243,-98.919348,Co Rd 5633/Co Rd 5634
160,29.374764,-98.816921,Co Rd 4801
185,29.351389,-98.887473,Petersburg St/Jackson St
390,29.154135,-98.904164,Libold Dr/Monticello Cir
160,29.193134,-99.216974,FM 2200
445,29.344065,-99.148743,Ave T/22nd St/23rd Cir
160,29.352901,-98.873198,/Schmidt Ln
160,29.459869,-98.834768,Co Rd 3823/Co Rd 3829
160,29.349031,-98.949535,Pr Dr/US Hwy 90
160,29.666708,-98.828732,State Hwy 16
160,29.163131,-98.885742,State Hwy 132
160,29.351332,-99.155487,Ave Y/14th St
305,29.142266,-98.898566,Karen Kourt/Corley Dr
334,29.150853,-98.905445,Kempf Ave
185,29.154694,-98.919669,/W Colonial Pkwy
788,29.355117,-98.870659,Old US Hwy 90 E
216,29.173028,-98.853646,/I- 35 Access Rd
276,29.336131,-99.223400,/US Hwy 90
160,29.184939,-98.972102,/Co Rd 653
160,29.329590,-99.279317,Buena Vista St/Blanco Ave
390,29.346977,-99.133625,Avenue E/20th St
246,29.130706,-98.898407,L C Martin Dr
362,29.340505,-99.139741,27th St/Ave K
185,29.349962,-99.010851,Co Rd 458/US Hwy 90
362,29.355528,-98.854680,/US Hwy 90
185,29.313400,-98.811924,D Hanis Ave/Uvalde St
160,29.226450,-98.810416,State Hwy 132
160,29.360873,-98.929377,Pvt Rd 4663
185,29.348891,-99.116921,US Hwy 90/State Hwy 173
160,29.204378,-98.819609,Co Rd 6847/Co Rd 6846
185,29.373934,-99.264255,/Co Rd 422
276,29.360233,-98.880669,Florella St/Vienna St
216,29.343377,-99.141851,Ave M/24th St
813,29.348039,-99.133783,Avenue E/19th St
185,29.348447,-98.932152,US Hwy 90
472,29.345985,-99.157775,19th St
390,29.188565,-98.837357,I- 35
246,29.460856,-98.830293,Co Rd 3822
160,29.315840,-98.924232,Co Rd 561/Co Rd 5604
160,29.336884,-99.141993,Ave M/30th St
246,29.354207,-98.921083,Co Rd 4612/Co Rd 469
160,29.559850,-98.904760,/FM 1283
246,29.353238,-99.147815,12th St/Ave R
305,29.120238,-98.907801,I- 35
499,29.348587,-98.899021,Old Hwy 90/Co Rd 4516
418,29.131885,-98.893354,/I- 35
160,29.313713,-99.410430,US Hwy 90
276,29.181478,-98.847262,/Co Rd 6717
276,29.355527,-98.847254,US Hwy 90/Pvt Rd 4749
160,29.353972,-99.347167,Co Rd 312/Co Rd 511
216,29.357495,-98.875218,Alamo St/London St
334,29.135920,-98.904859,Ross Ave/Wilson Ave
276,29.192906,-98.831371,I- 35 Access Rd
185,29.349176,-99.142930,17th St/Avenue N
246,29.138782,-98.908059,W Herring Ave/S Upson Dr/Zig Zag Ave
216,29.229371,-98.804719,State Hwy 132
185,29.331988,-99.252036,Co Rd 5229/Co Rd 5216
160,29.204678,-98.847784,Co Rd 6712
160,29.145335,-98.918046,Eagle Dr
160,29.313382,-98.810736,Carle Ave
160,29.347103,-99.125300,22nd St
305,29.141843,-98.903614,E Park Ave/N Bright Dr
160,29.303128,-98.804871,Lytle-Lacoste Rd
445,29.357095,-98.871478,Provident Ave/FM 471
216,29.159263,-98.899441,Ingram Rd/Cemetery Rd
185,29.149656,-98.875590,Co Rd 773/
185,29.308304,-98.812222,Ney Ave/Pecos St
246,29.142816,-98.902951,E Moore Ave/N Bright Dr
276,29.348760,-99.121174,/19th St
185,29.366575,-99.141993,Ave M
160,29.138055,-98.909557,Curtis Ave
390,29.352772,-98.884063,Algiers St/Madrid St
390,29.345114,-99.158697,/Boerne Ave
216,29.351439,-99.135172,15th St/Ave F
246,29.138094,-98.910527,Curtis Ave/Judson Dr
216,29.335933,-99.140820,Ave L/31st St
246,29.336863,-99.137606,Ave I/30th St
160,29.176520,-98.825822,Co Rd 6723
246,29.310801,-98.811061,/S Front St
160,29.325317,-98.875466,Co Rd 574/
216,29.350751,-99.082729,US Hwy 90/Co Rd 4526
160,29.309455,-98.815169,Casiano Ave/S Front St
216,29.349869,-99.148625,16th St/Avenue S
246,29.336403,-99.222687,US Hwy 90
216,29.136786,-98.909146,Wallace Ave
160,29.359725,-98.871755,/FM 471/May St
418,29.348085,-99.131109,19th St
445,29.189289,-98.852156,9th St
160,29.342303,-98.975543,Co Rd 4635
246,29.329945,-99.281881,Rancheros Ave/Main St
216,29.352537,-98.910817,Co Rd 479/Co Rd 4516
305,29.345962,-98.872229,Co Rd 4711
160,29.528792,-98.838647,Co Rd 2803
160,29.316177,-98.913924,FM 1343
216,29.226625,-98.814328,Coal Mine St/Hidalgo St
185,29.354755,-99.141964,Ave M/11th St
185,29.350722,-99.078276,/US Hwy 90
216,29.126925,-98.898047,Co Rd 777
160,29.357180,-99.147470,8th St
160,29.221994,-99.008111,/State Hwy 173
246,29.352751,-98.878966,Naples St/Lafayette St
185,29.330849,-99.275750,Alta Vista St/East Ave
185,29.202175,-98.819442,/I- 35 Access Rd
246,29.144184,-98.908022,Jefferson Dr/W Park Ave
185,29.156948,-98.899439,Cemetery Rd
276,29.347028,-99.128285,Stage Coach Dr
185,29.353393,-98.894596,River Valley
390,29.345730,-99.160124,19th St/Castro Ave
216,29.155611,-98.907594,Mockingbird Ln/Azalea Ave
246,29.189248,-98.836009,Co Rd 6723/I- 35 Access Rd
418,29.146203,-98.904183,W Onion Ave/W Coker Ave/Coker Ave
390,29.145194,-98.904843,N Sayers Dr/W Dilley Ave
185,29.351067,-99.071833,US Hwy 90
276,29.311095,-98.810982,D Hanis Ave
160,29.228908,-98.811843,Hidalgo St
276,29.335193,-99.133407,/Avenue E
305,29.196096,-98.828113,I- 35
160,29.350375,-98.874271,Lower Lacoste Rd
185,29.138845,-98.909415,Zig Zag Ave
216,29.192417,-98.824274,Co Rd 6861/Co Rd 6864
499,29.344105,-99.146202,22nd St/Ave Q
246,29.130852,-98.898235,/L C Martin Dr
216,29.359946,-98.879354,Houston St/San Jacinto St/
216,29.353172,-98.852027,Airport Rd/FM 471
160,29.286869,-99.042932,Lower Elstone Rd
334,29.352112,-98.850309,FM 471
185,29.328928,-99.281521,Rancheros Ave/Buena Vista St
160,29.334579,-99.260774,US Hwy 90/Old Church Rd
246,29.138781,-98.894889,Blackjack Ln
334,29.355768,-98.882383,Petersburg St/Naples St
160,29.312793,-98.810484,Kinney St/Carle Ave
216,29.148811,-98.891366,Encino Pl/Harralton Cir
160,29.336170,-99.215146,US Hwy 90
185,29.348305,-99.159650,/Castro Ave
276,29.348023,-99.146234,Ave Q/18th St
160,29.407329,-99.025513,/FM 2676
216,29.342626,-98.831583,Co Rd 483//FM 471
246,29.336918,-99.146143,Ave Q/30th St
160,29.392930,-98.890343,FM 471
160,29.653851,-98.816308,/State Hwy 16
160,29.224564,-98.809257,Cortez Ln
246,29.138144,-98.911538,Curtis Ave/Jamison Dr
305,29.355259,-98.848827,US Hwy 90
160,29.161082,-98.878976,Co Rd 772
305,29.154179,-98.912519,E Warhorse Dr
216,29.230932,-98.804683,Blume Dr
246,29.351403,-99.148725,14th St/Avenue S
684,29.354257,-98.880646,Naples St/Paris St
216,29.629424,-98.850795,Pvt Rd 1702/Pvt Rd 1701/Pvt Rd 1704
216,29.186854,-98.851034,Miller St
216,29.137964,-98.894986,Blackjack Ln/Rossville Rd
160,29.666915,-98.828540,State Hwy 16
276,29.549450,-98.893364,Co Rd 2702/Co Rd 2700
305,29.212398,-98.807532,/I- 35 Access Rd
246,29.327411,-99.275717,Palo Duro St/East Ave
185,29.143481,-98.901311,Dilley Ave/Transportation Dr/N Transportation Dr
185,29.351622,-98.889445,Houston St/Alsace Ave/Old US Hwy 90
160,29.366164,-99.148528,Acorn Rd/Kollman Dr
216,29.143194,-98.908709,Jefferson Dr/W Benton Ave
160,29.240871,-98.833733,Co Rd 6712
762,29.348307,-99.140609,18th St/Ave K
216,29.186701,-98.860819,Aubrey St/5th St
185,29.458111,-99.284340,Pvt Rd 3213
216,29.351213,-98.841247,Co Rd 4716
160,29.636150,-98.809902,Park Rd 37
160,29.211166,-98.819874,Co Rd 6847/Co Rd 6848
736,29.347894,-99.135446,19th St
160,29.575618,-99.091255,/State Hwy 173
246,29.328827,-99.283584,Nueces Rd
185,29.350484,-98.878120,Lisbon St/Mexico St
160,29.132870,-98.901678,Gutierrez/Lucas Ave
362,29.345567,-99.151502,Ave V/20th St
160,29.235248,-98.869715,FM 463
246,29.341908,-99.140836,Ave L
160,29.186341,-98.858112,Cresson St/7th St
185,29.151329,-98.885374,E Colonial Pkwy
160,29.328568,-98.869446,Co Rd 5723
216,29.352361,-99.147808,Ave R/13th St
418,29.150983,-98.907833,Kempf Ave/Parker Pl
216,29.629410,-98.850767,/Pvt Rd 1704
160,29.354767,-99.140795,11th St/Ave K
305,29.196495,-98.827634,/I- 35
185,29.336458,-99.215157,US Hwy 90
276,29.145921,-98.914557,W Hondo Ave/Church Dr
160,29.226212,-98.813552,Juarez St/San Jose St
185,29.336896,-99.150375,Ave U/30th St
160,29.374017,-99.154976,/FM 462
246,29.156335,-98.908425,Hickory Hwy/Azalea Ave
160,29.348711,-98.943528,/US Hwy 90
418,29.351304,-99.140763,15th St/Ave K
185,29.146169,-98.906641,W Dilley Ave/Jefferson Dr
865,29.353248,-98.881234,US Hwy 90/Mexico St
160,29.228377,-98.848754,Co Rd 678 E
276,29.192867,-98.832258,I- 35
390,29.143287,-98.911233,W Hondo Ave
