Estimated daily crossings,Latitude,Longitude,Name
216,36.743953,-111.752812,/US Hwy 89 Alt
160,35.257807,-111.519141,Kavanaugh Way/Ross Rd
185,34.861618,-111.771452,Les Springs Ln
499,36.057348,-112.144954,W Rim Dr
216,35.173435,-111.703436,Corral Gate/Lariat Loop
160,35.256799,-111.524728,Koch Field Rd
216,36.891629,-111.469743,State Hwy 98
160,35.111030,-111.715556,N Hwy 89A
216,35.254073,-112.195244,/N 7th St
216,35.170927,-111.648214,/S Lone Tree Rd
160,35.273095,-111.550011,Ponderosa Dr
362,35.216216,-111.619149,N East St/E Dortha Ave
216,35.265517,-112.057834,/Deer Farm Rd
185,35.265066,-112.053443,/I- 40
185,35.207904,-111.517198,/Walnut Canyon Rd
445,35.199615,-111.645667,N Agassiz St/E Cherry Ave
185,35.178635,-111.349846,I- 40
160,35.260469,-111.538947,Aspen Glen/
246,36.014586,-112.066071,E Rim Dr
418,36.124678,-111.235637,/Main St
216,35.127722,-111.180697,I- 40
472,36.919676,-111.459136,N 7th Ave/S 7th Ave/N Navajo Dr
276,36.915821,-111.449590,el Mirage St/el Dorado Ct
160,34.949895,-111.634027,Forest Rd
276,35.185016,-111.643491,/Pso del Flag
185,35.210484,-111.595375,N Elk Run St/E Soliere Ave
1123,35.170559,-111.668097,S Litzler Dr/Seaman Cir
160,34.909278,-111.447752,Homewood Rd
185,35.221823,-111.591083,E Avocet Way
185,35.204010,-111.646122,W Hunt Ave/E Hunt Ave/N Leroux St
684,36.904547,-111.482966,/Haul Rd
216,36.137256,-111.240463,Vine Dr
185,35.112192,-111.700324,Doc Fronske
891,35.194836,-111.629376,/I- 40 Bus
276,35.169242,-111.665173,I- 17
579,35.251696,-112.186509,N Taber St/E Railroad Ave
185,35.239597,-111.671819,N Fort Valley Rd
736,35.190736,-111.630652,/S Babbitt Dr
216,35.310697,-111.542666,US Hwy 89
305,36.910580,-111.450494,Cheryl Ave/Village Dr
943,35.193539,-111.648320,S Agassiz St/E Brannen Ave
276,36.122903,-111.220558,/Warrior Dr
276,36.851104,-111.447450,Hudson Blvd
185,35.210137,-111.522192,I- 40
185,35.540314,-111.539224,US Hwy 89
185,35.264604,-112.052755,/I- 40
185,34.946275,-111.657419,Turkey Trl/Elk Hill
160,34.630216,-111.103180,Strawberry Dr/Greentop Dr
216,35.221668,-111.609524,N Walker St/E Linda Vista Dr
160,34.851253,-111.764704,Redwing Ln
160,35.094661,-111.700367,Pinon Trl
216,35.161809,-111.279583,I- 40
334,35.209430,-111.648703,Piute Rd/N Fort Valley Rd
160,35.258833,-112.024427,/I- 40
2274,35.175099,-111.666328,/S Woodlands Village Blvd
246,35.216954,-111.647947,W Philomena Dr/N Katchina Dr
276,36.915831,-111.452523,el Mirage St
160,35.217998,-111.666737,N Westview Trl/W Pack Trail Dr
160,35.173655,-111.679037,S Andrea Dr/W University Heights Dr N
526,35.205109,-111.649424,/W Hunt Ave/N Kendrick St
160,35.018447,-111.685328,/Newman Park Rd
185,36.096327,-111.395260,US Hwy 89/Indian Rte 6134
216,35.986853,-112.123184,US Hwy 180
246,36.137730,-111.241320,Fir Ave/Maple St
216,35.212610,-111.618605,/Colanthe Ave
362,35.201662,-111.607992,N 4th St/I- 40
246,36.053677,-112.124283,/Zuni Way
334,35.220166,-111.620452,N Grandview Dr
185,35.323203,-112.153332,/Sunset Strip/State Hwy 64
736,35.192538,-111.642443,E Butler Ave/Gabel St
185,36.899319,-111.425052,State Hwy 98
5493,35.186882,-111.661539,/Milton Rd
362,35.196594,-111.637810,N Hilltop Dr
1433,34.871763,-111.758894,/State Hwy 89 Alt Scn
160,35.244455,-112.187426,Mc Pherson Ave/S Perkinsville Rd
305,35.201593,-111.658557,N Thorpe Rd/W Aspen Ave
216,35.195811,-111.660688,Elliot St/W Clay Ave/S Blackbird Roost St
160,35.305041,-111.541245,Soaring Eagle
418,36.920870,-111.452272,Thunderbird Ave/Crestview
246,35.197881,-111.631705,N Locust Dr/N Pine Cliff Dr
160,35.202291,-111.604537,Buckskin Way
305,36.851542,-111.450470,/Hudson Blvd
472,35.222104,-111.586737,US Hwy 89
160,34.940516,-111.638167,Crestline Rd
605,35.195794,-111.659872,W Clay Ave
276,35.213098,-111.656716,N Conifer Rd
3142,34.869703,-111.760849,State Hwy 89 Alt Scn
160,34.319796,-110.844900,/Payson-Heber Hwy
216,35.183517,-111.701271,I- 40
185,36.919492,-111.452184,Willow St/Crestview
160,34.981791,-111.747411,/N Hwy 89A
246,35.295406,-111.006245,/Leupp Rd
160,36.149072,-111.232549,Preston Dr
160,35.108164,-111.703407,Forest Highlands Blvd/Forest Highlands Dr
185,35.245229,-112.214837,I- 40/US Hwy 66
246,35.220778,-111.595483,N Fanning Dr/E Linda Vista Dr
185,35.255614,-111.530408,Fran Dr
185,35.092325,-111.699342,Pinon Ovi
684,35.252830,-112.183140,N Pine St/E Railroad Ave
160,35.256516,-111.541143,N Green Prairie Ln
246,35.197321,-111.657853,Elliot St/S Kingman St/W Tucson Ave
160,34.944639,-111.637420,Reindeer Dr
526,35.181255,-111.667687,S Woodlands Village Blvd
160,35.204595,-111.584915,N Pebble Beach Dr/E Pebble Beach Dr
160,35.203981,-111.581597,N Oakmont Dr/N Horseshoe St
160,35.254556,-111.531752,/E Burris Ln
334,35.193560,-111.645843,S Elden St/E Brannen Ave
160,35.103020,-111.702141,Griffiths Spring/Cottage Ln
1459,34.863022,-111.763547,State Hwy 179/S State Rte 179/Portal Ln
658,35.194724,-111.660648,Park McCrk Pl/S Blackbird Roost St
813,35.199737,-111.649385,N Beaver St/W Birch Ave
160,34.936079,-111.639593,Meadow View Rd/Pine Trail Rd
216,34.866919,-111.773301,State Hwy 89 Alt Scn
216,35.165343,-111.654493,Leupp Dr/E Zuni Dr
276,35.203170,-111.615879,I- 40 Bus/N 1st St
160,35.217272,-111.586008,/E Huntington Dr
305,35.255830,-111.559437,N Reata Rd//E Reata Rd
216,35.221213,-111.652528,N Fort Valley Rd
160,35.137504,-111.613457,Daphne Ln/
185,35.164869,-111.314141,/I- 40
216,36.925600,-111.457006,11th Ave/Padre Escalante Dr
160,35.182789,-111.677508,S Majestic Rd
216,35.924320,-111.402151,US Hwy 89
1667,35.172838,-111.665887,I- 40
160,35.197721,-111.563071,E Vail Dr
579,35.179992,-111.680525,S Hibiscus/W Legend Trl
246,35.190100,-111.637080,S River Run Rd
160,35.251606,-111.697407,/N Fort Valley Rd
216,35.203966,-111.616984,E Maple Ave/N 1st St/E Spruce Ave
684,35.250736,-112.185946,S Taber St
216,35.249815,-112.185493,/S Taber St
185,35.195353,-111.581128,Latrobe Cir/N Edgewood St
160,36.138172,-111.237607,Pine St/E Fir Ave
418,35.225281,-111.577780,E Railhead Ave
160,35.181731,-111.677450,W Heavenly Ct/S Majestic Rd
472,35.180432,-111.680354,S Hibiscus
334,35.211835,-111.614693,N 3rd St/
160,34.935576,-111.640783,Walapia Rd/Havasupai Rd/Walapai Rd
276,36.123153,-111.247220,Stanley Dr
2009,35.192523,-111.649792,E Dupont Ave
160,36.125575,-111.217219,Narbono St
160,36.583637,-111.084046,/Indian Rte 6331
943,35.176678,-111.661540,S Milton Rd
185,35.255950,-111.521676,E Ride A Mule Rd
658,35.187372,-111.646259,S Lone Tree Rd
160,35.241908,-112.193947,9th Pl
276,35.215489,-111.612076,/E Greenlaw Ln
216,35.225219,-111.573245,E Railhead Ave
216,34.830708,-111.777553,Meadow Lark Dr/State Hwy 179
305,36.123048,-111.247504,Stanley Dr/Maloney St
160,35.121770,-111.702835,Forest Highlands Dr/N Hwy 89A
216,36.816168,-111.637201,Lodge Loop Rd
526,35.184194,-111.672599,/W University Ave
160,35.261801,-111.522161,/Yancey Ln
160,35.095149,-110.935793,/I- 40
362,36.906951,-111.466020,Packer Ct
185,35.258983,-112.173628,Stockmens Rd/Wells Fargo Dr
246,35.213304,-111.601922,E Lewis Dr
246,35.990288,-112.123432,US Hwy 180/Fire Rd 800
1459,35.192252,-111.660982,/S Metz Walk
499,35.971340,-112.130072,/Rp Dr/Memory Ln
246,35.205174,-111.618393,E 1st Ave
160,35.273041,-111.718650,N Snow Bowl Ranch Rd
839,35.183629,-111.638069,Payton Way/E Scarlett Dr
5612,35.187146,-111.661552,/Milton Rd
160,34.309699,-110.926417,Rim Rd
216,35.260651,-112.151137,I- 40/US Hwy 66/State Hwy 64
185,35.199319,-111.636629,N Switzer Canyon Dr
185,36.904437,-111.470872,San Francisco Rd/Cache Rd
305,36.920848,-111.453096,Driftwood/Thunderbird Ave
160,35.192965,-111.602966,E Kokopelli Ln/N Sinagua Heights Dr
160,35.400320,-112.136819,N St Charles Ave/E Clear Point Way
160,36.240682,-111.025065,/Hwy 160
185,35.242541,-111.834630,Forrest Service Rd 171/Brannigan Park Rd
160,34.948732,-111.633113,Elk Pl
160,34.946408,-111.652731,Syler Cir
216,35.221673,-111.605555,/E Linda Vista Dr
185,35.293655,-111.542524,/US Hwy 89
160,35.194614,-111.737086,Observatory Access Rd/I- 40
276,35.199907,-111.631485,E Stone Ridge Dr
305,36.123007,-111.249951,/Preston Way
216,35.210175,-111.772185,I- 40
305,35.159164,-111.658459,E Sioux Dr
246,35.204203,-111.577716,N Oakmont Dr/N Country Club Dr/E Old Walnut Canyon Rd
160,35.239752,-111.661342,Shultz Pass Rd/Elden Lookout Rd
160,35.074174,-110.858000,I- 40/State Hwy 99
445,36.135069,-111.226653,Cactus Cir
390,34.872286,-111.756852,Art Barn Ln/Art Barn Rd
499,36.127373,-111.230097,Peshlakai Ave
160,35.234267,-111.819148,/I- 40
160,35.069027,-110.839282,/Frontage Rd
246,35.233907,-111.573692,E Halfmoon Dr/N Smokerise Dr
185,35.646546,-112.156247,Cessna Loop//Piper Ave/Enstrom Way
4010,35.179051,-111.661388,S Milton Rd/W Forest Meadows St
418,35.202151,-111.652020,/N Sitgreaves St
185,35.274296,-111.543487,US Hwy 89/Glenwood Trl
160,36.062731,-112.209476,/W Rim Dr
160,35.217932,-111.653321,Meade Ln
4816,35.192838,-111.653766,/Beckwith/W Ellery Ave
185,36.913736,-111.451172,/9th Ave
216,35.169011,-111.669113,S Litzler Dr
185,35.258739,-111.551894,US Hwy 89/E Bramley Ln
185,35.236675,-111.666887,N Fort Valley Rd
362,36.134241,-111.237571,Pine St
160,35.236456,-111.665716,W Valley Crest St/N Estates St/N Crest St
160,35.165773,-111.681878,Cox Ave
160,35.882552,-111.524407,/State Hwy 64
246,35.081713,-110.884623,I- 40
216,36.929638,-111.455981,Westview Dr/14th Ave
160,35.188712,-111.688449,I- 40 Bus
185,35.206408,-111.620037,N Center St/E 2nd Ave
160,34.826638,-111.777529,Talia Ct/Indian Cliffs Rd
160,35.213015,-111.652412,W Whipple Rd/N Navajo Dr
160,36.149600,-111.232400,Preston Dr
246,35.168367,-111.669629,/Faiths Way
185,35.254254,-111.943674,/I- 40
185,35.142220,-111.646321,Co Bar Trl
216,35.252756,-111.903376,I- 40
160,35.235763,-111.823516,/Hughes Ave
160,35.239559,-111.679768,N Fort Valley Rd
579,35.164509,-111.663741,Lake Mary Rd
216,35.223055,-111.795820,I- 40
160,35.076480,-110.866928,/I- 40
216,35.239317,-111.572403,N Conrad Ln/N Snowflake Dr
445,36.129900,-111.241394,Monave St
160,34.330702,-110.785327,Payson-Heber Hwy/Mule Springs Trl
276,35.207665,-111.614628,N 3rd St/E 3rd Ave
246,36.123301,-111.222511,Cinama Dr
1746,35.191043,-111.648403,/S Verde St
160,35.181701,-111.608761,S River Valley Rd
472,35.192170,-111.640396,E Butler Ave/E Sawmill Rd
246,35.209947,-111.604698,N Steves Blvd/E Industrial Dr
445,36.125078,-111.236117,/Main St
160,36.994153,-111.552259,Cathedral Canyon Pl
160,36.057568,-112.105193,S Entrance Rd
736,35.170324,-111.666582,Lake Mary Rd/Beulah Blvd
710,35.223348,-111.583815,/Cummings St
185,35.127495,-111.690837,Seneca St/Pine del Dr
160,36.941442,-111.493428,Wahweap Blvd/Lake Shore Dr
276,35.088308,-111.686433,I- 17
334,35.200465,-111.658409,S Sycamore St/W Santa Fe Ave
160,35.194701,-111.737267,/I- 40
246,35.190077,-111.680517,W Pennsylvania Ct/RR Spring Blvd
499,36.915859,-111.454091,/S Navajo Dr
2705,35.175264,-111.663459,/S Beulah Blvd
160,35.202187,-111.420945,/I- 40
246,35.166189,-111.664395,Lake Mary Rd/High Country Trl
160,36.890420,-111.443125,/E Frontage Rd
526,35.179972,-111.678561,S Adobe Ln
185,35.198412,-111.568510,N Walnut Hills Dr/E Abineau Canyon Dr
246,35.199533,-111.607192,N 4th St/
418,35.196127,-111.644749,I- 40 Bus/N Elden St
160,36.122461,-111.236503,Maloney St
1433,35.193151,-111.651710,/W Dupont Ave
185,34.643654,-111.122704,Horseshoe Dr
216,35.097779,-111.696914,/Kona Trl
185,35.218826,-111.588046,/E Industrial Dr
160,35.218383,-111.610300,E Lockett Rd/N Wayman St
185,35.405174,-111.575063,US Hwy 89
216,36.930563,-111.457656,Grandview St/17th Ave
185,35.199202,-111.638287,N Moriah Dr/N Otto Dr
160,35.188375,-111.683341,W Silverton Dr/W Cripple Creek Dr
160,35.221671,-111.613162,/E Linda Vista Dr
334,36.134727,-111.236025,/E Tamarack St
2462,35.179003,-111.663165,S Beulah Blvd/W Forest Meadows St
445,36.126553,-111.229705,/Peshlakai Ave
362,35.253295,-112.191161,/N 3rd St
246,34.871072,-111.631611,/I- 17
216,35.213715,-111.580880,E Soliere Ave
160,35.210197,-111.652472,Havasupai Rd/Navajo Dr
185,35.258687,-112.118825,/Circle Pines Rd
160,35.593412,-111.527231,US Hwy 89
160,35.223035,-111.593064,E Jacamar Dr/N Gannet Way/E Avocet Way
526,35.201021,-111.646808,/E Dale Ave
246,35.198680,-111.655524,/W Coconino Ave
185,35.261010,-112.072049,/I- 40
305,35.179842,-111.679867,W Legend Trl/S Gravel Ln
216,35.171854,-111.660233,/I- 40
160,35.298419,-111.000379,Leupp Schools Rd
160,36.895255,-111.442377,State Hwy 98
185,35.106122,-111.709542,Griffiths Spring
160,35.206409,-111.619509,/E 2nd Ave
216,34.956546,-111.676516,I- 17
160,35.259025,-112.176073,Stockmens Rd
216,35.183232,-111.683289,/W University Ave
185,35.201600,-111.637027,/N Turquoise Dr
160,34.908932,-111.446294,Daley Ln
160,36.945655,-112.526054,/E Pratt St
160,35.502646,-112.173804,/Big Elk/State Hwy 64
216,35.278068,-111.520610,Patriot Dr/Heritage Dr
160,35.091768,-111.699038,Pinon Ovi
160,34.909785,-111.464914,Mormon Lake Rd West Side/Clover Dr
160,36.324442,-111.483157,US Hwy 89
445,35.218032,-111.611087,/King St
246,35.238341,-111.569592,N Mountaineer Rd/S Trail End Dr
185,34.855988,-111.609139,I- 17
160,35.107352,-111.707979,William Palmer
185,35.255610,-111.541116,N Green Prairie Ln
185,35.232001,-111.573179,Jo-Don Rd/E Allen Ave
246,35.235173,-111.809383,Renee Dr/Deer Springs Dr
160,34.977543,-111.685860,/I- 17
216,35.213695,-111.657845,N Kittredge Rd
216,35.049850,-110.775833,I- 40
839,35.256973,-112.191654,/N Grand Canyon Blvd
160,35.273233,-111.513230,Dalton Rd
185,35.201936,-111.453276,I- 40
1149,35.188695,-111.666913,/I- 40 Bus
160,36.903789,-111.472964,Golden Eagle Ct
185,34.862324,-111.772123,Les Springs Dr
246,36.895720,-111.445369,/Copperhead Rd/Coppermine Rd
216,35.203533,-111.593435,N Earle Dr
1329,36.920637,-111.463410,Rim View Divide
160,36.870228,-111.440912,Copper Mine Rd
216,35.201170,-111.600816,N Thistle Rd/E Whispering Wind Way
216,35.202119,-111.459617,/I- 40
216,35.221672,-111.612748,E Linda Vista Dr/N Dyer St
160,35.258576,-111.548887,N Fleming Dr/E Bramley Ln
160,35.327785,-111.546472,/Brandis Way
362,35.249282,-112.190362,/S 4th St
185,35.202411,-111.634662,E Ponderosa Pkwy/N Pine Cliff Dr
160,35.209551,-111.522369,/I- 40
160,35.099612,-111.699756,N Chaco Trl/Chaco Trl
1563,35.182185,-111.667973,/S Woodlands Village Blvd
216,35.202823,-111.601925,/Firefly Way
185,35.202460,-111.572275,/N Walnut Hills Dr
160,35.221671,-111.598357,N Bern St/E Linda Vista Dr
185,35.103464,-111.705637,William Palmer/Link Smith
160,35.274260,-111.550026,/Ponderosa Dr
185,35.200808,-111.598946,E Mountain Jay Ln
334,35.179705,-111.679315,W Legend Trl/S Seclusion Ln
216,35.219452,-111.586787,E Huntington Dr/Industrial Dr/E Industrial Dr
160,35.180863,-111.711440,/S Flagstaff Ranch Rd
736,35.209114,-111.612538,E 4th Ave
1615,35.189716,-111.659854,/Riordan Ranch St/Riordan Rd
472,35.214993,-111.586546,/I- 40
160,36.051140,-112.118886,/Aspen and Sage Loop
1615,35.970382,-112.127828,Squire Ln/US Hwy 180
160,34.862840,-111.760966,Schnebly Hill Rd
276,36.126322,-111.237611,/Main St
246,35.264089,-112.177085,I- 40
216,36.129249,-111.217930,/Sand Dune Dr
216,35.217755,-111.648837,W Fir Ave/Mesa Dr
160,35.189090,-111.678803,Dunnam St
305,36.123437,-111.238709,Bancroft St
246,35.190019,-111.724773,/I- 40
216,35.197925,-111.577498,Scioto Rd
185,35.309988,-111.542669,/US Hwy 89
276,35.208148,-111.648555,W Apache Rd/N Fort Valley Rd
736,35.195447,-111.652424,W Benton Ave/S Humphreys St
472,35.211905,-111.576801,/E Cortland Blvd
160,36.954619,-112.524238,E 1st Ave
445,36.120506,-111.230629,/Main St
185,36.138157,-111.238505,Oak St
185,34.866762,-111.756353,Burrus Ln
552,35.222465,-111.586165,US Hwy 89
160,35.306161,-111.130032,/Leupp Rd
160,35.169192,-111.659643,Victoria Way
334,35.205278,-111.646793,W Sullivan Ave/N Beaver St
160,35.657350,-112.133816,Highgrove Rd
185,35.255066,-112.198743,W Morse Ave
246,35.110692,-111.036387,/I- 40
526,36.909139,-111.482395,/Lake Powell Blvd
160,35.242124,-112.195005,10th St/W McPherson Ave
216,35.213753,-111.610697,N King St
160,35.204505,-111.644648,N San Francisco St
762,35.168510,-111.664993,Lake Mary Rd
160,36.054974,-112.136228,/Tonto St
185,35.169016,-111.673786,W University Heights Dr S/S Walkup Dr
185,36.069724,-112.147122,/W Rim Dr
216,35.217247,-111.632638,/N Gemini Dr
305,35.210719,-111.639841,E Forest Ave
216,35.101095,-111.692457,Mesa Trl/Tolani Trl
185,35.194819,-111.590695,/E Double Eagle Way/N Fairway Dr
160,35.278939,-111.495753,/Aldrich Rd/Adrich Rd
305,36.906773,-111.466731,Oula/Sunset St
1982,35.197047,-111.651775,W Phoenix Ave/Mikes Pike
185,35.197736,-111.586762,N Chipmunk Ct/N Continental Dr
160,35.264097,-112.053788,E Mountain Ranch Rd
216,35.195062,-111.683845,W Adirondack Ave
276,35.203883,-111.587533,E Linger Ln
160,35.090930,-111.698804,Pinon Ovi/Pinon Trl
160,35.239755,-111.665755,/N Shultz Pass Rd
246,36.911883,-111.451228,Antelope Ave/Hopi Ave
160,34.864938,-111.766742,Sedona Vista Dr
160,35.253164,-111.938658,Garland Pr
185,35.235804,-111.670306,N Scott Way
216,35.216490,-111.616451,/N Aris St
305,35.214750,-111.586425,/E Soliere Ave
1278,35.194759,-111.657318,/S Malpais Ln
185,35.213789,-111.631238,/E Forest Ave/N Gemini Dr/E Cedar Ave
160,35.000500,-111.737073,N Hwy 89A
185,35.644742,-112.155182,Maintenance Rd/Enstrom Way
185,35.263787,-112.177333,I- 40
160,34.321973,-110.825992,/B-Loop
160,35.223130,-111.568408,Test Dr/Market Place Dr
160,35.261148,-111.541258,N Green Prairie Ln/Green Prairie
160,35.197649,-111.586158,N Continental Dr
216,35.198516,-111.607639,N 4th St/N Warm Springs Trl
216,34.854264,-111.767811,Blackhawk Ln
246,35.216149,-111.587935,Huntington Dr
160,35.103507,-111.713464,/Doc Raymond
445,35.164367,-111.656700,S Gila Dr
160,35.211029,-111.653368,W Beal Rd
917,35.206416,-111.613409,N 4th St
160,34.838154,-111.775858,Acacia Dr
185,35.190804,-111.578477,Pocono Dr/N Wakonda St
160,35.237475,-111.809390,Greenfield Dr/Deer Springs Dr
216,35.205176,-111.618913,N East St/E 1st Ave
526,35.187869,-111.674847,Thompson St/I- 40 Bus
445,35.203856,-111.610432,E Huntington Dr/S 4th St/E Industrial Dr
362,35.180368,-111.678238,/S Mystery Ln/W Camelot Dr
362,36.130038,-111.226224,Coral Sand St
160,35.040413,-111.733755,N Hwy 89A
891,34.870603,-111.761560,Mesquite Ave/Price Rd
216,35.162857,-111.658244,S Yaqui St
160,35.020224,-111.428328,/FS Rd 82E
160,35.156680,-111.670267,W Hance Trl/S Bedrock Trl
246,36.902862,-111.478792,Haul Rd
160,34.933432,-111.643071,/Navajo Rd
276,35.211876,-111.610683,/N King St
160,35.198586,-111.567358,E Cameron Dr
472,35.213766,-111.600979,/N Loma Vista Dr
362,36.918704,-111.456725,Red Mesa Ave/Coconino St
276,35.159983,-111.672240,S Box Canyon Trl
160,35.170296,-111.327883,I- 40
276,36.902966,-111.479053,/Haul Rd
160,35.846098,-111.438527,Walked
185,34.858989,-111.766419,Juniper Dr
305,34.872618,-111.761099,Schnebly Rd/Jordan Rd
160,35.252716,-111.557381,US Hwy 89/
605,35.248180,-112.197097,W Bill Williams Ave
276,35.179290,-111.679386,S Sonoran Ln
1459,35.193685,-111.653417,/W Dupont Ave
216,36.714552,-112.216035,/Grand Canyon Hwy
160,35.247671,-111.538216,/Whitewood Dr
185,36.123454,-111.222961,/Cinama Dr
390,34.852097,-111.765153,State Hwy 179
160,35.210672,-111.621767,E 6th Ave
160,34.329596,-110.776890,/Pinto Rd
160,35.218981,-111.544138,Old Santa Fe/Rain Valley Rd
160,35.264262,-111.531237,/Mary's Dr
160,35.201076,-111.589096,E Oriole Ln/N Timberline Rd
160,34.843831,-111.771777,State Hwy 179
160,35.096579,-110.945450,I- 40
185,35.265114,-112.055741,I- 40
552,35.212683,-111.575923,E Cortland Blvd
710,35.182399,-111.671682,/W Forest Meadows St
216,35.254938,-111.543267,E Burris Ln
160,35.216835,-111.605964,N Schevene Blvd/Elder Dr
216,35.173653,-111.702883,Corral Gate
160,36.816258,-111.629488,/US Hwy 89 Alt
160,34.914586,-111.470397,/Mormon Lake Rd West Side
160,35.299049,-111.021193,Leupp Rd
160,36.111655,-111.219766,State Hwy 264
246,36.056600,-112.114501,Yavapai Rooms W/Village Loop Rd
185,35.223760,-111.613677,N 4th St
160,36.062560,-112.118323,/S Entrance Rd
445,35.185927,-111.668478,/S Woodlands Village Blvd/S Plaza Way
246,34.875414,-111.760159,Hillside Ave/Sunset Ln
1772,35.180900,-111.662902,S Beulah Blvd/
160,35.262506,-112.186302,I- 40/Airport Rd
185,35.261888,-112.176134,/Quarterhorse Rd/Sheepmens Dr
1433,35.194234,-111.657298,/S Malpais Ln
276,36.905043,-111.458981,Newburn Rd
160,35.256148,-111.731693,N Hawk Hill Rd
658,35.188547,-111.646446,S Ernest St
246,35.167242,-111.665219,Big Sky Trl
4991,35.187378,-111.657068,S Knoles Dr/Riordan Rd
160,35.263013,-112.173640,Wells Fargo Dr
216,36.122365,-111.246547,/Maloney St
917,36.917166,-111.457869,Lake Powell Blvd/Elm St
216,35.328166,-112.155832,State Hwy 64
943,35.248926,-112.192881,S 6th St
216,35.184950,-111.579928,E Hulet Ln
160,36.061857,-112.210651,/W Rim Dr
160,34.946798,-111.653514,Jan Ct
305,35.180272,-111.679791,S Stormy Ln
160,35.008658,-111.737241,Bear Howard Dr/N Hwy 89A
160,35.347415,-112.124503,Pine St
160,35.238114,-111.827297,/I- 40
160,35.251294,-112.221687,/Stoneman Blvd/Lazy E Rd
185,35.279401,-111.518248,N Legacy Ln
334,36.911534,-111.462944,Birch St/S Navajo Dr
160,35.221670,-111.604686,/E Linda Vista Dr
185,35.156976,-111.642687,S Clubhouse Cir
246,35.157824,-111.663683,S Pheasant Run/E Clover Creek Dr/S Pheasant Run Dr
334,35.167293,-111.664828,Big Sky Trl
762,35.191870,-111.620006,/E Butler Ave
160,36.333048,-110.923025,Indian Rte 6011/Navajo Trl
499,35.254604,-112.190468,/N Grand Canyon Blvd
160,36.995424,-111.492246,Wahweap Blvd
216,35.204697,-111.589058,N Rio de Flag Dr/N Broken Circle Rd
216,35.194698,-111.607534,N 4th St
246,35.190310,-111.637482,/S River Run Rd
10450,35.189889,-111.652282,/Skydome Dr
185,35.154173,-111.666932,S Bright Angel Trl/S Elves Chasm Trl
185,35.256701,-111.554766,Elden Hills Dr/Caballo Way
216,35.279912,-111.558250,/Shadow Trl/Saddle Horse Rd
160,36.051189,-112.139656,Albright Ave/Coconino St
185,34.868825,-111.764306,Forest Rd
185,35.112035,-111.700327,Doc Fronske
160,35.264718,-112.055178,/I- 40
160,35.227352,-112.235678,/I- 40
579,35.181612,-111.648260,Pso del Flag/S Lone Tree Rd
160,35.317645,-112.357874,FS Rd 6
246,35.169303,-111.665608,Lake Mary Rd
160,36.123841,-111.242085,Jensen St/Kerley Rd
160,35.085794,-111.664528,N Comanche St/E Kiowa St
276,36.911400,-111.449959,Veronica Ct
390,35.166100,-111.664861,High Country Trl
160,35.721098,-112.131171,US Hwy 180
185,35.185638,-111.592542,Inland Shores Dr
362,35.194651,-111.640056,I- 40 Bus
185,35.866900,-111.417121,Lds Church Rd
445,36.056374,-112.144392,Village Loop Dr
160,35.192877,-111.601768,E Kokopelli Ln
552,35.968126,-112.128910,US Hwy 180/Long Jim Loop
305,36.915086,-111.460941,/5th Ave
216,35.208881,-111.617064,E 4th Ave/N 1st St
305,36.141925,-111.227737,Eagle Point Ln/Blue Ridge Loop
216,35.257484,-112.184885,Boyd St/
160,35.086761,-111.702926,Elk Ovi
160,34.913231,-111.727241,Oak Trl
160,36.921869,-111.474849,Scenic View Rd
216,35.202653,-111.601722,N Deer Crossing Rd/Firefly Way
472,35.212186,-111.606217,N Steves Blvd
160,36.392969,-111.525100,US Hwy 89/
185,35.160190,-111.666670,/S Wild West Trl/E Conquistador Trl
216,35.186103,-111.666767,/S Plaza Way
362,35.242094,-111.568247,US Hwy 89
216,36.135877,-111.229409,Castlebutte Dr/Peshlakai Ave
2194,35.197188,-111.650572,/Beaver St
362,36.125402,-111.223145,/Warrior Dr
160,35.185887,-111.367431,I- 40
445,35.197803,-111.643296,Sherwood Ln/E Birch Ave
246,36.123083,-111.250197,Preston Way
334,36.056039,-112.144368,Village Loop Dr
160,34.944888,-111.634743,Oak Dr/Beaver Pl
276,35.162904,-111.673883,I- 17
445,36.042571,-111.825901,/Desert Vw
185,35.296158,-111.542607,US Hwy 89/
839,35.216291,-111.595718,N Fanning Dr
160,35.094378,-110.930685,/I- 40
11970,35.178763,-111.658133,E McConnell Dr
216,36.052775,-112.138950,Boulder St
276,36.902047,-111.457345,Haul Rd
185,36.817992,-111.634040,/US Hwy 89 Alt
160,36.109957,-111.236776,/Navajo Trl
160,36.955560,-112.524260,E 1st Ave/Piute Dr
445,34.862398,-111.761668,State Hwy 179
276,35.198219,-111.657653,W Coconino Ave/W Lower Coconino St/S Sycamore St
160,36.146924,-111.228557,Bia Rd
160,35.309677,-111.553696,N Rope Arabian Rd
160,34.854475,-111.771571,Palisades Dr N/Laurel Cir
185,36.052393,-112.132111,Hermit Cir/Sunset Dr
160,35.239425,-111.644817,/Quintana Dr
185,35.190817,-111.674917,Thompson St/W Tanner Way
891,35.186846,-111.644259,Cll Contenta/E Pso del Rio
418,35.160442,-111.660169,S Yaqui Dr/S Yaqui St
160,34.852996,-111.607217,/I- 17
160,34.949554,-111.634039,Cedar Wood Dr/Forest Rd/Iron Springs Rd
216,35.220393,-111.652414,W Thelma Way
160,37.001076,-111.556809,/N Anasazi Dr
160,35.719917,-112.131182,Dirty First St/US Hwy 180
276,35.234973,-111.664995,N Fort Valley Rd
160,35.245321,-112.191000,S 6th St/W Hancock Ave
185,35.140598,-111.691838,/Fairgrounds Rd
891,35.191336,-111.647069,S O'Leary St
762,35.215246,-111.596423,I- 40 Bus
185,34.847943,-111.765169,Morgan Rd
246,35.253397,-112.192464,N 4th St/W Fulton Ave
160,36.122374,-111.237006,Maloney St/Maloney Cir
160,35.204360,-111.593435,/N Earle Dr
160,35.202500,-111.653137,/N Park St
216,36.127102,-111.238508,/Main St
216,35.233472,-111.668036,W Wilson Dr
362,36.125838,-111.237034,/Main St
160,34.953847,-111.753949,N Hwy 89A
160,35.133470,-111.608548,S Cole Ln
160,35.188992,-111.376191,I- 40
684,36.917680,-111.456964,7th Ave/S 7th Ave/Elm St
246,36.916209,-111.452256,el Camino Ct
710,36.060009,-112.107194,/S Entrance Rd
160,35.447600,-112.171396,State Hwy 64
839,35.186501,-111.646921,/S Lone Tree Rd
185,35.254942,-111.546670,/E Burris Ln
160,35.163033,-111.668387,W Cattle Drive Trl/S Wild West Trl
499,35.199787,-111.659745,S Spring St/W Summit Ave
160,36.918280,-111.454004,Spruce/Tower Butte Ave
160,35.209182,-111.412944,Cinder Rd/N Jobe Rd
305,35.160513,-111.671455,S Big Sky Trl
6702,35.188249,-111.654386,Blome Dr N/University Dr
185,35.169284,-111.678453,W University Heights Dr S/S Gillenwater Dr
445,36.134923,-111.236498,E Cedar Ave
472,35.181190,-111.648254,S Lone Tree Rd
362,35.167129,-111.664591,Anita Ave/Lake Mary Rd
334,35.203938,-111.620545,/E Maple Ave
579,35.252862,-112.190949,N 3rd St/W Franklin Ave
160,35.198162,-111.597712,N Prairie Way/E Coburn Dr
334,35.218377,-111.577175,/Motel Dr
160,34.330630,-110.784193,/Payson-Heber Hwy
160,35.242292,-111.533580,Hidden Hills Rd/E Rolling Hills Ln
185,35.201030,-111.603258,Hornet Way
418,35.200868,-111.646339,N San Francisco St/E Dale Ave
526,35.183771,-111.644683,Pso del Flag/E Woodland Dr
1903,35.188428,-111.651719,/Mountain View Rd
185,34.628571,-111.106616,Green Ridge Dr
1329,35.194347,-111.656410,/I- 40 Bus
390,36.128577,-111.226525,Warrior Dr
813,35.193938,-111.632655,/I- 40 Bus
246,36.236669,-112.689151,Havasupai Village Main Trl
160,35.159200,-111.672370,W Weston Trl/S America West Trl
160,35.230880,-111.672575,W Tina Ln
160,35.197112,-111.566931,E Vail Dr
160,35.656780,-111.514205,US Hwy 89
185,35.088551,-110.902814,Frontage Rd
276,35.140426,-111.215195,I- 40
334,36.131173,-111.223678,Desert Dr
276,36.124660,-111.217480,Delgado St/Manuelito Dr
2114,35.192830,-111.650679,E Dupont Ave
185,35.174386,-111.648228,S Lone Tree Rd
160,35.203164,-111.594172,N Earle Dr
160,34.871546,-111.762944,Apple Ave/Smith Rd
160,36.054867,-112.135008,Navajo St
185,35.465884,-111.558978,US Hwy 89
499,35.218012,-111.620669,/E Cedar Ave
246,35.209391,-111.585378,E Inwood Way
334,35.220609,-111.586525,/Country Club Dr
160,34.832007,-111.772796,/Quail Run
305,35.219929,-111.585696,Industrial Dr/Country Club Dr/E Industrial Dr
160,35.887654,-111.408261,US Hwy 89
305,36.130880,-111.224146,/Desert Dr
160,35.128747,-111.183402,I- 40
246,35.201479,-111.644781,N Agassiz St/E Elm Ave
160,35.243564,-112.188760,S 5th St
160,34.329737,-110.802921,Spring Loop/Payson-Heber Hwy
552,35.198631,-111.653202,/I- 40 Bus
160,36.130641,-111.238544,/Oak St
1641,34.862443,-111.764184,Portal Ln
185,35.174288,-111.680265,W Sunshine Dr/S Justin St
160,36.152283,-111.234569,/Indian Rte 6220
305,35.204180,-111.646667,/W Hunt Ave
246,36.138162,-111.237110,E Fir Ave
246,35.745294,-111.473744,/US Hwy 89
160,35.160941,-111.675659,I- 17
579,35.232971,-111.575047,N Smokerise Dr/North Dakota St
276,35.189780,-111.671696,Westglenn Ct/Longview Rd
160,35.007620,-111.737706,N Harding Dr/S Harding Dr/Bear Howard Dr
185,35.269572,-111.521122,Silver Saddle Rd
216,35.244759,-112.195910,10th St/W Sheridan Ave
160,35.258622,-111.551626,N Browning Dr/E Bramley Ln
390,35.193088,-111.643281,S Colorado St/S Gabel St
160,35.021111,-111.398703,/FS Rd 82E
276,35.184499,-111.688179,W Pollo Cir/S Pais del Norte/W Patio del Presidio
160,34.943914,-111.648256,W Oak Dr/Oak Dr/Valley Pl
160,35.262145,-112.186306,I- 40/Airport Rd
185,35.209676,-111.605204,/E Industrial Dr
445,35.163933,-111.648820,Salvestrin Ln
276,35.214028,-111.604004,E Pine Dr/N Alta Vista Dr
276,35.218555,-111.592335,/N Kasper Ave
334,35.180102,-111.679182,S Seclusion Ln
160,34.804055,-111.767545,State Hwy 179
334,34.851710,-111.765404,State Hwy 179
362,35.210697,-111.619090,E 6th Ave//N East St
160,35.109350,-111.024799,/I- 40
246,35.255786,-112.188494,N Newton St/E Edison Ave
3115,35.176655,-111.662985,S Beulah Blvd
160,34.911727,-111.728100,Thompson Way
185,35.206436,-111.643771,N San Francisco St/E Desilva Ave
160,35.155598,-111.668014,W Badger Creek Trl/S Dory Trl
4295,35.191515,-111.656673,/S Knoles Dr
160,35.220020,-111.462954,E Palomino Rd/
305,36.138855,-111.241436,/Maple St
246,35.211643,-111.610681,N King St/E 7th Ave
185,34.624771,-111.099116,Lumber Mill/Clear Creek Dr
185,35.238824,-111.575862,E Hollygreen Dr/E Glacier Dr
185,35.214427,-111.619645,/E Felice Ave
216,35.258110,-112.181211,/E Rodeo Rd
185,35.183494,-111.686996,W Pollo Cir/W Mission Timber Cir
216,35.253969,-112.187586,N Newton St/E Franklin Ave
445,36.134838,-111.227265,Cactus Loop
160,35.238167,-111.568694,N Dodge Ave/S Trail End Dr
305,36.920161,-111.460075,/N 7th Ave
160,35.195133,-111.593116,E Winged Foot Ln
216,35.200259,-111.657741,/W Summit Ave/W Santa Fe Ave
216,35.183557,-111.639842,/E Woodland Dr
160,35.657353,-112.134101,Highgrove Rd/Laramie Dr
185,35.221411,-111.583165,Old Santa Fe
160,36.143340,-111.224860,Arroyo Dr
160,35.335673,-111.550238,Western Star Rd/E Western Star Rd
390,36.121322,-111.224364,Navajo Trl
418,35.191172,-111.663660,I- 40 Bus
305,35.215478,-111.612926,/E Greenlaw Ln
276,36.893846,-111.468874,Robert Ln
1020,35.197412,-111.653517,W Phoenix Ave
5256,35.187177,-111.655825,/Blome Dr S
160,35.127678,-111.689192,Spine Ridge Dr
160,35.093666,-111.693142,Wakas Trl
246,35.311324,-111.542280,Firehouse Ln
160,35.117533,-111.099813,I- 40
2221,35.177869,-111.661453,S Milton Rd
185,34.826655,-111.779456,Back O Beyond Rd
658,35.208713,-111.610554,N Postal Blvd
216,35.204171,-111.593600,N Whispering Pines Way/Goodwin Cir/N Earle Dr
185,35.104827,-111.681392,I- 17
160,35.402790,-111.575679,US Hwy 89
160,35.269570,-111.520054,Skeet Dr/Silver Saddle Rd
160,35.216890,-111.609915,Elder Dr/N Conner St
334,35.194016,-111.626321,/E Huntington Dr
1537,36.053802,-112.143328,Village Loop Dr
334,35.207352,-111.592167,/N Sandstone Way
1304,35.176712,-111.659300,Pine Knoll Dr
246,35.258123,-112.181823,E Rodeo Rd
185,35.455097,-111.562131,US Hwy 89/150 Rd
216,35.021487,-111.685342,/I- 17
246,35.216820,-111.605091,N Tindle Blvd/Elder Dr
160,35.152868,-111.678111,S Cuprite Trl/W Nugget Trl
185,34.857690,-111.610560,/I- 17
334,35.215730,-111.581547,/N Country Club Dr/Country Club Dr
185,35.540402,-111.539204,US Hwy 89/
160,35.258204,-112.106666,I- 40
1329,35.251234,-112.188734,N Grand Canyon Blvd
418,34.860838,-111.761922,State Hwy 179/Highland Rd
2813,35.180167,-111.663008,/S Beulah Blvd
160,35.181635,-111.675468,W Day Dream Dr
160,35.085458,-111.687319,I- 17
160,36.588461,-111.154247,/State Hwy 98
246,35.162584,-111.668368,S Wild West Trl
160,36.054781,-112.113869,Trailer Village Rd/L St
160,35.230941,-111.657678,/Creekside Dr
334,35.200660,-111.659025,N Thorpe Rd/W Santa Fe Ave
1097,35.224107,-111.583634,US Hwy 89
185,35.233399,-111.668804,W Wilson Dr/N Fremont Blvd
917,35.194103,-111.619570,Lucky Ln
160,35.875283,-111.412010,US Hwy 89
305,35.216819,-111.604626,Elder Dr
185,35.306711,-111.548174,Valley View Dr/Timberline Trl
185,36.191052,-111.393333,US Hwy 89
185,35.263021,-112.177091,/Homestead Rd
216,36.139277,-111.226781,Blue Canyon Dr/Sweet Water Dr
276,35.199764,-111.636951,/N Switzer Canyon Dr
246,36.129606,-111.218138,/Sand Dune Dr/East Dr
160,34.330909,-110.789656,/Payson-Heber Hwy
276,36.897899,-111.408580,/State Hwy 98
160,36.053267,-112.112783,Trailer Village Rd/G St
160,35.264639,-111.519094,/Rogers Roost
216,35.256443,-112.183360,/Cedar St
216,35.183880,-111.686629,W Pollo Cir
1071,35.180334,-111.655245,E McConnell Dr
7321,35.188708,-111.654044,/Beaver St
185,35.232211,-111.668064,W Darleen Dr/W Lynette Dr
1719,35.192087,-111.661123,/S Metz Walk
160,36.927660,-111.458061,Knoll Ave/12th Ave
445,35.210750,-111.644607,N Beaver St/W Forest Ave
185,35.179108,-111.717157,Braided Rein/Pack Saddle/W Kiltie Ln
216,35.257033,-111.552219,N Browning Dr
160,35.154693,-111.660515,Kristi Ln
246,35.206284,-111.589829,E Meadow View Ln
185,34.866596,-111.756572,Burrus Ln
4381,35.190406,-111.651282,/Skydome Dr
216,35.203283,-111.609790,S 4th St
160,35.090384,-111.589721,Lake View Dr
499,35.173106,-111.667902,W University Heights Dr N
276,35.202078,-111.606593,/E Soliere Ave
185,35.233011,-111.667602,N Gregg Dr
305,36.123571,-111.234302,/Main St/Maloney St
160,36.126733,-111.241782,Hadley Dr
160,35.233741,-111.817972,/I- 40
160,35.261818,-112.173654,Sheepmens Rd/Sheepmens Dr/Wells Fargo Dr
1537,35.185227,-111.663042,S Yale St
160,35.196976,-111.572481,N Bristlecone Dr
160,35.202472,-111.574225,/E Bear Paw Dr
185,35.878682,-111.410983,US Hwy 89
185,36.950831,-112.522974,/Hortt St/Sage Rd
160,36.920824,-111.453961,Spruce/Thunderbird Ave
362,35.202701,-111.648723,W Elm Ave
305,35.198768,-111.590934,N Rio de Flag Dr/N Continental Dr
185,35.222267,-111.580192,/Spur St
185,35.165715,-111.671901,Mt Dell Rd/Beulah Blvd
552,35.192498,-111.647096,E Butler Ave/S O'Leary St
160,36.784634,-111.687472,Badger Creek Rd/Honey Moon Trl
216,35.215185,-111.591317,/Huntington Dr
160,34.641125,-111.124141,Chippewa Cir
160,35.070264,-110.844535,/I- 40
160,36.114866,-111.232546,/Navajo Trl
160,35.154808,-111.657995,/Lake Mary Rd
185,36.939783,-112.521819,US Hwy 89 Alt
160,35.223449,-111.600930,E Matterhorn Dr/N Hemberg Dr
185,35.209097,-111.772215,I- 40
552,35.172442,-111.655019,Huffer Ln
160,36.137715,-111.229265,/Peshlakai Ave
160,35.231061,-111.670315,W Darleen Dr
276,35.218358,-111.618064,N Monte Vista Dr
1174,34.871989,-111.758569,/State Hwy 89 Alt Scn
185,36.906237,-111.466722,Manson/Sunset St
216,34.945927,-111.636032,Hillside Dr/Oak Dr
658,36.918046,-111.460834,N Navajo Dr
334,35.175838,-111.671053,I- 40
305,35.211968,-111.650629,W Deanna Way
160,34.866044,-111.774044,Rolling Hills Pl/Rolling Hills Rd
185,35.247868,-111.975488,/I- 40
334,35.203160,-111.588102,E Wind Song Ln
185,35.202539,-111.455342,/I- 40
160,35.156207,-111.671005,W Hance Trl/S Elves Chasm Trl
185,34.914526,-111.727626,Julie Ln/Oak Trl
246,35.232119,-111.576708,US Hwy 89
216,35.235207,-111.670473,N Scott Way/W Brenda Loop
185,35.185462,-111.634075,I- 40
160,36.653691,-110.759033,/Old Airport Rd
160,34.942495,-111.643326,Apache Rd
185,35.234085,-111.672054,W Wilson Dr/W Shannon Dr
160,35.221960,-111.614701,N Andes Dr/E Linda Vista Dr
160,35.269556,-111.525662,/Silver Saddle Rd
160,35.219161,-111.571157,Motel Dr
216,36.136708,-111.237923,Elm Ave
246,35.191126,-111.668496,Green Briar Ln/Longview Rd
1433,35.970908,-112.127576,/US Hwy 180
185,35.204764,-111.596580,N Whispering Pines Way/N Elk Run St
2247,35.194068,-111.623005,E Huntington Dr
160,35.067547,-110.835226,I- 40
160,35.221672,-111.598484,/E Linda Vista Dr
160,35.234604,-111.832009,Co Rd 526
276,36.127164,-111.220287,Knight Dr
160,34.935773,-111.626451,Raintree Pl/Rain Tree Rd
216,35.263783,-112.177619,I- 40
185,35.200493,-111.661201,W Montvale Ave/Wilson St/
160,35.208887,-111.617872,E 4th Ave/N Main St
160,35.052090,-111.683335,/Kelly Canyon Rd
185,34.846304,-111.775199,Ranch House Cir/Doodlebug Rd
160,35.282833,-111.514340,/E Moonbeam Dr
552,35.197442,-111.645424,N Verde St/E Aspen Ave
839,35.200413,-111.651531,N Kendrick St/W Birch Ave
526,36.903089,-111.485304,US Hwy 89
160,35.140742,-111.647385,/Lake Mary Rd
160,35.085554,-111.651794,N Huron St/E Kiowa St/E Comanche St
216,35.160696,-111.657176,S Yaqui St
246,35.159183,-111.674451,W Weston Trl/S Hideout Trail Trl
1252,35.213829,-111.599067,/I- 40 Bus
160,35.108992,-111.703464,Forest Highlands Dr/Andrew Douglass
185,35.218281,-111.567865,I- 40
160,36.111160,-111.234718,Navajo Trl
185,35.225350,-111.657751,N Fort Valley Rd
3503,35.972114,-112.127000,US Hwy 180
216,35.261301,-112.072114,/I- 40
185,35.177105,-111.671523,S Highland Mesa Rd
4324,35.197497,-111.649113,I- 40 Bus/N Leroux St
160,34.912263,-111.640393,FS Rd 226
160,35.222045,-111.616328,NW Rainier Loop/E Linda Vista Dr
160,35.297261,-110.999405,Leupp Schools Rd
390,36.053591,-112.142417,/Apache W
160,35.592288,-112.149328,/State Hwy 64
813,35.170382,-111.666663,Lake Mary Rd
160,34.826030,-111.773458,Sage Dr
160,35.286065,-111.537661,Cinder Lake Landfill Rd
160,35.261134,-112.072497,I- 40
160,35.153938,-111.657257,Lake Mary Rd/Yx Ranch Rd
160,35.187969,-111.684893,I- 40 Bus
246,35.171635,-111.662483,I- 40/I- 17
276,35.201409,-111.577736,E Bear Paw Dr/N Country Club Dr
418,36.915229,-111.461087,Elm St/5th Ave
445,36.121561,-111.222365,Cinama Dr/Navajo Trl
246,35.231172,-111.577348,US Hwy 89/
994,35.191184,-111.647932,S Fountaine St
160,35.216896,-111.609363,Kyle Loop/Elder Dr
160,35.231719,-111.808630,/Alpine Dr/Shadow Mountain Dr/Brannigan Park Rd
160,35.271318,-111.497778,/Jupiter Ln
185,35.173800,-111.682992,/W University Heights Dr S
3170,35.196247,-111.648473,E Phoenix Ave/S San Francisco St
305,35.224330,-111.656862,/N Fort Valley Rd
160,35.202684,-111.603368,N Deer Crossing Rd/Raccoon Way
1877,35.196566,-111.649585,/E Phoenix Ave/W Phoenix Ave/S Leroux St
160,35.230909,-111.810715,I- 40
216,36.950346,-111.497701,US Hwy 89
160,35.277941,-111.952382,/King John Rd/E King John Rd
160,36.992714,-111.488525,/Scorpion Pl
160,34.893356,-111.733155,N Hwy 89A
216,35.256438,-112.184998,/N Boyd St
160,35.139576,-111.683178,Airport Rd
216,35.263083,-112.176898,/Quarterhorse Rd
762,36.056978,-112.144265,Village Loop Dr//W Rim Dr
499,35.163216,-111.655385,/S Kofa Dr
160,35.218182,-111.657853,N Kittredge Rd
1433,35.184324,-111.662479,W University Ave
216,35.199555,-111.603350,N Falcon Rd/Sparrow Ave
160,35.168666,-111.682871,S Cheryl Dr
472,35.196122,-111.640502,N George St/E Hilltop Ave
160,35.232219,-111.668929,N Fremont Blvd/W Lynette Dr
160,35.212619,-111.618117,Colanthe Ave/N Main St
246,36.130142,-111.238564,Oak St/Edgewater Dr
160,35.202743,-111.597470,N Twisted Limb Way
276,35.210747,-111.643592,/N Lomalai Ln/W Forest Ave
3170,35.174075,-111.664021,S Beulah Blvd/S Woodlands Village Blvd
216,35.189308,-111.635912,S River Run Rd
160,35.987548,-112.126232,Fs 328/FS Rd 328/Fire Rd 800
362,36.123024,-111.248162,/Stanley Dr/Preston Way
246,34.874220,-111.761099,Jordan Rd/Capital Butte Rd
1824,35.191368,-111.649490,S Agassiz St
216,35.218495,-111.470969,Roan Rd/N Cosnino Rd
276,35.161475,-111.664832,E Mohawk Dr/Joseph St
216,35.201275,-111.644206,N Hillside St/E Elm Ave
185,35.221672,-111.608635,N Patterson Blvd/E Linda Vista Dr
160,34.936143,-111.640589,Walapai Rd
579,35.194142,-111.631883,I- 40 Bus
3142,35.192038,-111.659422,/Milton Rd
1123,34.871663,-111.760130,Cedar St/Apple Ave
499,35.198346,-111.653731,I- 40 Bus/S Milton Rd
160,35.196299,-111.573648,E Olson Dr/N Ricke Ln
216,34.854776,-111.761586,Meteor Dr/Pinewood Dr/Canyon Dr
160,35.190152,-111.723272,I- 40
246,35.258999,-112.192669,I- 40/N Grand Canyon Blvd
216,36.907554,-111.450140,Osprey Dr
418,36.042971,-111.826142,/Desert Vw
160,35.120329,-111.151002,I- 40
334,35.220622,-111.585807,Old Santa Fe
160,35.238444,-111.672979,W Mountain Dr
246,35.218550,-111.561766,I- 40
160,34.832802,-111.769850,Chapel Rd/Cathedral Ln
185,35.264079,-112.177579,I- 40
334,34.856969,-111.764642,Copper Cliffs Dr
160,35.208622,-111.413000,N Jobe Rd
246,35.214493,-111.650711,W Anderson Rd/Frontage Rd
160,35.716304,-111.488015,US Hwy 89/
185,35.222428,-111.609533,N Walker St
160,35.982012,-111.394274,US Hwy 89
390,36.129412,-111.248898,Monave St
305,35.213375,-111.594695,/Huntington Dr
185,35.312277,-111.542635,/US Hwy 89
334,35.184398,-111.687815,W Pollo Cir
762,35.170085,-111.666878,Beulah Blvd
160,35.181985,-111.693966,I- 40/S Woody Mountain Rd
185,35.201149,-111.590295,Red Fox Ln
499,35.212881,-111.575896,/E Cortland Blvd
246,35.084968,-111.665260,N Pawnee
185,36.125697,-111.240115,Navajo Blvd
305,36.923458,-111.456331,Cathedral Ave/N 10th Ave
185,35.168718,-111.671519,S Litzler Dr/W Parker Dr
445,36.125553,-111.229226,/Peshlakai Ave
160,34.938826,-111.650260,I- 17
160,34.852852,-111.607632,FS Rd 80
216,36.911944,-111.450908,Hopi Ave/Village Dr
160,35.297685,-110.999768,Leupp Schools Rd/
160,36.126399,-111.241969,/Hadley Dr
160,36.921697,-111.450493,Colorado St/Aero Ave
160,36.127450,-111.196308,Hwy 160
185,35.229081,-111.806852,I- 40
1278,35.192712,-111.661167,/I- 40 Bus
276,36.903514,-111.462510,Via Valdez
160,35.070305,-111.682342,I- 17
334,35.228701,-111.576431,/M H P
216,35.212932,-111.605029,N Tindle Blvd/E Lewis Dr
185,34.945546,-111.625919,Lobo Ln/Stallion Dr
710,35.252325,-112.182858,S Pine St/N Pine St/E Bill Williams Ave
185,35.256855,-112.185229,N Boyd St/E Edison Ave
185,35.265035,-111.547593,US Hwy 89/E Cullum Ln
160,34.849364,-111.766662,Bowstring Dr
160,34.843753,-111.776518,Chavez Crossing Rd
631,36.915598,-111.454495,8th Ave/S Navajo Dr
246,35.251505,-111.972175,Pine St
160,34.301396,-110.901946,Payson-Heber Hwy
160,35.008073,-111.737519,Bear Howard Dr
246,35.157646,-111.662390,E Clover Creek Dr
305,36.136677,-111.235957,Elm Ave/E Elm Cir
160,36.144046,-111.227681,Bl Ridge Cr 5/Blue Ridge Loop
160,36.583280,-111.084132,Indian Rte 6331
305,36.132262,-111.246477,Willow Dr/Cherry Ln
160,36.902197,-111.467901,Appaloosa Rd/Haul Rd
185,34.866673,-111.766970,State Hwy 89 Alt Scn
216,35.215376,-111.590929,Huntington Dr
418,34.941464,-111.653906,/Pinewood Rd
334,35.269818,-111.545385,US Hwy 89//Silver Saddle Rd
160,35.298174,-111.000177,Leupp Schools Rd
160,35.164910,-111.643231,/Singletree Ct
1798,35.181895,-111.668697,/S Linmar Ct
160,36.638558,-111.652289,US Hwy 89 Alt
246,34.876773,-111.753414,Lomacasi Ln/N Hwy 89A
305,36.895235,-111.445134,Copperhead Rd
160,34.330305,-110.798941,Payson-Heber Hwy/Pond Cir
418,35.164338,-111.661283,Cocopah Dr/E Zuni Dr
160,35.106751,-111.701802,Griffiths Spring
160,35.433316,-111.763038,/W Fort Valley Ranch Rd
276,35.191867,-111.665624,/W Kaibab Ln
160,35.117704,-111.095918,Old Sixtysix
160,35.248826,-112.190137,S 4th St/W Grant Ave
160,36.307707,-111.464689,US Hwy 89/
813,35.191521,-111.646447,/Ashurst Ave
160,35.140977,-111.646245,Timber Trl/Chisholm Trl
160,35.265499,-111.524662,Willopete Dr/Koch Field Rd
160,35.155537,-111.672572,W High Country Trl/S Serpentine Rd
362,35.201822,-111.638239,/N Canyon Terrace Dr
305,36.123208,-111.234855,Maloney St
334,36.926776,-111.456210,Grandview St/Valley Ct
185,35.219742,-111.561862,Old Santa Fe
362,35.252133,-112.193116,N 5th St/W Franklin Ave
185,35.103623,-111.697209,Edward Ayer
185,36.921507,-111.465416,Eagle Dr
334,35.168872,-111.665312,Lake Mary Rd/I- 17
305,35.205103,-111.597699,Ramblewood Dr/E Bottlebrush Dr
1615,35.197791,-111.646518,N Agassiz St/E Aspen Ave
472,35.255032,-112.190686,N Grand Canyon Blvd/W Edison Ave
216,35.160697,-111.304424,I- 40
185,35.225145,-111.570104,Test Dr
185,35.217842,-111.641384,W Fir Ave/N Meadowlark Dr
362,35.211774,-111.577799,/N Country Club Dr/E Cortland Blvd
160,35.229480,-111.805801,Shadow Mountain Dr/Shadow Montain Dr
160,35.252072,-111.414611,FS Rd 244
472,35.200752,-111.647654,/N Leroux St
160,35.231391,-111.465404,/Townsend-Winona Rd
305,36.052751,-112.142189,Boulder W
788,36.915137,-111.455216,7th Ave/S Navajo Dr
160,34.478985,-110.847504,FS Rd 180
305,35.215057,-111.595072,/S Fanning Dr/E Industrial Dr
185,35.214437,-111.618636,/E Felice Ave
185,35.182803,-111.641756,Dogwood Ln/S Maricopa St
216,35.174748,-111.671663,W University Heights Dr N/S Walkup Dr
246,35.218429,-111.603388,E Lockett Rd/N Pine Dr
246,35.302135,-111.543745,E Campbell Ave
160,36.241497,-111.024819,Hwy 160
160,35.198952,-111.576522,N Running Deer St/E Bear Paw Dr
160,35.242253,-112.194455,S 9th St/9th Pl
276,36.143501,-111.229394,Old Airport Ln
160,35.165772,-111.681226,Sinclair St/Cox Ave
160,35.264450,-111.506848,Stardust Trl
160,35.219578,-111.613555,/N 4th St
334,35.238685,-111.669736,W Lois Ln
185,35.155882,-111.257228,I- 40
160,35.214602,-111.631255,E Cedar Ave
160,35.073901,-110.858060,I- 40
362,36.135629,-111.235669,Tamarax St
160,35.179641,-111.682958,I- 40
305,36.123504,-111.237615,/Bancroft St
160,35.176322,-111.689412,/W Kiltie Ln
472,35.245761,-112.210537,/US Hwy 66
552,35.162635,-111.656154,/S Kofa Dr
160,35.188975,-111.690825,/I- 40 Bus
276,35.212797,-111.610690,E Cassidy Ln/N King St
736,36.917095,-111.462760,/N Navajo Dr
185,34.965103,-111.751899,N Hwy 89A
160,35.204796,-111.495109,/I- 40
246,36.923385,-111.457787,Pine St/N 10th Ave
185,34.941460,-111.647179,Pinewood Blvd
160,35.237076,-112.222699,I- 40
276,35.306765,-111.542685,US Hwy 89/Timberline Trl
216,35.162346,-111.647523,E John Wesley Powell Blvd
390,35.224742,-111.657263,N Fort Valley Rd
246,36.054499,-112.136731,Tonto St/Juniper Hill/Tonto
185,35.230509,-111.674178,Tami Ln/Beth Way
788,35.249334,-112.192957,N 6th St
160,34.936120,-111.640586,Walapai Rd
160,36.133070,-111.243840,Aspen Dr/Peach Ln
362,36.130399,-111.224846,Hilltop St/Desert Dr
216,35.221673,-111.612319,E Linda Vista Dr
305,35.184220,-111.673627,/W University Ave
160,35.168980,-111.659473,Victoria Way
216,36.925125,-111.457698,11th Ave/N Navajo Dr
246,35.212699,-111.655752,W Lava Ln
160,35.234629,-111.818496,I- 40
185,35.083488,-111.687848,I- 17
216,35.255325,-112.188266,N Newton St/
216,35.162059,-111.663298,Kendall St/E Mohawk Dr
246,35.181789,-111.680855,W University Ave/S Highland Mesa Rd
390,35.251264,-112.183589,S Lewis St
216,35.236493,-111.669792,/W Ann Ln
160,34.850408,-111.765397,State Hwy 179/High Cloud Trl
246,36.132171,-111.229068,Allen Way
2623,35.193694,-111.650072,E Clay Ave
160,35.224157,-111.597311,N Hemberg Dr/N Fanning Dr
160,35.597219,-112.148010,/State Hwy 64
160,35.258289,-112.127353,/I- 40
1329,35.174483,-111.661766,/I- 17
160,35.239145,-112.220003,I- 40
216,35.156283,-111.661452,Walt Ln
216,35.255298,-112.184129,/N Locust St
499,36.917707,-111.461427,/N Navajo Dr
160,35.268173,-111.524630,Jay Ln/Koch Field Rd
499,36.118518,-111.230219,/Navajo Trl
185,35.247332,-111.975754,I- 40
276,35.294938,-111.542566,US Hwy 89/Kaitlin Way
185,35.107391,-111.690844,Bear Howard
334,36.932392,-111.473650,US Hwy 89
736,35.233270,-111.575882,US Hwy 89/N Smokerise Dr
185,35.159377,-111.663826,E Judy St/Kendall St/S Nicholas St
160,36.151619,-111.234951,/Indian Rte 6220
185,35.097044,-110.950756,/I- 40
362,35.233233,-111.574260,E Snowshoe Way/N Smokerise Dr
160,36.112486,-111.233806,US Hwy 160/Navajo Trl
160,35.188061,-111.685440,Northwestern St/I- 40 Bus
246,36.073279,-112.155682,W Rim Dr
185,36.133540,-111.239827,Birch Ave/Main St
499,35.196401,-111.658130,S Kingman St/W Tombstone Ave
1304,35.171144,-111.667512,S Litzler Dr/W University Heights Dr N
943,35.195303,-111.657312,/S Malpais Ln
216,35.191387,-111.687223,W Coronado Ave
334,36.916129,-111.467082,/Gum St/Elm St
185,35.215550,-111.642839,W Pine Ave
4728,35.192061,-111.658001,/Riordan Ranch Rd
305,34.832862,-111.774332,Geneva Dr/Chapel Rd
246,35.187835,-111.679565,I- 40 Bus
216,35.209719,-111.584460,N Tam O'Shanter Dr
160,35.093137,-110.924432,/I- 40
246,36.070303,-112.148359,/W Rim Dr
246,36.048972,-112.139279,Powell Ave
160,34.847360,-111.760230,Lewis Way
246,35.301072,-111.542780,US Hwy 89
185,35.018495,-111.684868,Newman Park Rd/I- 17
185,35.225185,-111.585794,N Cummings St
160,34.854427,-111.770533,Palisades Dr N/Craigmont Dr
185,36.127131,-111.241476,Hadley Dr
185,35.191426,-111.591303,Royal Oaks Dr/E Butler Ave
185,35.265847,-111.538891,Raeth Dr
160,34.907765,-111.464203,Casa Grande Dr/Mesa Dr
3925,35.179055,-111.661262,S Milton Rd
160,35.207058,-111.506930,I- 40
160,35.178453,-111.350282,Frontage Rd
160,35.195805,-111.738868,I- 40
160,35.297997,-111.000029,Leupp Schools Rd/E Sunrise Dr
390,36.903930,-111.463203,Via Valdez/Cascade St
160,35.235119,-111.568714,/N Dodge Ave
216,34.944679,-111.631847,Cougar St
160,34.936309,-111.627794,Raintree Rd/Lake Meadow Cir/Rain Tree Rd
216,36.919058,-111.456133,Red Mesa Ave/Kachina
499,35.218424,-111.613540,/N 4th St
160,35.629906,-112.116904,US Hwy 180/Laguna Dr
246,35.197083,-111.635086,/N Switzer Canyon Dr
160,35.849030,-111.430237,US Hwy 89/
160,36.931329,-111.409774,Indian Rte 222
160,36.271935,-111.013895,/Hwy 160
276,35.236925,-111.668695,W Easterday Ln
185,36.050681,-112.139790,Muav Ct/Hualapai Rd/Mauv Ct
185,35.127691,-111.691546,Pine del Dr/N Hwy 89A
968,35.178767,-111.668055,S Woodlands Village Blvd/W Forest Meadows St
736,35.216822,-111.593929,E Santa Fe Ave/N Kasper Ave
185,35.089004,-111.688233,/Kachina Trl
246,36.052729,-112.139160,Boulder St
160,36.945656,-112.525430,/E Pratt St
185,34.845984,-111.776358,Sycamore Rd
160,35.133932,-111.686403,N Hwy 89A
160,35.194558,-111.593709,Inverrary Way
185,35.283519,-111.542191,US Hwy 89
185,35.234375,-111.664301,N Fort Valley Rd
736,35.257920,-112.192133,E Patel Dr/N Grand Canyon Blvd
160,34.852966,-111.769582,Trails End Ln//Brewer Spr
1693,36.054116,-112.143753,Village Loop Dr/
994,35.168254,-111.664863,Lake Mary Rd
216,35.163903,-111.679651,/Holmes Ave
216,35.181484,-111.680223,S Highland Mesa Rd/S Eclipse Ln
305,34.868801,-111.762864,Forest Rd/Smith Rd
160,35.221982,-111.598665,Geneva Cir
305,35.200559,-111.655266,N Bonito St/W Aspen Ave
305,36.912342,-111.467020,/3rd Ave/Birch St
216,35.252872,-112.189588,N Grand Canyon Blvd
3896,35.177227,-111.663106,S Beulah Blvd/W McConnell Dr
2009,35.193684,-111.657281,I- 40 Bus/S Malpais Ln
246,35.216212,-111.617047,N Rose St/E Dortha Ave
185,36.124788,-111.241712,Kerley Rd
276,34.948080,-111.662910,I- 17
160,36.122860,-111.236206,/Bancroft St
160,35.327809,-111.545146,US Hwy 89/Brandis Way
276,35.199298,-111.606833,/Sparrow Ave
160,35.161989,-111.676408,Beulah Blvd
658,35.228690,-111.577673,M H P
160,36.993693,-111.492020,/Lake Shore Dr
216,35.197354,-111.641373,/E Cherry Ave
4874,35.190362,-111.649410,/E Franklin Ave
216,34.946199,-111.654301,Turkey Trl/N Lodge Dr
185,36.905403,-111.475072,Kaibab Rd
216,35.197306,-111.633156,N Clearview Dr/N Canyon View Dr
160,35.219427,-111.613552,N 4th St
276,35.190755,-111.638602,E Old Canyon Ct
185,35.129431,-111.690074,Spine Ridge Dr
160,36.051062,-112.115471,Fir and Pine Loop
276,35.202708,-111.620534,E Johnson Ave
185,35.201799,-111.655936,N Mogollon St/W Birch Ave
160,35.215048,-112.193237,Ski Run Rd
185,35.252267,-111.973140,/Rainbow Ave
185,35.308488,-111.542679,US Hwy 89//Buckboard Trl
216,35.242143,-111.502196,N Pony Rd
2868,35.192249,-111.652128,W Ellery Ave
185,35.190517,-111.671710,Longview Rd
185,34.844519,-111.773298,Doodlebug Rd/Lake Dr
305,35.207550,-111.608589,/E Industrial Dr
943,35.213463,-111.599748,/I- 40 Bus
216,36.306591,-110.967529,Navajo Trl
390,35.193541,-111.643661,S Colorado St/E Brannen Ave
185,35.245457,-112.188377,S 4th St
276,35.164355,-111.658044,Walapai Dr/E Zuni Dr
1252,35.192702,-111.660598,/S Metz Walk
216,35.219378,-111.585056,Motel Dr/Country Club Dr
160,35.302083,-111.547695,Valley View Dr/E Campbell Ave
305,36.910472,-111.462850,Hillcrest Ct/Aspen St
216,35.213856,-111.610698,Jeffrey Loop/N King St
160,35.100824,-110.980298,/Red Gap Ranch Rd
891,35.216205,-111.622520,Izabel St/N Izabel St/E Dortha Ave
499,35.191515,-111.645776,Ashurst Ave/S Lone Tree Rd
246,36.816404,-111.637274,US Hwy 89 Alt
160,34.650244,-111.125960,/Cherokee Way
185,34.825553,-111.779206,Yonder Ln
160,35.253832,-111.938665,Garland Pr/Carr Ln
334,35.216375,-111.582143,I- 40/Country Club Dr
362,35.196132,-111.609483,N Flowing Springs Trl
276,35.213440,-111.655758,W Basalt Ln
305,35.162620,-111.656686,S Kofa Dr
160,35.654776,-112.139072,/State Hwy 64
160,36.929240,-111.460761,N Navajo Dr/16th Ave
160,35.187944,-111.671963,I- 40 Bus
160,35.158223,-111.662227,/E Twelve Oaks Dr
1982,35.178154,-111.660356,/E McConnell Dr
185,35.199487,-111.598100,E Roadrunner Ln
276,35.244932,-112.192124,S 7th St/W Hancock Ave
1511,35.189612,-111.659255,/Riordan Rd
185,35.204936,-111.582322,/E Palomino Ln
160,35.168498,-111.325068,Frontage Rd
216,35.163900,-111.680794,Holmes Ave
185,34.943476,-111.642842,Peyote Dr/Turkey Trl
160,36.926207,-111.455002,11th Ave/Gunsight St
216,35.258105,-112.180993,E Rodeo Rd/E Frank Way
736,34.866026,-111.763940,State Hwy 89 Alt Scn
246,36.136622,-111.235644,Tamarax St/E Elm Cir
160,35.158747,-111.667551,/E Separation Canyon Trl/Separation Canyon Trl
246,35.197003,-111.562543,E Anazazi Dr/N Walnut Creek Dr
185,36.934724,-111.485996,US Hwy 89/
891,35.191529,-111.647073,S O'Leary St/Ashurst Ave
160,36.053044,-112.110485,Trailer Village Rd/V St/U St
246,35.231252,-111.577516,/US Hwy 89
276,35.207658,-111.615251,/E 3rd Ave
362,35.220436,-111.586310,/Old Santa Fe/Country Club Dr
160,36.913966,-111.447856,Sunrise St/Sage Ave
216,34.956373,-111.676709,I- 17
160,35.201460,-111.436968,/I- 40
160,35.259828,-112.193072,N Grand Canyon Blvd
994,35.206417,-111.615829,N 2nd St/E 2nd Ave
160,35.433632,-111.763003,/W Fort Valley Ranch Rd
472,35.252947,-112.192237,N 4th St/
160,35.239591,-111.675870,Magdalena Rd/N Fort Valley Rd
185,35.264287,-111.705093,N Fort Valley Rd
305,35.203772,-111.648741,W Fine Ave/N Humphreys St
390,35.164755,-111.661504,Cocopah Dr
185,36.991580,-111.498175,/Stateline Dr
160,35.239977,-112.218491,I- 40
216,35.203956,-111.617786,E Maple Ave/N Main St
160,35.113545,-111.072040,/Old Sixtysix
160,35.268020,-111.733184,/W Fort Valley Ranch Rd
160,34.892911,-111.733469,N Hwy 89A
160,35.251233,-111.414488,Leupp Rd/FS Rd 244
160,36.047956,-112.141151,Pima St/Hualapai Rd
2381,35.182859,-111.655979,/Runke Dr
216,35.182799,-111.701263,I- 40
160,35.239152,-111.673735,W Lois Ln/N Peak View St
3060,35.176658,-111.663092,S Beulah Blvd
160,36.990819,-111.494214,/Stateline Dr
305,36.923475,-111.455751,Castlerock St/N 10th Ave
185,35.375776,-112.124351,Pine St/
4497,35.198126,-111.647616,N San Francisco St/E Aspen Ave
526,35.209904,-111.644668,/N Beaver St
185,34.293993,-110.876512,Old Rim Rd
246,36.913237,-111.460358,Date St/Cedar St
185,35.197548,-111.567577,E Breckenridge Way
160,35.288360,-111.504839,E Jonathan Ln
160,35.208760,-111.575649,/Boulder Run
160,34.835056,-111.774381,/Geneva Dr/Acacia Dr
160,35.163439,-111.666472,W Gold Rush Trl/S Sutter Creek Trl
185,35.197427,-111.566659,N Walnut Hills Dr/E Vail Dr
185,34.947647,-111.631266,Hillside Dr/Redwood Dr
160,36.993756,-111.491962,/Lake Shore Dr
362,35.652613,-112.139383,/State Hwy 64
185,36.144777,-111.234434,Main St
276,35.212313,-111.610686,/N King St
736,35.183909,-111.638441,E Hatcher Dr/E Scarlett Dr
185,36.135878,-111.226841,Castlebutte Dr
185,35.210715,-111.594996,E Soliere Ave
418,35.199710,-111.632182,E Stone Ridge Dr/N Diabase Way
246,35.199037,-111.568952,N Walnut Hills Dr/E Settlers Run Rd
3142,35.196759,-111.650759,Beaver St
305,35.212151,-111.594260,I- 40
160,35.362087,-112.170253,/E Night Hawk Ln
631,35.179729,-111.648240,/S Pine Knoll Dr/S Lone Tree Rd
246,35.212078,-111.640568,E Oak Ave
216,34.865735,-111.774548,Rolling Hills Pl
185,35.251763,-112.194196,N 6th St/W Franklin Ave
445,35.200784,-111.632091,/N Locust Dr
305,35.210688,-111.620125,E 6th Ave/N Center St
891,35.191495,-111.647453,/Ashurst Ave
216,35.201113,-111.653752,W Birch Ave/N Park St
185,35.209515,-111.657068,/Clark Rd
160,34.945389,-111.638097,Hillside Dr
160,35.096454,-111.669633,/Elkhorn Trl
658,35.191851,-111.638153,/E Butler Ave
334,35.200055,-111.642973,E Charles Rd/E David Dr
2408,35.176237,-111.663009,S Beulah Blvd/
185,36.923324,-111.456924,/N Navajo Dr/N 10th Ave
160,35.187781,-111.631840,S Babbitt Dr
185,35.141799,-111.647075,Chisholm Trl
917,35.178419,-111.668287,S Woodlands Village Blvd
3142,35.196839,-111.650796,W Phoenix Ave
276,35.218010,-111.618580,E Cedar Ave
185,36.893835,-111.444772,/E Frontage Rd
185,35.101295,-111.720445,/Lindberg Spring
160,35.098975,-111.698748,Nakai Ovi/Kona Trl/Nakai Trl
390,35.198967,-111.653532,N Sitgrevas St/S Milton Rd/W Santa Fe Ave
185,35.198055,-111.634498,N Circle View Dr
160,35.129824,-111.183517,/Buffalo Range Rd
631,36.127201,-111.220953,Knight Dr
276,34.893726,-111.641219,I- 17
160,35.252537,-111.901885,I- 40
246,36.049041,-112.139301,/Powell Ave
246,35.197356,-111.742409,/I- 40
736,35.249043,-112.192736,W Bill Williams Ave
2009,35.196636,-111.654546,I- 40 Bus/W Tucson Ave
185,35.217130,-111.621813,N West St
1693,34.868835,-111.761391,Forest Rd/State Hwy 89 Alt Scn
305,35.184437,-111.688135,W Pollo Cir/S Pais del Norte
445,36.920226,-111.457432,Kachina/Thunderbird Ave
160,35.240047,-111.484215,Townsend-Winona Rd
160,35.269333,-111.548157,Silver Saddle Dr
160,34.852472,-111.770458,Palisades Dr S
160,36.902197,-111.467986,Haul Rd
160,35.255723,-111.938834,I- 40/Garland Pr
185,35.159319,-111.272536,/Toonerville
276,35.205969,-111.617023,/N 1st St
216,35.210683,-111.620687,/E 6th Ave
160,35.841930,-112.132218,US Hwy 180
552,36.915041,-111.459689,6th Ave
185,35.194760,-111.707808,W Main St
445,36.128786,-111.224497,/Hilltop St/Edgewater Dr
160,36.735732,-112.214597,/US Hwy 89 Alt
160,35.275062,-111.554395,/Offenhauser Dr
216,35.991930,-112.123260,US Hwy 180
216,35.256981,-111.535642,N Masters Ln
185,35.170878,-111.672787,S Little Dr/W Parker Dr
216,35.181865,-111.701283,Kiltie Rd
160,35.063499,-111.554332,Fawn Trl/Antelope Rd
246,35.201958,-111.476680,/I- 40
160,35.256961,-112.170245,E Rodeo Rd/US Hwy 66
185,35.223030,-111.606140,N Steves Blvd/N Hemberg Dr
943,34.857156,-111.763863,State Hwy 179
160,35.114548,-111.697992,Fred Breen/Andrew Douglass
1278,35.224511,-111.583063,US Hwy 89/
160,36.709383,-112.217763,/Grand Canyon Hwy
216,35.113138,-111.681334,I- 17
499,36.910973,-111.456118,/Lake Powell Blvd/Coppermine Rd/S Powell Blvd
305,35.211252,-111.649591,W Beal Rd/N Fort Valley Rd
552,35.178694,-111.666105,W Forest Meadows St
160,35.286368,-111.508834,Aurora Rd
185,35.103244,-111.705455,/William Palmer
160,35.221759,-111.589190,E Lynch Ave/N Hamblin St
305,35.971919,-112.129935,Memory Ln
160,35.105183,-111.695676,Edward Ayer
216,35.199281,-111.598836,N Deer Crossing Rd/E Roadrunner Ln
891,35.206417,-111.615201,/E 2nd Ave
216,35.171026,-111.658666,I- 40
185,35.228326,-111.659813,N Fort Valley Rd
160,35.181938,-111.688161,W Mission Timber Cir/W Josselyn Dr
216,34.914604,-111.727719,Oak Trl
160,35.104638,-111.696309,Edward Ayer
160,35.150549,-111.961027,Bluebird Meadow Rd
246,36.930161,-111.457083,Lone Rock Ct
216,35.230843,-111.674402,Beth Way/N Fremont Blvd
334,35.213917,-111.593673,Huntington Dr
216,36.139011,-111.239705,/Main St
684,35.184208,-111.665536,/W University Ave
160,34.640677,-111.169474,Woodland Dr
185,35.256301,-111.541136,/N Green Prairie Ln
445,35.181006,-111.667650,/S Woodlands Village Blvd
185,35.197095,-111.568584,N Keystone Dr/N Walnut Ridge Dr
160,34.838644,-111.776675,State Hwy 179
185,35.209808,-111.639662,/N Turquoise Dr
160,34.872247,-111.764455,Ridge Rd
160,34.939644,-111.624762,Mustang Rd/Pinewood Blvd/Mormon Lake Rd
160,35.084989,-111.667929,Crow St
579,35.179414,-111.677991,S Shady Knoll Ln/W Legend Trl
160,35.216557,-111.640230,Silver Spruce Ave/N Turquoise Dr
276,35.214422,-111.620756,/E Felice Ave
499,35.232894,-111.576368,US Hwy 89
185,35.099221,-111.683660,/Tovar Trl
185,35.160637,-111.657223,/S Yaqui St
246,35.191020,-111.668610,Green Briar Ln
276,36.904565,-111.472259,Falcon Ct/San Francisco St
160,35.155552,-111.671488,S Topaz Rd/W High Country Trl
160,35.226077,-111.586940,E el Paso Dr
185,35.194703,-111.736573,W Naval Observatory Rd
160,35.264292,-111.519600,/Esplin Way
160,35.441802,-111.565526,US Hwy 89/E Sacred Peaks Trl
276,36.915819,-111.450113,el Mirage St
185,35.218283,-111.567616,I- 40
499,34.865966,-111.764891,State Hwy 89 Alt Scn/Brewer Rd
305,35.188595,-111.674882,Thompson St
185,35.284834,-111.519782,Heritage Dr/E Moonbeam Dr
216,35.101421,-110.986454,I- 40
185,36.049820,-112.140587,Hualapai Rd
276,35.193555,-111.642145,E Brannen Ave/Gabel St
246,35.215669,-111.610612,N King St
390,35.172239,-111.671207,S Little Dr/Troxler Cir
185,36.125545,-111.245353,Jensen St
160,35.218880,-111.652301,N Talkington Dr/W Elizabeth Dr
185,35.263928,-112.166203,I- 40
246,35.207863,-111.608165,/E Industrial Dr
216,35.171191,-111.680469,S Dylan St/Carol Dr
2462,35.176241,-111.663125,/S Beulah Blvd
216,35.216845,-111.582598,I- 40/Country Club Dr
160,35.303987,-111.538176,Onika St/Lilac St
246,35.168165,-111.661627,E Camille Dr/Anita Ave
2542,35.179010,-111.662969,S Beulah Blvd/W Forest Meadows St
3060,34.871239,-111.759541,Amara Ln/State Hwy 89 Alt Scn
246,36.236133,-112.688299,/Havasupai Village Main Trl
160,35.191422,-111.680542,W Shortline Ct/RR Spring Blvd
185,36.945654,-112.526378,Pratt St/E Pratt St/US Hwy 89 Alt
160,35.217844,-111.641811,W Fir Ave
216,35.201668,-111.471285,I- 40
160,34.851945,-111.771100,Palisades Dr S
390,35.188063,-111.668897,S Woodlands Village Blvd/I- 40 Bus
216,35.652110,-112.139454,US Hwy 180/State Hwy 64
160,34.915068,-111.727767,Oak Trl
305,35.162136,-111.669453,/S Wagon Trl
334,36.122948,-111.247414,Maloney St
185,34.946007,-111.653894,N Lodge Dr/Janice Pl
160,36.332280,-110.923581,/Navajo Trl
246,35.210712,-111.617105,E 6th Ave/N 1st St
160,36.122370,-111.237050,Maloney St
334,35.161435,-111.669429,S Wagon Trl
445,36.127455,-111.221181,Knight Dr
2381,36.916532,-111.457229,Lake Powell Blvd
160,35.137003,-111.613447,Daphne Ln//E Daphne Ln
160,35.200118,-111.604815,N Falcon Rd
1956,35.176806,-111.654613,S Pine Knoll Dr
710,35.251199,-112.186220,N Taber St/E Bill Williams Ave/S Taber St
216,35.210109,-111.594529,E Village Cir
1407,35.194119,-111.656710,/I- 40 Bus
160,36.884447,-111.439944,Copper Mine Rd
216,35.062447,-111.685374,I- 17
579,35.215000,-111.576404,/E Cortland Blvd
418,36.120737,-111.226663,Navajo Trl
185,35.455037,-111.561777,US Hwy 89/150 Rd
216,35.214378,-111.596377,/E Industrial Dr
390,34.911845,-111.468093,/Mormon Lake Rd West Side
276,35.230525,-111.578030,US Hwy 89
160,35.257071,-111.732277,W Suzette Ln/N Abert Way
246,36.928210,-111.456257,12th Ave
246,35.159685,-111.673422,W Lone Star Trl
185,34.874567,-111.759009,Norbie Rd/Circle Dr
185,35.189182,-111.590503,N Marina Ln
246,35.265046,-111.548415,/E Cullum Ln
216,35.264046,-112.179298,/I- 40
160,35.230441,-111.555876,N el Paso Flagstaff Rd
246,35.198962,-111.575962,E Bear Paw Dr/N Plateau Dr
216,36.903095,-111.462509,/Via Valdez
216,35.106941,-111.703207,Griffiths Spring/Forest Highlands Dr
552,35.209245,-111.612218,E 4th Ave/
917,36.128928,-111.239666,/Main St
334,35.207646,-111.616454,/E 3rd Ave
160,35.281723,-111.729520,/Taylor Spg Ln
1563,36.053026,-112.120692,Service Rd
445,35.198111,-111.644219,E Birch Ave/N Elden St
362,36.916030,-111.459719,Elm St
216,35.162146,-111.644637,/S Clubhouse Cir
276,36.129564,-111.248179,Monave St/Maloney St/Arizona Blvd
160,35.182391,-111.589178,N Nordica Loop/N Skyview St
160,35.238506,-112.228050,Torrey Pines Dr
362,35.200154,-111.576703,E Bear Paw Dr/N Pinon Ridge Dr
1123,35.213576,-111.599537,/I- 40 Bus
362,34.870588,-111.762027,Mesquite Ave/Van Deren St
160,36.918499,-111.475000,US Hwy 89
185,34.331920,-110.835424,FS Rd 237
160,35.204053,-111.595794,N Whispering Pines Way
160,36.069936,-112.152967,/W Rim Dr
943,34.866017,-111.763518,State Hwy 179/State Hwy 89 Alt Scn
185,35.199413,-111.656848,S Walnut St/W Grand Canyon Ave
160,35.188733,-111.376370,/Walking Cane Rd
216,35.311340,-111.542663,US Hwy 89/Firehouse Ln
160,34.335548,-110.809957,/Old Rim Rd/Wildcat Rd
276,35.257060,-112.167909,/US Hwy 66
160,35.274624,-111.545847,/Glenwood Trl
2194,35.193613,-111.649714,/S San Francisco St/E Clay Ave
2623,35.195886,-111.651058,W Cottage Ave/Beaver St
185,35.234447,-111.669382,W Cooper Dr/N Fremont Blvd
185,34.861216,-111.770706,Chanelle Cir
160,35.223485,-111.568442,Test Dr
216,35.197001,-111.622212,I- 40 Bus
216,35.190959,-111.686657,/S Southern Pacific St
839,36.906075,-111.475082,/Kaibab Rd
216,35.196665,-111.631202,N Pine Cliff Dr
160,35.214154,-111.632397,/N Gemini Dr
160,34.928786,-111.739597,N Hwy 89A
160,35.210130,-111.617092,N 1st St/5th Ave
160,35.097633,-111.671560,/Elkhorn Trl
160,35.271318,-111.498007,Beasley Rd/Jupiter Ln
160,35.177545,-111.682959,W Dolores Ln
390,35.201718,-111.612949,E Huntington Dr
276,35.217447,-111.618849,/N Main St
362,36.127003,-111.227220,Tumbleweed Dr
216,35.263740,-112.179768,I- 40
1252,35.170827,-111.667038,W University Heights Dr N
160,35.259820,-111.524705,Mariah Dr/Koch Field Rd
160,36.279252,-111.440686,US Hwy 89
216,35.206716,-111.595201,N Elk Run St/E Broken Rock Loop
160,35.250879,-111.938435,/Pioneer Path
1278,35.973916,-112.126140,/US Hwy 180
1174,36.918429,-111.459260,/Lake Powell Blvd
216,35.256992,-112.184142,E Edison Ave/N Locust St
216,35.207648,-111.620064,N Center St/E 3rd Ave
276,35.238380,-111.570427,/S Trail End Dr
160,36.128335,-111.251985,Unknow St
160,35.344729,-111.561531,US Hwy 89/N Lenox Rd
185,34.844382,-111.773195,Doodlebug Rd
246,34.857468,-111.761355,Sombart Ln/Arroyo Sienna Dr
160,36.958623,-112.526948,Main
246,36.139368,-111.226701,Blue Canyon Dr/Sweetwater Dr
185,36.983248,-112.529582,/US Hwy 89 Alt
216,35.215913,-111.618144,/N First St/N Main St
246,35.192361,-111.616825,E Butler Ave/Herold Ranch Rd
246,36.925488,-111.458195,N Navajo Dr/Vista Ave
185,35.190444,-111.637666,/S River Run Rd
160,35.202979,-111.602991,Raccoon Way
160,35.259505,-111.732643,W Sweetwater Trl
216,36.135871,-111.228206,Castlebutte Dr
160,35.210122,-111.617878,5th Ave/N Main St
276,35.166592,-111.665051,Wild West Trl
246,35.217968,-111.600023,/N Thomas Dr
2923,35.177338,-111.662035,/W McConnell Dr
499,36.999009,-111.497707,/Lake Shore Dr
160,35.198940,-111.566150,E Breckenridge Way
185,35.196129,-111.596383,/E Butler Ave
1020,35.184034,-111.637593,Russ Way/Payton Way
994,35.191717,-111.662966,/I- 40 Bus
160,35.427434,-111.568935,US Hwy 89/FS Rd 546
305,36.129868,-111.243482,Monave St
334,35.210710,-111.618582,/E 6th Ave
160,36.981162,-112.529276,/US Hwy 89 Alt
216,35.092518,-111.696465,Shonto Trl/Dinnebito Trl
305,35.204157,-111.604003,E Soliere Ave
160,36.589214,-111.083843,Unname Rd
185,35.250491,-112.182036,S Pine St/E Sherman Ave
216,36.124855,-111.219389,East Dr
160,35.158383,-111.660315,/Lake Mary Rd
185,36.056630,-112.115460,Yavapai E/Village Loop Rd
160,36.912763,-111.452718,Lake Powell Blvd/Oak St
390,35.234805,-111.575927,/E Blizzard Way
1459,35.188436,-111.647462,W Hoskins Ave
5167,35.191479,-111.653006,W Franklin Ave/Beaver St
160,35.204988,-111.583512,E Pebble Beach Dr/N Olympic Dr
276,35.182849,-111.643596,E Ridgecrest Dr
445,35.191386,-111.633444,E Butler Ave
216,35.255380,-112.183345,N Cedar St
216,35.251535,-112.194919,/W Franklin Ave/N 7th St
788,35.191797,-111.628466,E Butler Ave
160,35.996544,-111.042925,/Indian Rte 6032
160,35.247949,-111.561936,US Hwy 89
160,35.223372,-111.576533,Market Place Dr
216,35.205907,-111.618929,/N East St
276,35.207634,-111.620612,/E 3rd Ave
472,35.204282,-111.649820,/N Kendrick St
6763,35.185016,-111.656379,/University Dr
276,35.996660,-112.122264,/US Hwy 180
185,35.197918,-111.635577,N Switzer Canyon Dr
160,34.860961,-111.767225,Brewer Rd
216,34.846350,-111.776366,Sycamore Rd/Doodlebug Rd
160,35.245058,-112.227645,/W Luces Rd
2650,35.186892,-111.660489,/Riordan Ranch St
160,34.906590,-111.460444,/Mormon Lake Rd West Side
305,35.199928,-111.637064,/N Switzer Canyon Dr
552,35.248446,-112.195183,W Bill Williams Ave/
185,36.124461,-111.241839,/Kerley Rd
185,35.202468,-111.453051,I- 40
160,35.217839,-111.640254,W Fir Ave/E Fir Ave/N Turquoise Dr
362,35.166373,-111.664978,Gold Rush Trl/Minning Camp Trl
216,35.161844,-111.279413,/I- 40
216,35.261122,-112.150875,/State Hwy 64
526,36.904662,-111.467416,San Francisco/San Francisco Rd/Oneill/O Neil Loop
160,35.201920,-111.720554,/N Belle Springs Rd
160,35.177066,-111.694565,/Skye Way
185,35.194635,-111.594916,E Butler Ave/N Continental Dr
246,35.223182,-111.614489,E Andes Dr/N Andes Dr
160,35.204436,-111.493194,I- 40
472,36.901429,-111.471524,/Elk Rd
1278,35.200206,-111.650879,W Birch Ave
246,36.138154,-111.236681,E Fir Ave/Spruce St
526,35.248305,-112.196304,W Bill Williams Ave/S 9th St/N 9th St
552,35.193887,-111.628036,/E Huntington Dr
390,34.858501,-111.761778,Royal Glen Ln
160,35.099265,-111.646739,/(Fs Rd) 762
160,36.052923,-112.110519,Trailer Village Rd/T St
246,35.262231,-112.176130,Quarterhorse Rd
418,34.911242,-111.467193,Casa Grande Dr/Mormon Lake Rd West Side
658,35.195785,-111.653702,/W Benton Ave
185,34.877251,-111.762270,Winesap Ct
160,36.993035,-111.491424,/Lake Shore Dr
4295,35.191700,-111.656690,S Knoles Dr
246,36.131376,-111.242718,Willow Dr
276,36.121730,-111.227827,/Peshlakai Ave
839,35.195087,-111.628428,Enterprise Rd/I- 40 Bus
246,36.912445,-111.467955,2nd Ave/Birch St
499,35.215397,-111.595321,S Fanning Dr
276,35.193560,-111.644529,E Brannen Ave
160,35.213266,-111.640107,E Cedar Ave
160,36.048951,-112.117920,/Fir and Pine Loop
499,36.124716,-111.228850,Peshlakai Ave
1097,35.192500,-111.661798,/I- 40 Bus
276,35.214226,-111.593090,/Huntington Dr
160,34.853494,-111.768418,Roadrunner Ln
160,35.855807,-111.429395,State Hwy 64
160,35.269549,-111.526315,/Silver Saddle Rd
160,35.136992,-111.684657,I- 17
185,35.274545,-111.543430,US Hwy 89
276,35.216217,-111.617712,/E Dortha Ave
160,35.194586,-111.737722,I- 40
160,35.303470,-111.547994,/Valley View Dr
160,36.148935,-111.246515,Maloney Rd
185,35.111125,-111.699897,Doc Fronske
160,34.833949,-111.775194,W McCullough Dr
185,35.218932,-111.586371,E Huntington Dr
185,36.952533,-112.526394,/Judd St/US Hwy 89 Alt
160,36.917577,-111.454673,Calle Hermosa St/S 9th Ave
160,34.323499,-110.825509,A-Loop
160,35.327707,-111.545946,Brandis Way
160,36.617143,-110.785634,Indian Rte 16/
3587,35.178168,-111.663138,/S Beulah Blvd
216,36.911349,-111.466318,S Navajo Dr/Echo Ct
160,35.120034,-111.151010,I- 40
246,35.213342,-111.610669,N King St/E Joshua Ln
160,34.853209,-111.606603,/Rocky Park Rd
160,35.230371,-111.573267,E Lowell Dr
246,35.265634,-111.734302,W Laskin Trl
472,35.193337,-111.664934,/W Chateau Dr
160,35.099350,-111.699925,Chaco Trl
579,35.193831,-111.627606,E Huntington Dr
160,35.236835,-111.671011,W Sheila Dr/N Nancy Way
216,36.122177,-111.239689,/Maloney St
185,35.161102,-111.661818,Lake Mary Rd
276,35.957873,-112.133926,/Fire Rd 771/Airport Entry N
160,35.237319,-112.222169,I- 40
160,35.234682,-111.571906,N Broken Arrow Rd/E Broken Bow Dr
160,35.196238,-111.633264,N Clearview Dr/N Circle View Dr
4152,35.183989,-111.655308,Runke Dr
185,35.213790,-111.631367,E Forest Ave/N Gemini Dr/E Cedar Ave
160,36.148855,-111.232298,/Bia Rd
160,36.008410,-112.120651,US Hwy 180
185,36.121931,-111.219507,Navajo Trl
216,34.944225,-111.657745,/Frontage Rd
1433,35.173097,-111.664944,S Beulah Blvd/I- 40
499,35.217190,-111.650649,Frontage Rd/W Murry Rd
526,35.161311,-111.673249,S Trading Post Trl
185,35.235583,-111.577557,N Snowflake Dr/E Blizzard Way
160,35.336361,-111.550659,Western Star Rd
1071,36.056400,-112.140108,Village Loop Dr/
160,35.178966,-111.685251,I- 40
185,35.251729,-111.996284,I- 40
418,35.159523,-111.658328,E Sioux Dr/
943,35.194964,-111.628895,/I- 40 Bus
160,35.214896,-112.424351,Monte Carlo Rd/Monty Carlo Rd
246,35.222205,-111.655230,Louise Way
185,36.127056,-111.240509,Hadley Dr
216,35.203944,-111.618902,N East St/E Maple Ave
276,35.189148,-111.627012,I- 40
160,35.182245,-111.589269,/N Skyview St
276,35.169266,-111.665122,I- 17
185,35.246770,-112.193020,S 7th St/W Sherman Ave
160,35.318634,-111.542748,US Hwy 89/E Robles Rd
968,35.249041,-112.194480,W Railroad Ave
185,35.103128,-111.697747,Griffiths Spring
246,35.201402,-111.637528,N Canyon Terrace Dr/N Switzer Canyon Dr/N Turquoise Dr
3896,35.192765,-111.658446,Milton Rd/I- 40 Bus
160,35.160680,-111.676191,I- 17
160,35.236632,-111.476728,Townsend-Winona Rd/Hutton Ranch Rd
276,36.903876,-111.463988,Cameron/Cameron Rd
631,36.917046,-111.462904,/N Navajo Dr
246,35.042849,-111.685450,I- 17
1071,35.217606,-111.595748,E Miller Dr/N Fanning Dr
216,35.166521,-111.669694,I- 17
445,35.194991,-111.621624,N Grant St
334,35.179852,-111.679908,S Stormy Ln/W Legend Trl
185,35.235655,-111.669588,N Joy Ln/N Fremont Blvd
1641,35.173355,-111.665610,I- 40
579,35.177344,-111.668501,S Woodlands Village Blvd/W McConnell Dr
185,35.196986,-111.598077,E Spring Meadows Cir
185,35.189135,-111.676496,W Kaibab Ln
160,35.259866,-112.151560,/US Hwy 66
160,35.204062,-111.581805,/N Oakmont Dr
2813,35.193198,-111.657899,/I- 40 Bus/Riordan Ranch Rd
445,36.904747,-111.461124,San Francisco Rd/Jerome St
390,35.210716,-111.639939,/E Forest Ave/N Turquoise Dr
246,35.225207,-111.573887,E Railhead Ave
5942,35.190178,-111.648793,S Verde St/E Franklin Ave
1304,35.250610,-112.189725,N 3rd St/W Railroad Ave
160,35.246873,-111.880556,/I- 40
160,34.859262,-111.614060,FS Rd 80/FS Rd 80A
185,35.265083,-112.053768,I- 40
334,35.014273,-111.685002,/I- 17
276,36.140202,-111.239686,/Main St
160,35.044587,-111.033747,Meteor Crater Rd
418,36.902184,-111.474217,Morgan Rd/Haul Rd
788,34.857527,-111.762947,Sombart Ln
160,35.230365,-111.573568,N Sanford Pl/E Lowell Dr
185,35.236094,-111.666218,W Valley Crest St/N Fort Valley Rd
160,35.257002,-111.530480,/Fran Dr
185,35.143152,-111.648010,/Chisholm Trl
160,34.845543,-111.767085,Painted Canyon Dr/State Hwy 179
216,35.216826,-111.605510,/Elder Dr
276,34.861941,-111.766321,Brewer Rd
185,35.398740,-111.576312,US Hwy 89/
185,35.198211,-111.609192,N Flowing Springs Trl
526,35.235576,-111.575666,N Christmas Tree Ln/E Winter Dr
160,35.043317,-110.752505,/I- 40
736,36.917339,-111.462146,6th Ave//N Navajo Dr
418,34.885329,-111.742304,N Hwy 89A
185,34.643678,-111.123273,Horseshoe Dr
185,36.145220,-111.233885,/Main St
246,35.218422,-111.600188,/E Lockett Rd
362,35.202206,-111.630977,E Ponderosa Pkwy
305,35.218084,-111.622027,/N West St/E Cedar Ave
160,36.915509,-111.477267,/US Hwy 89
305,36.918147,-111.456213,8th Ave/Elm St
160,36.163858,-111.097466,/Hwy 160
185,34.855618,-111.769165,Sugar Loaf Dr/Brewer Rd
276,35.201199,-111.617596,I- 40 Bus/N Main St
2515,35.186334,-111.660487,/Riordan Ranch St
160,35.221676,-111.606342,E Linda Vista Dr
160,36.963852,-111.491747,/Lake Shore Dr
160,36.982826,-111.494611,Lake Shore Dr
305,35.210247,-111.648935,Havasupai Rd/N Fort Valley Rd
2381,35.192103,-111.651676,W Ellery Ave/S Leroux St/E Ellery Ave
499,36.138550,-111.225896,Howell Mesa Dr
362,35.218090,-111.583751,Country Club Dr
160,34.877506,-111.769931,Cibola Ln
276,35.307668,-111.542683,US Hwy 89/Black Bill Rd
160,35.240428,-111.632670,E Larkspur Ln
160,35.254951,-111.551034,Candi Ln/E Burris Ln
160,35.216880,-111.610737,/N King St/Elder Dr
499,35.212409,-111.576015,E Cortland Blvd
2623,35.193722,-111.650313,/E Clay Ave
185,35.056250,-111.683977,I- 17
160,35.085558,-111.668277,W Onondaga St/Nondaga
160,35.254451,-112.008342,I- 40
160,36.029869,-111.398102,US Hwy 89
3115,35.196399,-111.648397,S San Francisco St
185,36.132981,-111.249231,Maloney Rd/Arizona Blvd
216,35.214842,-111.600998,E Manor Dr/N Loma Vista Dr
185,35.248724,-111.891995,I- 40
160,35.169773,-111.328269,Frontage Rd
2515,35.179007,-111.663084,S Beulah Blvd/W Forest Meadows St
160,36.895665,-111.395463,/State Hwy 98
185,36.909360,-111.449371,Lakeside Ct
185,34.943581,-111.655684,/I- 17
160,35.984953,-112.123218,US Hwy 180
160,35.011673,-110.759214,/Hogahn Dr
1329,35.200076,-111.650470,N Humphreys St/W Birch Ave
160,35.177287,-111.347346,/Frontage Rd
305,35.196680,-111.634909,N Switzer Canyon Dr/E Switzer Dr
160,35.233795,-111.678674,N Fremont Blvd
185,36.117610,-111.231000,Navajo Trl
362,35.270842,-111.544897,US Hwy 89
1511,35.191137,-111.648368,S Verde St
185,36.052619,-112.139957,Boulder St/Albright Ave
216,36.909249,-111.450093,Lakeside Ct/Village Dr
216,35.990266,-112.124014,Fire Rd 800/Moqui Dr
160,35.207171,-111.606050,N Vickey St
185,35.224162,-111.614462,/N 4th St/E Appalachian Ave
160,36.894666,-111.490204,US Hwy 89
160,36.048055,-112.141099,Hualapai Rd/Kolb St
160,36.131105,-111.218181,/Honovi Dr
7571,35.187025,-111.654263,/University Dr
160,36.109073,-111.248819,Kerley Rd
160,35.219541,-111.652607,N Talkington Dr/W Hazel Way
216,35.185309,-111.580771,N Lone Oak Way/N Fox Hill Rd
216,35.196742,-111.661092,/W Lower Coconino St
216,35.207190,-111.643404,N San Francisco St
631,35.184801,-111.648091,W Anderson Rd/S Lone Tree Rd
579,35.179982,-111.680481,S Eureka Ln/W Legend Trl
160,35.093713,-110.924124,/Red Gap Ranch Rd
185,35.117465,-111.120446,I- 40
216,35.239038,-111.571595,/US Hwy 89/S Trail End Dr
390,35.179521,-111.677040,W Sequoia Dr
216,36.930608,-111.455883,/Westview Dr/17th Ave
185,35.258715,-112.122331,/Circle Pines Rd
1355,35.195937,-111.655963,S Park St/W Tombstone Ave
185,36.127147,-111.252156,/Preston Way
160,35.091661,-111.685585,I- 17
276,35.167244,-111.665120,/Big Sky Trl/Old Territory Trl
185,35.195139,-111.593642,E Winged Foot Ln/Inverrary Way
185,36.136710,-111.238069,/Pine St/Elm Ave
185,35.183514,-111.687206,W Mission Timber Cir
362,35.238575,-111.669010,N Shultz Pass Rd/N Fort Valley Rd/N Fremont Blvd
160,35.502628,-112.173131,/Big Elk
185,35.198201,-111.609056,W Waterside Dr/N Warm Springs Trl
160,35.240315,-112.218757,/I- 40
160,35.064058,-111.554403,FS Rd 132D/Antelope Rd
160,35.174950,-111.648229,S Lone Tree Rd
160,35.185030,-111.710186,/S Flagstaff Ranch Rd
185,35.179877,-111.353923,Walking Cane Rd/FS Rd 4b
160,34.947982,-111.658943,Turkey Trl
160,36.950714,-112.519919,Hortt St
160,36.132736,-111.244432,Peach Ln
160,35.219235,-112.277169,/FS Rd 108
246,36.137710,-111.241171,Fir Ave/Maple St
160,35.220152,-111.596641,E Swiss Rd/N Zurich St
185,35.212620,-111.617102,Colanthe Ave/N 1st St
362,35.653790,-112.139217,/US Hwy 180/State Hwy 64
4468,35.186059,-111.657132,/S Knoles Dr
160,36.992577,-111.488655,/Scorpion Pl
246,34.877096,-111.752767,N Hwy 89A
246,35.171063,-111.670356,S Little Dr/Mehrhoff Pl
160,35.183885,-111.687812,W Pollo Cir
216,35.201521,-111.476395,I- 40/N Cosnino Rd
445,36.138691,-111.225896,Howell Mesa Dr
160,35.334955,-111.550430,US Hwy 89/Western Star Rd
216,36.930846,-111.463624,Rim View Dr
1746,36.905000,-111.484166,US Hwy 89//Haul Rd
160,35.248420,-111.538742,Crocket Ln
246,35.208485,-111.652441,Navajo Dr/W Navajo Rd
160,34.940205,-111.640505,Walapai Rd/Pinewood Blvd
246,35.203995,-111.587172,N Carefree Cir/E Linger Ln
1537,35.178972,-111.663888,/W Forest Meadows St
160,35.423775,-111.570237,US Hwy 89/FS Rd 7123H
160,34.844993,-111.767522,State Hwy 179/Pine Dr
185,36.125257,-111.218072,Manuelito Dr
246,34.848691,-111.765624,Morgan Rd
1071,35.184231,-111.637842,Russ Way/Macenzie Dr
334,36.902198,-111.459078,/Newburn Rd/Haul Rd
185,34.965653,-111.753653,/Junipine Cir
216,35.190711,-111.686653,S Southern Pacific St/W Zepher Ave
472,35.218350,-111.613127,E Lockett Rd
185,35.124681,-111.171213,I- 40
631,35.201929,-111.649599,N Humphreys St/W Dale Ave
334,35.175572,-111.672713,I- 40
160,35.218322,-111.654934,W Azure Dr/N Crescent Dr
160,35.402813,-111.575258,US Hwy 89
160,35.972864,-112.133877,/Rp Dr
185,35.104876,-111.002275,/I- 40
334,35.217883,-111.578076,/I- 40
216,35.248880,-111.468347,Ghost Rider Trl
160,35.091177,-111.685463,I- 17
305,35.194020,-111.626101,/E Huntington Dr
185,35.152550,-111.671126,N Quartz Rd
160,35.013857,-111.737854,N Hwy 89A
216,35.202193,-111.621392,/Arrowhead Ave
160,36.907671,-111.452416,Aqua Ave
216,35.210701,-111.613466,N 4th St/E 6th Ave/
160,35.209997,-111.642654,/N San Francisco St
160,35.179826,-111.718639,Brush Arbor
1200,35.224604,-111.582943,US Hwy 89
216,35.232793,-111.815942,I- 40
160,36.941648,-111.492729,Lake Shore Dr
305,35.182873,-111.639402,Makayla Way
160,36.159314,-112.709347,Hualapai Hilltop Hwy
362,34.942087,-111.649520,N Lodge Dr/Boulder Trl
216,35.156845,-111.676143,Windfall Trl/W Lil Ben Trl
160,35.201499,-111.599237,E Hawk Ln
390,35.220231,-111.586226,Country Club Dr
216,35.199037,-111.589992,N Continental Dr/N Timberline Rd
472,35.191224,-111.632755,/E Butler Ave
160,35.154912,-111.671523,S Topaz Rd/E Agate Ct
185,35.214427,-111.620140,N Center St/E Felice Ave
160,35.381562,-112.162307,Buck Mountain Rd/State Hwy 64
2114,36.916003,-111.456718,/Lake Powell Blvd
305,36.905594,-111.466713,O Neill Loop/Sunset St
160,36.294684,-111.452330,US Hwy 89
185,36.137697,-111.169393,Jackson Jensen Dr/Navajo Trl
185,35.270255,-111.545976,Hart Rd
305,36.123441,-111.238633,/Bancroft St
605,35.184219,-111.664957,W University Ave
276,35.173683,-111.668875,/W University Heights Dr N
160,36.012739,-111.395378,/US Hwy 89
579,36.138067,-111.225457,Coalmine St
160,35.165773,-111.682254,Cox Ave
499,35.199780,-111.575203,/E Bear Paw Dr/E Settlers Run Rd
160,36.851605,-112.290574,US Hwy 89 Alt
160,35.175436,-111.687404,W Kiltie Ln
160,34.830578,-111.769315,Panorama Ln/Cathedral Ln
185,35.398719,-111.576727,US Hwy 89
160,36.386723,-111.522038,/US Hwy 89
216,35.272369,-111.544189,US Hwy 89/Blueridge
160,35.260150,-111.524705,Koch Field Rd
246,36.130442,-111.219018,Honovi Dr/East Dr
185,36.893930,-111.444490,Copper Mine Rd/E Frontage Rd
334,35.212736,-111.577862,/N Country Club Dr
185,35.214386,-111.644069,W Juniper Ave/N Blue Spruce Cir
276,35.218143,-111.576524,I- 40
160,36.322112,-110.939275,/Navajo Trl
305,35.167969,-111.672904,Ardrey Cir/Coy Dr
185,35.257145,-112.165952,Echo Canyon Rd/US Hwy 66
185,35.163053,-111.658501,Walapai Dr/S Yaqui St
185,34.942763,-111.647294,Apache Rd
605,35.184167,-111.667017,/W University Ave
160,36.803236,-111.674965,US Hwy 89 Alt
472,35.188656,-111.668894,/S Woodlands Village Blvd
185,35.176780,-111.682880,W University Heights Dr S
185,35.242022,-111.534317,/E Rolling Hills Ln
160,35.253908,-112.193986,/W Edison Ave
1174,35.214097,-111.598570,/I- 40 Bus
276,34.843399,-111.774191,Chavez Crossing Rd/State Hwy 179/S State Rte 179
160,35.215327,-111.632572,N Gemini Dr
2678,35.174138,-111.664161,S Beulah Blvd/S Woodlands Village Blvd
160,36.047270,-112.128362,Clinic Rd
305,36.055473,-112.117902,/Yavapai Rooms W/Village Loop Rd
185,36.066808,-112.146214,W Rim Dr
1252,35.176803,-111.659381,/Pine Knoll Dr
276,36.904065,-111.465316,Amado/Amado St
185,34.811648,-111.764856,State Hwy 179
185,35.193973,-111.735427,I- 40
334,36.923664,-111.449973,10th St//Sage Ave
160,35.222438,-112.247150,I- 40
736,36.127470,-111.224480,Warrior Dr
160,34.937686,-111.635456,Meadow View Ln//Pine Trail Rd
160,35.275923,-112.187065,Airport Rd
276,36.904563,-111.473666,/Hawk Ct/San Francisco St
216,35.191501,-111.666058,/W Kaibab Ln
216,35.237386,-111.574400,E Hollygreen Dr/N Christmas Tree Ln
7696,35.190165,-111.657154,S Knoles Dr/Mc Creary Dr
1381,35.171758,-111.665842,S Beulah Blvd//Beulah Blvd
1149,36.130087,-111.239873,Main St
185,34.945749,-111.653324,N Lodge/N Lodge Dr
185,35.216552,-111.641147,N Meadowlark Dr/Silver Spruce Ave
246,36.915852,-111.469441,Date St//1st Ave/Gum St
216,36.145265,-111.225820,Skyline Dr
160,36.321929,-110.939816,Indian Rte 21/Navajo Trl
160,36.147856,-111.229650,/Bia Rd
2408,35.177858,-111.661335,S Milton Rd
1304,35.195826,-111.654142,W Benton Ave/Mikes Pike
185,35.277910,-111.952571,/King John Rd/E King John Rd
445,35.184217,-111.673056,/W University Ave
160,35.163267,-111.679224,Mt Dell Rd/W Palmer Ave
579,36.125365,-111.229137,Peshlakai Ave
160,34.626142,-111.099110,Green Top Dr/Lumber Mill/Lumber Mill Dr
216,35.218423,-111.601637,N Manor Rd/E Lockett Rd
710,34.857433,-111.762783,Sombart Ln
246,35.218496,-111.576505,/Motel Dr
185,34.871468,-111.631603,/I- 17
160,35.268190,-111.727971,N Lake Trl/W Fort Valley Ranch Rd/Chimney Spring Trl
1667,35.193004,-111.651240,S Leroux St/W Dupont Ave/E Dupont Ave
160,35.222546,-111.621464,N Chinwood Way/E Linda Vista Dr
813,35.197285,-111.652910,W Phoenix Ave
185,36.144408,-111.226373,Castle Rock Dr/Blue Ridge Loop
160,35.360973,-112.166609,/N Eight Mile Blvd/N Kaibab Blvd
216,36.124230,-111.220709,East Dr/Warrior Dr
499,36.904910,-111.466713,Sunset St
3559,35.178175,-111.662966,S Beulah Blvd/
160,35.225227,-111.571732,E Railhead Ave
185,35.174263,-111.670678,Troxler Cir/W University Heights Dr N
216,35.239118,-111.665274,W Noria St/N Crest St
710,36.919387,-111.462290,Vista Ave
185,34.875888,-111.753861,Lomacasi Ln
185,35.187986,-111.670038,I- 40 Bus
216,35.215464,-111.590704,/Huntington Dr
526,35.196748,-111.640552,N George St/E Crestview Ave
216,36.146426,-111.232459,/Main St
185,36.936351,-111.481860,/US Hwy 89
160,34.864144,-111.767433,/Mormon Hill Rd/Sedona Vista Dr
185,35.123001,-111.681161,I- 17
445,35.187893,-111.674145,/I- 40 Bus
891,35.211380,-111.603661,/I- 40 Bus
418,35.206033,-111.645837,W Columbus Ave/
160,35.104334,-111.706208,William Palmer/Link Smith
160,35.222756,-111.606666,N Steves Blvd
499,35.167906,-111.662175,/Anita Ave
185,35.224312,-111.569135,Test Dr
160,35.201625,-111.407310,/I- 40
579,35.201732,-111.632410,E Ponderosa Pkwy/N Locust Dr
276,35.253290,-111.555854,E Northgate Loop/
185,35.264437,-111.705101,/N Fort Valley Rd
160,35.247178,-111.542241,/N Rain Valley Rd
160,35.204645,-111.645136,E Sullivan Ave
185,35.269573,-111.520779,Silver Saddle Rd
160,36.876255,-111.500958,US Hwy 89
160,36.126329,-111.242005,Hadley Dr
362,35.249977,-112.194155,N 7th St
185,36.114286,-111.224099,State Hwy 264
160,34.330069,-110.776636,/Rim Rd
160,35.233753,-111.671341,N Nelson Dr/W Wilson Dr
305,35.212075,-111.642286,N San Francisco St/W Oak Ave/E Oak Ave
160,35.229072,-111.570049,N Dodge Ave/E Commerce Ave
246,35.216529,-111.599699,N Thomas Dr/Elder Dr
185,35.298490,-111.542699,Henry Dr//US Hwy 89
160,35.281268,-111.517786,Tradition Rd/N Legacy Ln
160,36.518866,-111.596103,US Hwy 89
185,35.182450,-111.640266,S Maricopa St
160,35.104238,-111.695330,Edward Ayer
445,35.201224,-111.647433,W Dale Ave/E Dale Ave/N Leroux St
160,34.999895,-111.737591,N Hwy 89A
216,36.926056,-111.455928,11th Ave/Grandview St
390,35.196135,-111.624603,I- 40 Bus
445,35.183721,-111.643072,E Woodland Dr/S Maricopa St
579,35.249381,-112.191702,N 5th St/W Bill Williams Ave/S 5th St
160,36.950088,-112.526387,US Hwy 89 Alt
216,34.933047,-111.649324,I- 17
1433,35.216899,-111.594921,/E Lockett Rd
246,35.256703,-111.554372,Elden Hills Dr
160,35.205568,-111.577626,N Country Club Dr/N Fairview Dr
246,35.189019,-111.587863,/E Idlewood Ln
813,36.905991,-111.475082,Kaibab Rd
185,34.944505,-111.634427,Reindeer Dr/Reindeer Pl/Oak Dr
305,35.216210,-111.614518,N 3rd St/E Dortha Ave/N Third St
736,35.200163,-111.649187,/N Beaver St
160,35.650594,-112.136454,US Hwy 180
160,34.829662,-111.769306,Panorama Ln
216,35.205175,-111.616418,E 1st Ave
390,35.207103,-111.600216,E Soliere Ave/Fox Lair Dr
160,35.265025,-111.549157,E Cullum Ln
3197,35.188414,-111.650225,Mountain View Rd/
160,34.942453,-111.643115,Apache Rd
185,36.896335,-111.471518,/Elk Rd
418,35.175174,-111.669588,I- 40
160,36.132361,-111.249088,Maloney Rd/Arizona Blvd
160,35.204198,-111.583009,N Oakmont Dr/N Olympic Dr
185,36.122446,-111.238400,/Maloney St
2221,35.175131,-111.666400,S Woodlands Village Blvd
305,35.168695,-111.672494,W University Heights Dr S/Coy Dr
160,35.235894,-111.673331,N Snow Cap Way/W Cooper Dr
1407,36.920291,-111.463539,/N Lake Powell Blvd
276,36.902798,-111.459030,Newburn Rd
160,36.816929,-111.631003,US Hwy 89 Alt
418,35.210154,-111.613459,N 4th St/5th Ave
160,35.222449,-111.596788,E Ascona Way
276,34.858116,-111.761549,Arroyo Sienna Dr/Royal Glen Ln
160,35.222981,-111.589347,E Philip Ave/N Hamblin St
362,35.210822,-111.639935,E Forest Ave/N Turquoise Dr
160,36.591936,-111.083018,Indian Rte 6331
445,35.187803,-111.680745,I- 40 Bus/RR Spring Blvd
418,35.207671,-111.614047,E 3rd Ave
216,35.235122,-112.227280,/I- 40
362,35.169442,-111.668854,S Litzler Dr
160,35.197893,-111.659110,W Coconino Ave/S Spring St
334,35.206417,-111.617027,E 2nd Ave/N 1st St
305,36.124359,-111.228180,Tumbleweed Dr
472,34.865597,-111.764934,Brewer Rd
216,36.906236,-111.466003,Manson/Packer Ct
160,35.203615,-111.639494,N Canyon Terrace Dr/N Switzer Canyon Dr
276,35.216215,-111.620142,N Center St/E Dortha Ave
160,35.202315,-111.410693,I- 40
160,35.217933,-111.654204,Hereford Dr/Meade Ln
2435,35.175004,-111.666117,/S Woodlands Village Blvd
216,36.139152,-111.239703,/Main St
276,35.245031,-111.564441,Townsend-Winona Rd
160,35.201887,-111.419394,I- 40
246,36.140463,-111.239679,Main St/Grand View St
390,36.903506,-111.458995,/Newburn Rd
1278,35.249269,-112.193790,W Railroad Ave/N 7th St
216,35.200316,-111.637990,N Otto Dr/N Forest View Dr
160,35.166485,-111.660431,S Elena Dr/Pima Dr
160,36.700687,-111.444622,Indian Rte 20
605,36.050710,-112.136796,Mohave St
2088,35.188434,-111.652042,Mountain View Rd
160,35.204740,-111.581899,N Saddleback Way/E Palomino Ln
246,35.200511,-111.602139,E Finch Ln/N Foxglenn St
160,36.146498,-111.222538,Castle Rock Dr/Skyline Dr
160,36.893937,-111.385498,/State Hwy 98
216,35.221658,-111.620096,N Monte Vista Dr
185,35.188405,-111.687083,I- 40 Bus
160,35.239631,-111.673731,N Peak View St/N Fort Valley Rd
216,34.943758,-111.656397,I- 17
216,34.853101,-111.763928,Marguarite Dr
276,35.167489,-111.665281,High Country Trl
216,35.100516,-110.982171,/I- 40
1123,35.974045,-112.127580,Quality Ln
216,35.215532,-111.644706,N Beaver St/W Pine Ave
445,36.056300,-112.135592,/Navajo St
216,35.166705,-111.669897,I- 17
246,35.209022,-111.606403,N Vickey St/E Industrial Dr
160,35.240941,-112.053715,Jolly Rogue Ln/Minstrel Dr
160,36.992458,-111.488862,/Scorpion Pl
185,36.052321,-112.105478,S Entrance Rd/E Rim Dr
185,35.236369,-111.570977,E Indian Dr/N Harvest Rd
362,35.193529,-111.647118,S O'Leary St/E Brannen Ave
11289,35.185041,-111.655278,/Runke Dr/University Dr
185,35.108259,-111.699002,Bessie Kidd Best
160,36.922946,-111.452375,Redrock St/Juniper Ave
472,35.225300,-111.580086,Market Pl//Spur St
160,35.239618,-111.674422,N Fort Valley Rd
334,35.176937,-111.648202,S Lone Tree Rd
185,36.992970,-111.488275,/Scorpion Pl
185,35.170691,-111.663175,I- 17
305,35.208087,-111.609877,I- 40 Bus
160,35.202341,-111.420030,I- 40
305,35.260437,-112.193365,N Grand Canyon Blvd
160,36.148439,-111.231213,Bia Rd
4324,35.191313,-111.660326,Milton Rd
1381,35.250015,-112.188155,S 2nd St
160,35.189291,-111.376054,I- 40
216,35.098304,-110.961183,I- 40
160,34.818636,-111.772028,State Hwy 179
418,35.179554,-111.678707,S Adobe Ln/W Legend Trl
185,35.201323,-111.599747,E Hawk Ln/N Deer Crossing Rd
865,36.918884,-111.459820,Lake Powell Blvd/N Navajo Dr
185,34.878102,-111.637038,/I- 17
216,35.230725,-111.675111,N Kramer St/N Fremont Blvd
160,35.882820,-111.524693,State Hwy 64
246,35.237297,-111.669818,W Brenda Loop/N Fremont Blvd
160,36.815940,-111.639472,/US Hwy 89 Alt
160,35.223599,-111.624378,E Park Way
305,35.170410,-111.669525,Hunter Pl
160,35.237914,-111.426466,/Leupp Rd
160,35.223602,-111.611554,Stone Crest St/E Andes Dr
160,35.192339,-111.591442,E Firestone Ln
160,36.127368,-111.247925,/Maloney St
865,35.194421,-111.628173,Enterprise Rd
710,35.233381,-111.576027,US Hwy 89/N Smokerise Dr
216,36.141445,-111.228882,/Bia Rd
160,35.214851,-111.610666,N King St/Heidi Loop
160,36.589204,-111.083614,Unname Rd
160,35.158734,-111.664616,E Twelve Oaks Dr/S Emerald Forest Dr
216,35.991953,-112.123260,US Hwy 180
216,35.299379,-111.001516,/Leupp Schools Rd/Lsi Rd
160,35.157172,-111.670154,S Bedrock Trl
160,36.143450,-111.237603,E Juniper Dr
185,36.930595,-111.455643,17th Ave
334,35.187441,-111.668636,S Woodlands Village Blvd
362,35.228661,-111.578686,/M H P
185,35.256975,-112.184879,Boyd St/E Edison Ave
160,35.328401,-111.545523,US Hwy 89/
160,35.217996,-111.608684,N Patterson Blvd
160,35.268560,-111.550216,Sunset Dr
579,35.191125,-111.645724,E Fuller Way/S Lone Tree Rd
160,35.233162,-111.489110,Princess Ave/N Pinon Blvd
246,35.208884,-111.616470,E 4th Ave/
552,36.904811,-111.467416,/O Neil Loop
185,35.178472,-111.348632,I- 40
160,35.144071,-111.649577,Lake Mary Rd/Chisholm Trl
362,36.056771,-112.135533,Village Loop Dr//S Entrance Rd
276,34.893699,-111.641493,I- 17
160,35.109035,-111.720634,N Hwy 89A
276,36.920595,-111.468317,Eagle Dr/Clubhouse Dr
418,35.191980,-111.621840,I- 40/E Butler Ave
891,35.216110,-111.595713,/N Fanning Dr
185,35.274212,-111.542910,Cave Hill Rd
185,35.902810,-111.404254,Dirt Rd
276,36.140325,-111.227120,Sweetwater Dr
276,35.212077,-111.641605,E Oak Ave
334,34.910831,-111.466976,Casa Grande Dr
216,35.091084,-111.696022,Shonto Ovi
334,36.054458,-112.117174,Yavapai Rooms W
216,35.235161,-111.669377,W Brenda Loop/N Fremont Blvd
216,35.240902,-111.597836,/Elden Lookout Rd
246,35.205481,-111.589301,E Moonshadow Ln/N Rio de Flag Dr
160,36.050361,-112.116168,Fir and Pine Loop
216,34.867352,-111.759087,Bear Wallow Ln
216,35.198532,-111.641615,N William Rd/E David Dr
185,36.042274,-112.120734,S Entrance Rd
994,36.127022,-111.224483,Warrior Dr
160,35.220916,-111.470219,N Cosnino Rd
499,36.129123,-111.228855,Yucca Dr/Edgewater Dr
160,35.192917,-111.676512,W Alaska Ave/S Chattanooga St
160,35.202387,-111.654418,W Cherry Ave/N Bonito St
631,36.122651,-111.223995,/Basha Dr
216,36.906922,-111.471593,Elk Rd/S Powell Blvd
3308,35.188403,-111.649221,Mountain View Rd/
160,35.253899,-111.700141,/N Fort Valley Rd
185,34.939041,-111.627863,Pinewood Blvd/Buckskin Cir
160,35.121584,-111.703743,N Hwy 89A
160,35.256316,-111.524733,/Koch Field Rd
472,35.188519,-111.680530,/W Reading Ct
160,35.735214,-112.131084,/US Hwy 180
216,35.254872,-111.541097,N Green Prairie Ln/E Burris Ln
185,36.053136,-112.112879,F St/P St/Trailer Village Rd
246,35.152486,-111.680865,I- 17
445,36.130048,-111.225360,Desert Dr
216,35.181604,-111.680471,S Highland Mesa Rd
160,35.101155,-111.685933,Klagetoh Ovi
216,36.054079,-112.138845,/Apache St
216,34.865260,-111.774541,Montreal Rd
160,36.912187,-111.447790,Sage Ave
216,34.875042,-111.635207,I- 17
160,35.263476,-111.507850,Cowboy Way
216,35.169362,-111.665510,/Lake Mary Rd
160,36.047535,-112.129322,Clinic Rd
185,36.147667,-111.233390,/N Main St
160,35.179338,-111.711635,Lariat Loop/Flagstaff Ranch Rd/Kiltie Ln
160,36.062862,-112.117918,/S Entrance Rd
1772,35.176911,-111.654482,/S Pine Knoll Dr
276,35.200249,-111.642122,E Charles Rd/N James St
334,35.200251,-111.575012,E Bear Paw Dr/E Sundown Loop
160,36.134941,-111.243853,Aspen Dr/Cedar Ave
160,35.006979,-111.738068,/N Banjo Bill Dr/S Banjo Bill Dr/Bear Howard Dr
185,34.956296,-111.676620,I- 17
185,35.220957,-112.289371,I- 40
185,36.036277,-111.830355,/E Rim Dr
185,35.190715,-111.684849,W Zepher Ave
305,36.904916,-111.451032,Buckeye Dr
390,35.212927,-111.603993,N Alta Vista Dr/E Lewis Dr
276,35.207632,-111.618966,N East St/E 3rd Ave
305,36.136382,-111.239770,Elm Ave/Main St
160,35.266135,-111.524657,/Koch Field Rd
160,36.902193,-111.462504,/Via Valdez/Haul Rd
362,35.196736,-111.659750,/Elliot St
499,36.131394,-111.239883,Willow Dr/Main St
526,34.872974,-111.757043,State Hwy 89 Alt Scn
160,35.220912,-111.592843,/E Jacamar Dr
1071,35.194659,-111.659070,Park McCrk Pl/
185,34.943714,-111.647066,Valley Pl
216,35.197311,-111.597239,E Spring Meadows Cir
246,35.184975,-111.688213,S Pais del Norte
185,35.231371,-111.672410,N Fremont Blvd/W Foot Hills Way
185,35.309982,-111.542947,/Sunflower Ln
216,35.899258,-111.405565,US Hwy 89
160,34.878004,-111.768577,Coronado Trl
160,35.153856,-111.688723,FS Rd 532//Purple Sage Trl
185,34.936448,-111.628280,Lake O Dell Pl/Raintree Rd/Rain Tree Rd
160,35.190636,-111.671093,Snow Mass St
3419,35.174179,-111.663956,S Beulah Blvd/S Woodlands Village Blvd
216,36.816447,-111.637062,US Hwy 89 Alt
160,35.452157,-111.562831,US Hwy 89/
216,35.105159,-111.687298,Tolani Trl/Tovar Trl
246,34.826385,-111.778614,Back O Beyond Rd/State Hwy 179/Indian Cliffs Rd
185,35.123227,-111.680950,I- 17
185,34.876135,-111.761926,Navahopi Rd/Van Deren Rd
1850,34.871552,-111.759303,Apple Ave/State Hwy 89 Alt Scn
246,35.256444,-112.184134,/N Locust St
246,35.255827,-111.560242,/E Reata Rd
216,36.014767,-111.395722,/US Hwy 89
160,35.185015,-111.710143,/S Flagstaff Ranch Rd
216,35.193560,-111.644845,E Brannen Ave
276,35.169884,-111.665890,/Lake Mary Rd
160,36.126566,-111.239314,/Hadley Dr
390,35.243027,-111.479546,/Resistol Way
185,35.105637,-111.031597,Meteor Crater Rd
305,36.136678,-111.226601,Sandspring St
246,35.206405,-111.620603,/E 2nd Ave
917,36.906724,-111.475075,/Kaibab Rd
185,35.187052,-111.712958,I- 40
160,35.234735,-112.229030,I- 40
499,35.181883,-111.647051,Pso del Flag/S Pinegrove Rd
305,35.210713,-111.615884,E 6th Ave/N 2nd St
305,36.052976,-112.141836,Boulder St//Coconino St
216,36.907592,-111.469178,Cemetery Rd/S Powell Blvd
160,35.202960,-111.598476,N Rain Tree Rd
185,35.141818,-111.646959,/Chisholm Trl/S J Diamond Rd
160,35.205245,-111.581629,N Saddleback Way
1746,35.197153,-111.654306,I- 40 Bus
246,36.923508,-111.454262,10th St/Gunsight St
185,35.302240,-110.999222,/Indian Rte 1310
246,36.790454,-111.684734,/Vermillion Cliffs Dr
185,35.247840,-111.977954,I- 40/Kaibab Ln
185,35.196491,-111.740619,I- 40
246,36.928056,-111.456693,Grandview St/12th Ave
160,35.230833,-111.572418,E Empire Ave
160,35.425492,-111.569770,US Hwy 89/Sacred Peaks Trl
216,34.942361,-111.652169,Bedrock Blvd
185,36.903488,-111.471559,Elk Rd
160,35.052078,-111.682544,Kelly Canyon Rd/I- 17
445,36.918909,-111.462702,Vista Ave
160,36.786516,-111.688875,Honeymoon Trail Rd
334,36.145709,-111.223455,Canyon Way
160,35.202108,-111.467287,/I- 40
160,35.192356,-111.676605,S Chattanooga St/W Topeka Ct
362,36.912972,-111.458901,S Navajo Dr/5th Ave
185,35.199946,-111.583075,N Pine Tree Ln/N Cypress Point Dr
216,35.253294,-111.556854,US Hwy 89
160,35.246331,-112.192809,/S 7th St
216,35.166969,-111.665353,High Country Trl
160,35.216894,-111.607761,N Jamison Blvd/Elder Dr
160,36.051968,-112.111248,Trailer Village Rd/N St
552,36.907810,-111.482524,US Hwy 89
160,36.949100,-112.526381,/Brown St/US Hwy 89 Alt
160,35.127320,-111.687856,Pine del Dr/Ponderosa Dr
216,34.330487,-110.797574,Payson-Heber Hwy
185,35.987244,-112.123204,/US Hwy 180
216,36.122237,-111.239548,/Maloney St
2841,35.188547,-111.648522,Mountain View Rd/
185,35.263753,-112.179292,/I- 40
160,35.203182,-111.572260,N Walnut Hills Dr/E Old Walnut Canyon Rd
390,35.210517,-111.657847,N Kinlani Rd/N Kittredge Rd
246,35.218430,-111.603803,/E Lockett Rd
160,35.201607,-111.580553,N Oakmont Dr
334,36.911269,-111.464639,Cottonwood Ct/S Navajo Dr
185,34.866522,-111.773664,State Hwy 89 Alt Scn/Rolling Hills Rd
185,35.667815,-111.511037,US Hwy 89
160,35.217908,-111.657730,Meade Ln/N Kittredge Rd/N Kitteridge Rd
160,35.243790,-111.684756,/Forest Hills Dr
185,35.256494,-112.186369,Airport Rd/E Edison Ave
160,36.942922,-112.525870,Lukus Ln/US Hwy 89 Alt
305,35.201291,-111.423066,I- 40
276,35.218433,-111.604711,/E Lockett Rd
276,35.190073,-111.679742,W Pennsylvania Ct
418,36.061855,-112.109688,/S Entrance Rd
276,35.256022,-111.743275,W Suzette Ln//Suzette Ln
160,35.221141,-111.625022,E Hillcrest Dr
185,34.831946,-111.777075,State Hwy 179
526,35.193651,-111.635175,/I- 40 Bus
216,35.175796,-111.688779,W Kiltie Ln
418,34.918755,-111.731329,/N Hwy 89A
160,34.946496,-111.653324,/Jan Ct/Janice Pl
185,34.910867,-111.465903,Clover Dr/Iris Dr
160,36.110789,-111.219315,State Hwy 264
185,36.649618,-110.761857,/Indian Rte 16
160,35.232479,-111.810519,W Slate Mountain Trl
216,36.123301,-111.236470,/Bancroft St
185,35.200318,-111.591179,Burning Tree Loop/Burning Tree Ln/N Rio de Flag Dr
160,34.935260,-111.649225,I- 17
160,35.356478,-112.208910,/Buckridge Dr
246,35.206416,-111.614621,N 3rd St/E 2nd Ave/E Spruce Ave
418,35.213486,-111.606808,E Burkhart Dr/N Steves Blvd
276,35.212240,-111.657135,N Conifer Rd
362,35.184481,-111.647286,Ponderosa Pl
185,35.183787,-111.686792,W Pollo Cir
390,35.191903,-111.620918,I- 40/E Butler Ave
216,35.255526,-112.010569,I- 40
579,35.202276,-111.650700,N Kendrick St/W Dale Ave
160,36.424562,-110.790216,Navajo Trl
