Estimated daily crossings,Latitude,Longitude,Name
185,37.045960,-93.310757,Osage Dr
305,37.082649,-93.296813,Calhoun Ln
865,37.023344,-93.230861,/N 20th St
362,37.028484,-93.324555,S Curtis/Butterfield Dr
305,37.033464,-93.210432,/N 9th St
185,37.033194,-93.201552,Country Crest Rd
276,37.058746,-93.207415,Sunset Rd
160,37.008632,-93.185668,S 19th Ave
362,37.056555,-93.281070,Walleye St/
276,37.008241,-93.187361,S 18th Ave/E Cherokee Ct
216,37.051354,-93.294402,W Aven Ave/N Main St
160,37.037133,-93.314273,Sterling
185,37.016746,-93.135749,State Hwy Jj/Chelsea Ln
185,37.069235,-93.191709,State Hwy Nn/N Pheasant Rd
305,37.065153,-93.294039,N Main St
246,37.025435,-93.182133,McCracken Rd
390,37.060051,-93.294168,Aldersgate Dr/N Main St
185,36.978506,-93.285787,Sugar Pine Dr
185,37.027299,-93.325003,S Foxx Dr
305,37.048726,-93.216311,/N Weaver Rd
185,37.079973,-93.325664,/Cole Alan Ct/Nicholas Rd
160,37.018353,-93.242774,Unnammed Rd
334,37.027331,-93.237401,W Jonquil
185,37.030268,-93.235872,N 24th St
276,37.007257,-93.186955,E Hartley St
276,36.997936,-93.187386,S 20th Ave
160,36.824430,-93.239512,Vista Ln
334,37.041080,-93.293696,Meadowlark St/Glenn St
216,36.872654,-93.230826,US Hwy 65
246,37.083027,-93.295757,/N State Hwy CC
160,37.075862,-93.274152,N Deer Ln
160,37.002706,-93.081742,Persimmon Dr
276,37.056461,-93.280632,Taylor Way/E Weldon Dr
185,36.932848,-93.280751,Highlandville Rd/Kentling Ave
160,37.083918,-93.304262,Seabrook Dr/Lorenza Dr
276,37.040926,-93.265333,N Cheyenne Rd/W Jackson Rd
305,37.027535,-93.211072,W McCracken Rd/N 9th St
276,37.025792,-93.309485,S Hackberry Ave/Hickory Ln
160,37.010419,-93.185068,East Ct
216,37.034821,-93.330700,Chapel Hill Ct/Woodcastle Rd
276,37.034019,-93.326951,S Nicholas Rd
160,37.023565,-93.211949,N 10th St
160,37.048101,-93.281371,Gasconade Cir/Gasconade Ct/Gasconade St
160,37.007110,-93.182863,E Hartley Rd
185,37.053923,-93.277124,N Rockingham Ave/Roubidoux
160,37.060080,-93.313123,Kathryn St/Falcon Crest Ct
160,37.092745,-93.375519,/Old Mill Rd
160,37.003907,-93.333938,Alice Gayle Cir
160,37.077929,-93.228634,/N 19th St
305,37.063809,-93.252750,Olympic Cir/Interlochen Dr
216,37.040733,-93.213620,State Hwy Nn/W Stonehill Rd
216,37.043666,-93.325549,State Hwy 14
160,36.990828,-93.244861,/Riverdale Rd
276,37.067482,-93.552725,NW Jefferson Ave/NE Elm St
160,36.983909,-93.224037,Nebraska Dr/Dakota
160,37.079877,-93.233275,Estes Dr//N 23rd St
246,37.039240,-93.236064,N Jamestown St
160,37.065506,-93.313148,W Tracker Rd
185,37.011913,-93.204160,S 3rd Ave/E Robin St
185,37.000946,-93.069538,State Hwy 125
362,37.033122,-93.199436,Country Crest Rd
216,37.042886,-93.282410,E Spring Valley Cir/E Mount Vernon St
390,37.064044,-93.211935,Brookshire St/9th St
160,37.011552,-93.049551,Villa Dr/State Hwy 14
160,37.063118,-93.250966,Myopia Dr
160,37.067216,-93.262804,Park Haven Rd/Green Haven Dr
216,37.031070,-93.210947,N 9th St
160,37.074263,-93.199242,/N 6th Ave
160,37.057228,-93.292813,Jones Ct/Slim Wilson Blvd
246,37.044500,-93.294658,State St/N Main St
185,37.039177,-93.237511,N 25th St
390,37.022086,-93.320764,Great River Dr
160,37.071848,-93.084297,S Elm Grove Rd
185,36.851739,-93.313060,Pearl Ln/Beryl Rd
362,37.025468,-93.225151,W Diane St
160,37.035723,-93.278370,Elegant/E Diamond Ave
160,36.972391,-93.283741,US Hwy 160 S/Rescue Rd
185,37.050376,-93.317295,N Gregg Rd
185,37.045793,-93.329896,Westminster Dr/Norfolk Ave
185,37.047695,-93.311885,Hickory Ct
418,37.001194,-93.083912,North Ave/Main St/South Ave
160,37.040627,-93.207656,/W Stonehill Rd
246,37.039964,-93.303232,/W South St
160,37.090890,-93.173220,E County Line Rd
160,36.972459,-93.283381,Highlandville Rd
160,36.863637,-93.230592,Busiek Rd
185,36.999773,-93.194924,E Rainey St
216,37.041965,-93.328152,Amy Ln/Hi - Mac Rd
160,36.984983,-93.293755,Finley Dr
160,37.064533,-93.219168,Cobblefield Way/State Hwy Nn
276,37.091182,-93.231069,US Hwy 65
334,37.059632,-93.556777,Garrison St/W Howcroft Ave
216,37.042908,-93.241813,N 28th St/W Highpoint Cir
160,37.038748,-93.319720,Mockingbird Ln/Care Ave
246,37.085089,-93.230314,US Hwy 65
305,37.024578,-93.224856,/W Jackson St
216,37.045812,-93.330421,S Carlisle Dr/Norfolk Ave
305,37.073328,-93.198924,E Shoreline Dr/E Sandpiper Dr
390,37.038091,-93.281528,Notting Hill Gate/Tiffany Blvd
552,37.023545,-93.228837,W Jackson Rd/US Hwy 65
246,37.058785,-93.294460,Hunter Dr
160,37.074587,-93.192194,N 13th Ave/E Chesapeake Dr
246,37.045399,-93.281708,Jack's Fork
160,37.054601,-93.305167,Northview Rd
185,37.055804,-93.197573,/Indian Valley Rd
160,37.060084,-93.286519,Thorn Hill
160,37.071136,-93.260169,State Hwy CC
216,37.021604,-93.204441,E Brick St/N 2nd Ave
276,37.012026,-93.182526,E Wren
276,37.041098,-93.294819,S Main St/Glenn St
276,37.006226,-93.216958,W Kirkwood St/S Treetop Ct
216,36.959180,-93.231779,US Hwy 65
305,37.019236,-93.205129,W Walnut St/S 1st St/E Walnut St
160,37.044451,-93.242842,29th St
160,37.033206,-93.295028,S Main St
762,37.054611,-93.303496,Northview Rd/N Massey Blvd
185,37.015597,-93.307157,/Woodbine Rd
160,37.068549,-93.245989,Fremont Rd/Calabash St
160,37.050308,-93.280723,North St
160,37.042424,-93.291096,Elm St/S Market St
185,37.067874,-93.553219,NW Jefferson Ave
185,37.004471,-93.217635,/US Hwy 65 Bus
160,37.053820,-93.210917,School St/N 10th St
185,37.001276,-93.184678,E Overland Dr/S Thomas Dr
276,37.065580,-93.304480,Middle Sex Rd/W Tracker Rd
160,37.022303,-93.405272,/Willoughby Rd
552,37.023804,-93.227858,/W Jackson St/W Jackson Rd
185,37.062283,-93.287835,E Katella Cir
216,37.068012,-93.225828,Boat St
160,36.984599,-93.293316,US Hwy 160 S
160,37.060628,-93.560912,SW Elm St
185,37.045102,-93.298187,State St/N Fort St
160,37.022923,-93.465533,E Grant St/State Hwy K
185,37.046762,-93.308984,Bluebird Ln/N Truman Blvd
160,37.066846,-93.215564,N 13th St/Turnberry Blvd
276,37.009941,-93.196071,Summerhill/S 11th Ave
185,37.074460,-93.236919,W Deerbrooke Trl
246,37.069919,-93.549673,NE Elm St
185,37.045921,-93.329357,N Richards Castle Dr/Norfolk Ave
160,37.061228,-93.184884,E Lakecrest Dr
160,37.033444,-93.295651,Hillside Dr
160,37.042807,-93.440185,/Same Place Rd
160,37.027666,-93.295168,Mills Rd/S Main St
276,37.066358,-93.249157,Scioto Dr
160,37.066380,-93.312304,Owen Rd
246,37.065137,-93.223827,W Hopedale Ct/N 17th St
160,37.023161,-93.207541,N 4th St
362,37.067036,-93.221452,Lloyd
160,37.012054,-93.351213,Riverbend Pkwy/River Bend Ct
185,37.013238,-93.206654,S 3rd St/W Wren St
160,36.982705,-93.292101,Jones Rd
216,37.035767,-93.281712,S Eastridge
216,37.001906,-93.091336,Wilson Ct
334,37.029677,-93.251074,/W Jackson Rd
160,37.078474,-93.286648,East Rd
246,37.001908,-93.199170,S 10th Ave/E Bain St
160,37.077826,-93.239641,N 27th St/Hackamore Cir
305,37.042707,-93.310591,/Truman Blvd
185,37.070964,-93.213368,W Red Ln
160,37.064992,-93.191825,Stonebrook Rd/N Pheasant Rd
246,37.042331,-93.299887,Fort St/Jeff St
160,37.032843,-93.332059,W Old Bittersweet Way/Old Bittersweet Ct
305,37.007273,-93.187416,E Hartley St/S 18th Ave
160,37.077235,-93.184671,Buck Run
160,37.077717,-93.191261,State Hwy Nn
216,37.041589,-93.291134,St Louis St/S Market St
185,37.073691,-93.199703,E Shoreline Dr/N 6th Ave
160,37.039722,-93.472954,State Hwy P
813,37.072208,-93.226186,/W James River Rd
216,37.031315,-93.203734,/Finley River Pkwy
185,37.048714,-93.215971,N Weaver Rd
185,37.009529,-93.220396,S 16th St/W Patricia
160,37.047900,-93.241780,W Oak Run
185,36.836676,-93.218943,US Hwy 65
160,37.058647,-93.201139,E Sunset Rd
185,37.066970,-93.195911,E Cobblestone Dr
390,37.055018,-93.293674,Frank St/E Dale St
185,37.051995,-93.309992,Elderberry Ln/Morning Glory Dr
160,37.021590,-93.203522,E Brick St
499,37.043150,-93.283847,E Spring Valley Cir/Ridgecrest/E Mount Vernon St
276,37.091844,-93.297763,N Massey Blvd
160,37.039552,-93.260240,/W Jackson Rd
185,37.031193,-93.223420,N 16th St
160,37.004319,-93.335607,Oak Hill Ct
160,37.014163,-93.309289,Rosedale Rd
160,37.025858,-93.130939,State Hwy Jj
185,37.025573,-93.188530,E McCracken Rd/
160,37.030921,-93.479783,Spruce Ave/Sugar Ln
185,37.038800,-93.314738,Ace Ct
185,37.022445,-93.226587,N 17th St
276,37.052165,-93.274881,Alexandria/Montarosa
334,37.063519,-93.210654,W Brookshire Ct
185,37.084038,-93.303028,N Gregory Dr/Lorenza Dr
160,37.014163,-93.309253,/Norton Rd/Rosedale Rd
160,37.071639,-93.209999,Blue Stem Rd
185,37.077192,-93.191266,State Hwy Nn
216,36.979133,-93.230047,/Selmore Rd
305,37.059936,-93.219294,/State Hwy Nn
160,37.070349,-93.236083,State Hwy CC
305,37.065563,-93.297013,/W Tracker Rd/Kinder St
160,36.993199,-93.184800,S 21st Ave
246,37.001601,-93.086128,Linden Ave
216,37.049665,-93.270766,N Jerico St/E Mc Cauley Farm Rd
216,37.038704,-93.300607,Patricia Ave S/Lee
160,37.089580,-93.110840,E County Line Rd
160,37.050283,-93.279892,Maplewood Hills Dr/Twin Maple Ct
305,37.028868,-93.233122,(Unnamed)
216,37.059360,-93.297851,Deerfield Dr
160,36.911423,-93.251658,Winniger Rd
160,36.922182,-93.225928,Garnet Rd
305,37.027706,-93.231959,N Missouri Dr/W Bingham
160,36.914664,-93.286691,/Glossip Ave
185,37.031523,-93.201992,N Riverside Rd
185,37.084906,-93.353031,W Patton Pl/Phillips Rd
160,37.038720,-93.310182,Heather Glenn/Truman Blvd
160,37.048457,-93.317437,N Gregg Rd
160,37.009335,-93.186771,West Ct
160,37.076609,-93.298249,Magnolia Ln/N Pine St
216,37.005331,-93.217000,S Treetop Ct/W Waverly
185,37.066861,-93.279264,Rockingham/E Donegal Cir
160,37.014014,-93.182886,S 21st Ave/E Jay
160,37.091215,-93.185682,/E County Line Rd
160,37.023880,-93.254717,Kimber Rd/N 38th St
684,37.054609,-93.303733,Northview Rd/N Massey Blvd
160,37.039609,-93.212129,Harpers Hill Rd
216,37.042081,-93.310693,/Truman Blvd
246,37.046199,-93.311857,Osage Dr/Osage Ct
216,37.039522,-93.316351,Danie Dr/Wesley Ave
390,37.065580,-93.304118,W Tracker Rd
160,37.089580,-93.110750,E County Line Rd
305,37.081634,-93.300699,Meadowview Dr/Deffer Dr
160,37.075321,-93.417422,State Hwy Zz
160,37.029149,-93.335144,W Gooch Rd
185,37.002953,-93.194581,S 13th Ave
185,37.068828,-93.320810,Marble Dr
160,37.048327,-93.246835,N Fremont Rd
216,37.056634,-93.222435,/W Lifecare Cir
276,37.047096,-93.288199,Knight St/Cherry St
418,37.004707,-93.094785,Sugar Tree Rd
276,37.032208,-93.223914,Crossland St
160,37.058692,-93.205708,E Sunset Rd
185,36.996422,-93.189074,E Warren Ave
216,37.037783,-93.234477,W Richwood Rd/N Williamsburg Ln
472,37.024269,-93.227215,N 18th St
216,37.008559,-93.188579,E Sycamore St/S 17th Ave
160,37.017380,-93.228897,US Hwy 65
276,37.062140,-93.295314,Viola St
390,37.066131,-93.221817,N 16th St
160,37.039047,-93.197143,/E Ridge Ct/N 10th Ave
160,37.044018,-93.485135,Durango Ln
185,37.002382,-93.202347,S 6th Ave
185,37.051423,-93.297138,W Aven Ave/Fairway
185,37.055777,-93.242685,W McGuffey St/N 28th St
305,37.005740,-93.215985,W Kirkwood
362,37.043197,-93.285102,Eastwood Dr/E Mount Vernon St
185,37.010720,-93.196042,/S 11th Ave
160,37.057858,-93.296332,Fairway Ct
185,37.092673,-93.385679,Lakeview Dr
160,37.061890,-93.285392,Arlington
246,37.080580,-93.313378,/Meadow Lane Dr
334,37.040417,-93.302400,Massey Blvd
276,37.070656,-93.211696,N Green Ln
246,37.040729,-93.279943,E Crimson Ave/Tiffany Blvd
160,36.854980,-93.312435,US Hwy 160 S
160,37.083685,-93.302311,English Village Park
246,37.067026,-93.258450,Pine Haven Rd/E Green Haven Dr
185,37.021759,-93.332909,W Inman Rd
160,37.031324,-93.194025,E Fieldstone Dr/N Freehold Dr
160,37.018977,-93.242329,Baird Rd
185,37.061850,-93.184875,E Lakecrest Dr/Cardinal Rd
246,37.004901,-93.230660,/State Hwy F
160,37.055506,-93.221141,W Garton Rd
216,36.996363,-93.187441,S 20th Ave/E Warren Ave
160,37.088308,-93.334628,Shoemaker Dr/Preakness Dr
160,37.069581,-93.203152,State Hwy Nn/N 2nd Ave
160,37.071631,-93.262202,State Hwy CC
216,36.994152,-93.218055,S Lilac St
160,37.064571,-93.219167,State Hwy Nn
334,37.058685,-93.220588,Frosty Dr
305,37.063738,-93.211716,Brookshire St
305,37.065430,-93.218660,W Meadowbrook Dr
160,36.922468,-93.320392,Mayberry Rd
185,37.044108,-93.290272,Pace Ct
579,37.067613,-93.228502,US Hwy 65
216,37.038054,-93.306785,Kendall St/Bailey St
185,37.071201,-93.547576,/NE Elm St
160,37.055523,-93.222819,/W Garton Rd
160,37.050197,-93.299048,Fort Ave/Tower St
276,36.979050,-93.230822,US Hwy 65
185,36.863387,-93.300338,Calabash Dr
160,37.036834,-93.477679,/W Pawnee Ln
160,36.863530,-93.227632,Busiek Rd
185,37.041267,-93.307854,Ellen St
334,37.002404,-93.084659,/Scott St
160,36.903184,-93.232063,Woods Fork Rd
216,37.001287,-93.185228,E Overland Dr
216,37.032487,-93.201736,N Riverside Rd
160,37.019232,-93.204521,E Walnut St/S 2nd Ave
160,37.085168,-93.299284,English Village Park
246,37.075365,-93.184348,E Eagle Rock Dr
216,37.052757,-93.293730,Frank St/Kyle St
216,37.074619,-93.293795,/N State Hwy CC
185,37.002280,-93.138693,/State Hwy 14
276,37.053381,-93.278619,Maplewood Hills Dr/Montarosa
160,37.069139,-93.312192,Owen Rd/Blueberry Ct
185,37.046576,-93.228676,Southgate Dr/N 20th St
216,37.063191,-93.221262,N 15th St
160,36.903931,-93.285396,Hawthorne Rd/Glossip Ave
185,37.067614,-93.275675,Beaufort/Grafton
276,37.072782,-93.184397,E Whetstone
160,37.072836,-93.294585,/Cedar Dr
160,37.019461,-93.428024,Robinson Rd
160,37.049968,-93.280057,North St/Maplewood Hills Dr
246,36.996707,-93.218415,W Meadow St/S 15th St
160,37.003004,-93.300361,US Hwy 160 S
185,37.037422,-93.317666,Gregg Rd
216,37.048595,-93.311201,Briarwood Ln/Persimmon Dr
246,37.034800,-93.313931,Jake Flood Cir
160,37.025660,-93.314099,Birch St
160,36.831796,-93.338224,/State Hwy 176
418,37.065548,-93.303221,N Massey Blvd
216,36.869446,-93.303327,Valley Woods Rd
305,37.028885,-93.233212,(Unnamed)
305,37.003911,-93.093457,Vanilla Bean Rd
216,37.030255,-93.229047,N 20th St
472,37.035885,-93.323453,Glen Oaks Cir
185,37.003934,-93.198145,10th Ave/E South St
185,37.062372,-93.223230,N 17th St
305,37.032849,-93.284107,Ridgecrest Ave/Southridge St
160,37.029601,-93.193335,N Silo Dr/N Farmington Dr
276,37.044318,-93.240473,W Executive Cir/W Trevor Trl
246,37.068639,-93.550646,/Terrill Creek Rd
185,37.032061,-93.221273,/Crossland St
418,37.070038,-93.225866,State Hwy J
185,37.090496,-93.438156,/Double Spring Rd
246,37.092195,-93.297993,N Massey Blvd
216,37.028874,-93.193388,N Silo Dr
160,37.083898,-93.306671,Hollysprings Ave/Lorenza Dr
216,36.943085,-93.231465,State Hwy Ee
216,37.078543,-93.347861,Montana Ct
160,37.017839,-93.609761,US Hwy 60/Staiger Rd
160,37.077056,-93.325689,/Nicholas Rd
246,37.085723,-93.307956,W Rufina Ct/N Tuscany Ln
276,37.012490,-93.345883,Oak Ridge Rd
813,37.043639,-93.302669,State Hwy 14/Massey Blvd/N Massey Blvd
160,37.080282,-93.314832,/Cody Ave
160,37.064529,-93.219053,Cobblefield Way
185,37.077924,-93.184651,/Buck Run
160,37.004340,-93.213396,W South St
160,37.054018,-93.310031,N Elderberry Ln
185,37.018359,-93.195262,E Robertson/Cedar Ln
276,37.031939,-93.220468,N 14th St
216,37.022956,-93.226538,N 17th St
160,37.031790,-93.193841,Country Crest Rd/N Freehold Dr
185,37.032915,-93.284984,S Carriage Xing/Southridge St
552,37.070249,-93.232331,State Hwy CC
246,37.042375,-93.301236,Jeff St/Village Center St
160,37.037847,-93.236004,W Richwood Rd/N 24th St
160,36.946519,-93.232097,US Hwy 65
216,37.081093,-93.349316,Lilly Ln
216,37.063058,-93.253365,Colonial Cir
216,37.038291,-93.276205,E Crystal Ave
160,37.058692,-93.349086,/W Union Chapel Rd
216,37.068919,-93.550988,Terrill Creek Rd/NE Elm St
216,37.046483,-93.329290,N Richards Castle Dr/Berkshire Ave
362,37.077950,-93.230303,N 21st St/Walk on Dr
216,37.070853,-93.488026,Terrill Rd
276,37.023528,-93.206272,N 3rd St/W Farmer St
160,37.035933,-93.197627,E Rock Creek/N 9th Ave
185,37.037130,-93.317673,Sterling/Gregg Rd
160,36.844206,-93.220641,/State Hwy Bb
185,37.000238,-93.195963,S 12th Ave
160,37.034949,-93.201700,N Patriot Dr
160,36.927033,-93.327091,Tory Creek Rd
185,37.045515,-93.295628,Walnut St/Kentwood Ave
185,37.079225,-92.987890,/State Hwy U
160,37.000029,-93.188849,S 18th Ave
216,37.005158,-93.202257,E Waverly St/S 6th Ave
390,37.065707,-93.219135,State Hwy Nn
160,36.932747,-93.053212,Oriole Dr
160,37.000962,-93.071696,State Hwy 125
160,37.049717,-93.310009,Blackberry Ln
246,37.033090,-93.317825,/Gregg Rd
362,37.037728,-93.227405,US Hwy 65
160,37.036697,-93.207162,Blue Grass Rd
185,37.065556,-93.307449,W Tracker Rd
160,37.028991,-93.191699,N 15th Ave
362,37.063278,-93.215915,N 13th St
160,36.904957,-93.284291,/US Hwy 160 S
160,37.037986,-93.285425,Notting Hill Gate/S Carriage Xing
160,36.930657,-93.226759,Garner Rd/Peaceful Pt
160,37.030167,-93.313402,W Pembrook Ave/Pembrook
246,37.033639,-93.317803,Gregg Rd
334,37.070170,-93.195691,/E Torrey Pines Dr/N 10th Ave
185,37.036292,-93.232203,Makenzie
160,37.029651,-93.326966,S Nicholas Rd
160,37.013207,-93.031472,State Hwy 14/Friend Rd
160,37.031124,-93.299405,S Barberry Ct
216,37.065658,-93.323081,W Tracker Rd
216,37.051930,-93.313386,Cascades Dr
246,37.050400,-93.294444,Aven Ave/N Main St
216,37.045373,-93.133436,State Hwy 125 N
160,37.002164,-93.126901,State Hwy 14
160,37.078484,-93.233392,N 23rd St
362,37.065554,-93.296541,W Tracker Rd
160,37.071685,-93.279334,State Hwy CC
445,37.004053,-93.205985,/Selmore Rd
160,37.019002,-93.243132,S 28th St/Baird Rd
160,37.078518,-93.561871,Ayshire Dr
160,36.923828,-93.284676,Glossip Ave
362,37.058685,-93.220379,Frosty Dr
160,37.038417,-93.256278,Richwood Rd/Combs Rd
160,37.089485,-93.319713,/James River Ct
160,37.060097,-93.285671,Thorn Hill
160,37.037702,-93.242091,N 28th St
160,36.991930,-93.216475,Wisconsin Dr/Selmore Rd
185,36.961051,-93.230484,Selmore Rd
160,37.043956,-93.344888,Essex Rd/State Hwy 14 W/Hwy 24
246,37.007411,-93.190650,E Hartley St
472,37.038496,-93.282210,Peachum Pl
160,37.018430,-93.236691,Baird Rd
216,37.026652,-93.314416,Red Maple Ct
160,37.033717,-93.478462,Bradford Pear
185,37.064838,-93.191824,N Pheasant Rd
216,37.070109,-93.199389,E Current Dr/E Current Cir
185,37.001602,-93.202368,/S 6th Ave
160,37.086501,-93.293858,Lake Ln
246,37.070861,-93.197145,E Spring Dr/N 9th Ave
160,37.002150,-93.122392,State Hwy 00
160,36.940069,-93.231915,/US Hwy 65
160,37.056510,-93.304016,Kenneth St/Gerald Dr
160,37.009492,-93.219360,S 15th St/W Patricia
216,37.039187,-93.287459,Kings Carriage Rd/Barnstable
185,37.063056,-93.550042,Cedar St//E Purdy Ave
276,37.063192,-93.229589,N Town Center Dr
216,37.065580,-93.297978,Ashley Dr/W Tracker Rd
160,37.062959,-93.264792,N Cheyenne Rd/Rumson
216,37.030069,-93.261053,/Wildflower Ln
185,37.064605,-93.316911,N Gregg Rd/Irene Rd
185,37.059583,-93.214142,Jenni Ct
160,37.061127,-93.232216,N 22nd St
160,36.994252,-93.086314,S Linden Ave/Wildwood Ln
160,36.960993,-93.232061,/Tatum Dr
160,37.060542,-93.256299,Pasatiempo Dr/Shinnecock Dr
160,37.014144,-93.304638,Rosedale Rd
160,37.006600,-93.193230,E Chandler St/S 14th Ave
185,36.903866,-93.284544,US Hwy 160 S
160,37.008056,-93.434033,Morning Star Rd/Mt Carmel Rd
276,37.024943,-93.212265,W Farmer St
276,37.054604,-93.304576,Northview Rd
305,37.028238,-93.311159,Holly Ct
160,37.072712,-93.292354,State Hwy CC/
185,37.052421,-93.301361,W Lorene St/McCroskey St
185,36.907348,-93.243336,Sawmill Rd/US Hwy 65
216,37.030259,-93.471873,W Brown St/S Mitchell Ave
160,37.068156,-93.259998,Oak Tree Dr/Pleasant Valley Dr
160,36.982587,-93.292079,Jones Rd
160,37.046907,-93.330625,Berkshire Ave/Kent Cir
160,37.009855,-92.928326,/Eagle Dr
246,37.047271,-93.283335,/Piney Ridge
216,37.040573,-93.270311,Timber Pl/W Jackson Rd
276,37.044281,-93.326645,Hwy M
185,37.071105,-93.255613,State Hwy CC
631,37.004147,-93.202291,E South St/S 6th Ave
246,37.022342,-93.206303,N 3rd St/W Hall St
246,37.056350,-93.299581,Tonya St/Breann Ct
246,37.039931,-93.296724,S Thompson St/W South St
185,37.036318,-93.285248,S Carriage Xing/E Gallup Hill Rd
246,37.073141,-93.229518,/N 21st St
160,36.995257,-93.213466,Selmore Rd
362,37.069332,-93.228417,US Hwy 65
160,37.004964,-93.213193,W Windsor St
185,37.079694,-93.287076,E Lindbergh Rd
185,37.052706,-93.292800,Kyle St/N Hill St
185,36.937176,-93.232308,US Hwy 65
185,37.018834,-93.400658,Gerard Rd/State Hwy N
334,37.074482,-93.229679,/N 21st St
305,37.043892,-93.237947,N Scn/N 25th St
305,37.072293,-93.545561,NE Elm St
160,37.038045,-93.210319,State Hwy Nn
185,36.940293,-93.232220,/US Hwy 65
160,37.025804,-93.197216,E McCracken Rd/N 10th Ave
185,36.972544,-93.175906,State Hwy W/Lone Hickory Rd
390,37.032239,-93.198782,E Kimberly/N 8th Ave
160,37.004795,-93.080215,Division St
390,37.047369,-93.302044,McCroskey St/Wasson Dr
710,37.043654,-93.300354,State Hwy 14/McCroskey St
160,37.063092,-93.554183,SW Oak St/E Purdy Ave
160,37.008223,-93.193150,E Sycamore St/S 14th Ave
160,37.051667,-93.243311,N 28th St/N 31st St
160,37.058871,-93.211600,Sunset Rd
276,37.009455,-93.183898,E Samuel J St
160,36.992377,-93.230461,US Hwy 65
160,37.016862,-93.273749,Minnehaha Rd
160,37.090517,-93.519659,/NE Elm St
216,37.067587,-93.210684,Roxbury Ct
185,37.050221,-93.275553,Montclair
160,37.023181,-93.233787,W Jackson Rd
605,37.067481,-93.228198,US Hwy 65
185,37.011623,-93.196243,E Robin/S 11th Ave
160,37.080637,-93.375897,Old Limey Rd/Old Mill Rd
216,37.034128,-93.247245,/N Fremont Rd
160,37.027933,-93.274623,/Muskego Rd
216,37.073316,-93.306931,Julian St/Georgia St
418,37.031742,-93.295456,S Brookwood Ct
185,36.864337,-93.299766,Calabash Dr/Elder Rd
160,36.853138,-93.306879,Reno Hollow Rd/Beryl Rd
276,37.069566,-93.197223,N 9th Ave
160,37.013109,-93.209135,S 6th St/W Wren St
160,37.009273,-93.340370,Smith Hill Rd/S Nicholas Rd
160,37.018666,-93.210194,S 8th St/W Oak St
185,37.074475,-93.237182,N 25th St/W Deerbrooke Trl
160,37.045527,-93.228704,N 20th St
160,37.064411,-93.553558,/SE Hamilton Ave
160,37.002877,-93.446817,/Schupbach Rd
216,37.047041,-93.286986,Hillcrest Ave/Cherry St
390,37.024192,-93.226397,W Jackson St/N 17th St
185,37.046380,-93.243886,W Saratoga/N 30th St
216,37.025636,-93.192772,E McCracken Rd
216,37.039272,-93.307914,S Bryant St/W Bryant
185,36.863290,-93.228050,Busiek Rd/US Hwy 65
216,37.035467,-93.286298,SE Hills Ct
160,37.038541,-93.320134,Mockingbird Ln/Care Ave
160,37.051350,-93.270274,N Jerico St/Tucker Bay Cir
160,36.973903,-93.175838,/State Hwy W
185,37.069494,-93.200437,State Hwy Nn
160,37.061268,-93.559729,W Mount Vernon Rd/Catalina St
185,37.057279,-93.289323,Red Foley Ct/Slim Wilson Blvd
185,37.028305,-93.184682,N 20th Ave/E Highview St/N 21st Ave
362,37.062954,-93.295284,Greenbriar Dr/Viola St
160,37.016749,-93.206630,/S 3rd St
362,37.057335,-93.282045,Ozark Jubilee/Allison
216,36.994896,-93.216975,14th St/W Snider St/S 14th St
216,37.011471,-93.229521,US Hwy 65
160,36.999360,-93.300545,US Hwy 160 S/Rabbit Patch Rd
185,37.030944,-93.202275,N Riverside Rd/Finley River Pkwy
499,37.047378,-93.303199,Wasson Dr/N Massey Blvd
160,37.046858,-93.314490,Osage Dr/Yosemite Ct/Yosemite Dr
246,37.035124,-93.235191,Kendall/N 23rd St
185,37.001324,-93.186409,E Overland Dr
1355,37.070061,-93.223810,State Hwy J/N 17th St
160,37.056858,-93.289002,Slim Wilson Blvd/Chet Atkins Ct/Ozark Jubilee Dr
526,37.026824,-93.228656,/US Hwy 65
185,36.844178,-93.219180,State Hwy A/US Hwy 65
418,37.031228,-93.227736,Westminster Dr/N 18th St
160,37.048216,-93.235457,N 23rd St
185,37.047083,-93.216458,State Hwy Nn
160,37.056705,-93.173716,E Covey Ln
276,37.011048,-93.182844,E Robin
160,37.047077,-93.235932,N 25th St/N 23rd St/N 24th St
185,37.066143,-93.193306,E Lloyd St
185,37.080265,-93.353780,W Syler Rd
185,37.054876,-93.290528,Aspen Dr/Lone Oak Cir/Lone Oak Ave
160,37.084320,-93.167851,Hidden Creek Dr/Heather Dr
160,37.065004,-93.264752,Arrowhead Dr/N Cheyenne Rd/Button Wood Dr
246,37.081671,-93.230196,US Hwy 65
160,37.058613,-93.201390,E Sunset Rd
334,37.044702,-93.317481,N Gregg Rd
246,37.071462,-93.293867,/N Main St
185,36.999762,-93.195954,E Rainey St/S 12th Ave
305,37.014599,-93.200248,S 7th Ave/E Jay St
185,37.049233,-93.213437,N 12th St/W Merlin
160,37.035815,-93.352926,W Country Hill Ln
160,37.065510,-93.313314,W Tracker Rd
334,37.038127,-93.293171,E Church Hill Ct
216,37.005660,-93.214500,S 12th St/W Kirkwood St
276,37.026274,-93.217162,N 13th St/W Diane St
246,37.082711,-93.300371,Deffer Dr/English Village Park
160,37.053551,-93.307264,N Ellen St
160,37.071458,-93.213208,W Black St/N Purple Ln
185,37.039390,-93.310741,Dustin/Truman Blvd
390,37.021647,-93.206320,N 3rd St/W Brick St
362,37.033141,-93.200013,Country Crest Rd/N Patriot Dr
185,37.079897,-93.301207,Meadowridge St/N Deffer Dr/Deffer Dr
185,37.073328,-93.305323,Georgia St
160,37.041912,-93.198053,N Riverside Rd
185,37.033861,-93.225924,N 17th St
160,37.061197,-93.551163,S Republic St/E Mt Vernon Rd/W Mt Vernon Rd
185,37.065577,-93.305652,W Tracker Rd
160,37.031190,-93.309888,Paddington/Hackberry
160,37.025627,-93.191746,E McCracken Rd/N 15th Ave
185,37.084811,-93.303181,N Gregory Dr
160,36.881527,-93.301606,US Hwy 160 S
390,37.004516,-93.219432,US Hwy 65 Bus/S 15th St
185,37.034604,-93.326938,Hwy M/Bridgewood Pl
305,37.037342,-93.293200,Newcastle St
246,37.051603,-93.274477,Montclair/Old Castle Rd
160,37.017268,-93.229199,US Hwy 65
305,37.028597,-93.232708,(Unnamed)
472,37.064230,-93.232004,/N 21st St
160,37.080495,-93.325679,/Nicholas Rd
160,37.017269,-93.228904,US Hwy 65
216,36.856873,-93.225481,US Hwy 65
246,37.026645,-93.260253,Dogwood
305,37.036305,-93.257004,/W Jackson Rd
160,37.006531,-93.193231,/S 14th Ave
160,36.892427,-93.237573,/US Hwy 65
185,36.998879,-93.088888,Walnut St
334,37.064359,-93.223851,Kissee Trl
216,37.070553,-93.487794,Terrill Rd
276,37.063475,-93.213178,N 11th St
160,37.062638,-93.376686,/Landers Rd
216,37.092465,-93.231493,US Hwy 65
839,37.026556,-93.227987,N 18th St
160,37.055790,-93.198806,Indian Valley Rd
160,37.070654,-93.302699,N Massey Blvd
160,37.056451,-93.280177,E Weldon Dr
185,37.054571,-93.296759,Northview Rd/Fairway
160,37.076351,-93.293767,/N State Hwy CC
334,37.027614,-93.316539,Butterfield Dr/Pin Oak
160,37.070082,-93.237216,State Hwy CC/N 25th St
160,37.065281,-93.288215,E Tracker Rd
160,37.034807,-93.289564,Sunset Ave/S Tedda Ct/Eagle St
362,37.065967,-93.218276,W Meadowbrook Dr
185,37.033571,-93.286999,Marian Ct/Smalley St
160,37.057919,-93.284626,Bluegill/Bluegill St
160,37.091558,-93.375571,/Old Mill Rd
160,37.081137,-93.291878,Laurel Hill Pl/Oakwood Dr
276,37.071639,-93.211736,N Tan Ln/W Yellow Cir
185,36.997876,-93.185644,20th Ave/S Hammons Rd
160,37.036247,-93.230950,Makenzie
160,37.002747,-93.574061,State Hwy 413/Barnett Rd
160,37.051817,-93.272073,Althea Ave/Welch St/Ritter Ave
334,37.026262,-93.309481,S Hackberry Ave/Juniper Ln
185,37.051468,-93.301385,McCroskey St/Lorene St
160,37.060052,-93.316313,Kathryn St/Hawk's Perch
160,36.853238,-93.307279,Beryl Rd
160,37.027628,-93.477494,Westgate Dr
160,37.064095,-93.300411,Kelly Ave/Christopher Rd
185,37.037912,-93.282226,Notting Hill Gate/Peachum Pl
185,37.079537,-93.102997,High Meadow Dr
185,37.001229,-93.090078,Crystal Ave/Hwy 141/Main St
160,37.023995,-93.199119,E Diane St/N 8th Ave
185,37.040404,-93.272942,Shangri-la
185,37.008225,-93.186717,E Cherokee Ct
160,36.982709,-93.223191,Kansas Dr
185,37.013075,-93.208607,S 6th St/W Wren St
185,37.015508,-93.305136,Olive Ct
216,36.943077,-93.231060,/State Hwy Ee
185,37.064169,-93.298119,Ashley Dr/Kinder St
185,37.054584,-93.306887,Northview Rd/N Old Wilderness Rd
160,36.975746,-93.292187,W Meadowview Dr
305,37.037447,-93.199649,/E Stone Ridge Dr
160,36.978383,-93.040315,State Hwy 125/State Hwy T/Oldfield Rd
160,37.027355,-93.573761,State Hwy 413
160,37.033389,-93.333296,Old Bittersweet Way
216,37.028559,-93.308852,Butterfield Dr/Norton Rd
185,37.008930,-93.187323,E Sycamore St/S 18th Ave
246,37.001183,-93.082655,N Oak Ave/Main St
216,37.017719,-93.207842,S 5th St
526,37.066482,-93.234260,Petrus Cir
160,37.034931,-93.201763,Riverside Rd/
246,36.928961,-93.229324,Peaceful Pt
160,37.028838,-93.284433,Mining Camp
160,37.008986,-93.219377,S 15th St
185,37.065572,-93.308626,Eaglecrest St/W Tracker Rd
216,37.002156,-93.202353,E Bain St/S 6th Ave
276,37.073058,-93.229157,US Hwy 65
185,37.078206,-93.184645,/Buck Run
216,37.069474,-93.199774,State Hwy Nn
160,37.048907,-93.291783,Missouri Ave/Becky Cir N
246,37.055572,-93.226320,W Garton Rd
160,36.831769,-93.338162,State Hwy 176/Riotts Dr
185,37.030186,-93.295095,S Main St
362,37.027338,-93.317962,Butterfield Dr/Gregg Rd
334,37.010141,-93.206597,S 3rd St
216,37.057879,-93.301765,Northview Dr/Young Rd
185,37.034620,-93.265482,N Cheyenne Rd
216,37.058549,-93.563851,SW Elm St/US Hwy 60
216,37.000063,-93.230084,US Hwy 65
185,37.016517,-93.206632,S 3rd St
390,37.027556,-93.229102,N 20th St
160,37.056696,-93.173659,E Covey Ln
185,37.026931,-93.203727,/E McCracken Rd
276,37.028431,-93.233518,(Unnamed)/W Bingham
276,37.019174,-93.229085,US Hwy 65
499,37.025261,-93.211231,W Jackson St
160,37.087546,-93.346605,Guin Rd
160,37.055066,-93.319453,W Sleepy Hollow Dr
216,37.046775,-93.313489,Osage Dr/Sequoia Dr
276,37.017350,-93.308475,/Mahogany Rd
216,37.047415,-93.216547,State Hwy Nn
160,37.066544,-93.195931,N 10th Ave
216,36.998356,-93.208641,W Warren Ave
160,37.007211,-93.338602,Valley Pt/Parker Rd
305,37.032642,-93.225191,Clearwater Cir/N 17th St
216,37.001926,-93.218876,/S 15th St
160,37.026439,-93.323149,Dunn Pl
185,37.063958,-93.219184,State Hwy Nn
160,36.999089,-93.193924,E Daniels
185,37.052112,-93.230353,N 21st St/Industrial Ct S
246,37.044762,-93.241853,W Executive Cir
160,37.047667,-93.297562,Fox Terr Cir/Fairway St N
160,36.892359,-93.237840,Hopkins Rd/US Hwy 65
185,37.059052,-93.219319,State Hwy Nn/Sunset Rd
160,37.064195,-93.257379,Rolling Hills Dr/Shinnecock Dr
216,37.012506,-93.194802,E Wren St/S 12th Ave
160,37.080678,-93.234965,Lamborn Ln
160,37.063968,-93.553107,NE Oak St/SE Hamilton Ave/E Hamilton Ave/S Logan St/SW Oak St
160,36.998663,-93.218055,W Matthew Ct/S 15th St
185,37.076762,-93.191286,State Hwy Nn
216,37.059278,-93.223267,Brian Ln
185,36.942364,-93.232171,US Hwy 65
160,37.017946,-93.309112,Norton Rd
216,37.039909,-93.272642,Shangri-la
160,37.044056,-93.246846,W Trevor Trl
216,37.054560,-93.295796,Northview Rd/Erin St
185,37.080075,-93.325694,Nicholas Rd/Payne Rd
185,36.971437,-93.338025,Seneca Rd
160,36.978263,-93.192345,Old Prospect Rd/Oak Tree Ln
160,37.090530,-93.559651,Magnolia Ln/Twin Lakes Dr
418,37.043688,-93.326652,State Hwy 14/Hwy M
160,37.053158,-93.314697,Yellowstone St/Zion Way
160,37.058851,-93.209329,N 8th St
334,37.056461,-93.281022,Walleye St/Taylor Way
185,36.863340,-93.227904,Busiek Rd/US Hwy 65
160,37.069989,-93.217360,State Hwy Nn
305,37.027675,-93.203784,/N Riverside Rd
334,37.067753,-93.194793,E Skyline/N 11th Ave
276,37.021261,-93.228664,US Hwy 65
216,37.067138,-93.260162,Green Haven Dr
526,37.065513,-93.295189,W Tracker Rd
246,36.965233,-93.231959,SW Outer Rd
276,37.070970,-93.213698,W Red Ln
185,37.002473,-93.146780,State Hwy 14/Clearspring
160,36.907292,-93.199855,Hummingbird Rd
160,37.032455,-93.292768,Ozark St
276,37.038404,-93.317662,Dustin Ln/Gregg Rd
605,37.043172,-93.302818,Massey Blvd
185,37.061455,-93.285463,Arlington/E Katella Cir
246,37.012033,-93.345900,Oak Ridge Rd
160,36.923232,-93.319518,/State Hwy O
445,37.064566,-93.232043,N 21st St
160,37.042066,-93.242465,W Heights Ln
246,37.050965,-93.294416,North St/N Main St
160,37.067820,-93.250549,Spyglass Ave/Copper Ridge St
185,37.027221,-93.207331,W McCracken Rd
1381,37.070084,-93.222918,State Hwy J
185,36.830525,-93.219789,US Hwy 65
276,37.036811,-93.198991,/E Valley Ct/N 8th Ave
160,37.077096,-93.325689,Nicholas Rd
160,36.931285,-93.280204,State Hwy Ee
160,37.049821,-93.289910,/Bessie St
185,37.071379,-93.260583,State Hwy CC
185,37.066122,-93.223972,N 17th St
276,37.032244,-93.220523,N 14th St
160,36.853508,-93.306690,Reno Hollow Rd/Beryl Rd
185,37.063704,-93.219190,State Hwy Nn
246,37.035987,-93.209889,State Hwy Nn/Blue Grass Rd
418,37.025047,-93.211994,W Farmer St/N 10th St
185,37.059280,-93.561637,W Howcroft Ave/Inglewood St
185,37.029572,-93.310310,Chinkapin/Crestwood
362,37.072997,-93.223666,N 17th St
160,37.023565,-93.322223,McCafferty/Ballard
246,37.065438,-93.293863,E Tracker Rd
160,37.038701,-93.472999,/State Hwy P
160,36.851578,-93.222776,US Hwy 65
160,37.027496,-93.255450,Claude Rd
246,37.031632,-93.195336,E Fieldstone Dr/N Farmington Dr
246,37.000569,-93.082808,S Oak St
160,37.017656,-93.596734,/Staiger Rd
305,37.030224,-93.236871,N 25th St/W Parkview
185,37.013227,-93.022271,State Hwy 14
185,37.051291,-93.346506,Dewberry Rd/W Dewberry Rd
246,37.033420,-93.225835,N 17th St/W Clay St
160,37.033444,-93.483997,Christopher Ln/Lake Ave
160,37.060656,-93.250871,Cottage Ln/Merion Dr
216,37.040180,-93.276639,E Mount Vernon St
216,37.056986,-93.220728,N 15th St/W Garrett Ln
160,37.037519,-93.466208,State Hwy 14 W
305,37.027744,-93.315523,Butterfield Dr/S Timber Ridge Dr
276,37.031218,-93.327035,/S Nicholas Rd
160,37.013293,-93.013236,Braden Rd/State Hwy 14
160,37.033416,-93.478148,Spruce Ave
246,37.039785,-93.292550,Ozark St/E South St
216,37.038552,-93.267731,Timber Hill
160,36.982003,-93.291364,W Meadowview Dr
185,37.035662,-93.327988,S Pepperhill Dr/Timberview Rd
160,37.068304,-93.556258,NW Washington Ave/NE Beech St
185,37.024051,-93.302195,/W Citydel Rd
185,37.078810,-93.346625,/Morningside Dr
185,37.029073,-93.192711,N 14th Ave
160,36.998143,-93.185516,20th Ave
276,37.040779,-93.265340,N Cheyenne Rd
185,37.035204,-93.228946,N 20th St
160,37.083705,-93.417376,Terrell Creek Blvd/State Hwy Zz
216,37.035875,-93.316662,Glen Oaks Dr/Parrish Ln
276,37.048970,-93.293699,Park St/Frank St
246,37.049343,-93.288980,Cherry Cir
710,37.020942,-93.206342,N 3rd St/W Church St
160,37.051911,-93.213371,N 12th St/W Poplar St
334,37.060131,-93.297162,N Eagle Pride Way/Aldersgate Dr
472,37.038537,-93.283311,Lantern Hill
160,37.047107,-93.215009,/N Weaver Rd
276,37.022101,-93.321304,Pasture/Great River Dr
160,37.051866,-93.436963,Bird Dog/State Hwy Zz
185,37.005197,-93.333858,Alice Gayle Cir/Mabary Rd
246,37.036256,-93.209862,State Hwy Nn
216,37.073637,-93.183992,E Warwick Dr/N Vintage Dr
160,37.065117,-93.257823,Rolling Hills Dr
334,37.043567,-93.314243,State Hwy 14
216,37.016863,-93.215239,W Robertson St
216,37.070644,-93.173238,/N Willow Rd
160,36.932849,-93.054692,S Rose Ave/W Oriole Dr/Oriole Dr
160,37.001289,-93.095786,State Hwy 14/E Terrace Ct
185,37.071106,-93.200513,E Falls Cir
185,37.007574,-93.227195,S 20th St/Rockhill Cir/Rockhill Rd
305,37.065439,-93.222031,N 16th St
160,37.038855,-93.197148,E Stoneridge Dr
216,37.073402,-93.199940,E Pintail Dr/N 6th Ave
246,37.022082,-93.231902,N 20th St/W Brick St
216,37.030176,-93.313975,Mulberry Ln/W Pembrook Ave/Pembrook Ave
160,37.061431,-93.384599,Hidden Spring Rd/W Fox Fire Ct
185,37.075109,-93.306917,Myra Dr/Julian St
499,37.021616,-93.205071,E Brick St/N 1st St/W Brick St
246,37.071431,-93.210890,N Brown Ln/W Black St
160,37.047108,-93.317428,N Gregg Rd
305,36.999792,-93.197233,E Rainey St/S 11th Ave
216,37.054978,-93.218511,McGuffey St/State Hwy Nn
160,37.033727,-93.478170,Spruce Ave/Bradford Pear
276,37.059522,-93.220917,W Brian Ln
185,37.053930,-93.316131,Glacier Ct
334,37.039974,-93.302337,Massey Blvd/W South St
216,37.016482,-93.309168,White Ash Rd/Norton Rd
160,36.931655,-93.219982,Trout Rd
276,37.059970,-93.228364,N 20th St
160,37.057557,-93.288744,Red Foley Ct
160,37.025058,-93.465670,Lynn Dr
160,37.079709,-93.288607,E Lindbergh Rd/West Rd
334,37.024309,-93.213966,/W Farmer St
185,37.036832,-93.233454,W Colton/N 22nd St
160,37.011723,-93.158592,State Hwy Jj/Tindle Ln
246,36.994179,-93.220289,S Lotus St
216,37.036347,-93.330345,Brooktrail Way/Carriage Ct
160,37.056626,-93.289420,Chet Atkins Ct
246,37.027297,-93.236643,W Jonquil/N 25th St
160,37.048511,-93.231853,Countryside Ct/Longview Rd
276,37.020913,-93.204476,E Church/N 2nd Ave
160,37.065365,-93.260987,E Oak Haven Dr
185,37.064899,-93.263017,Button Wood Dr/N Park Haven Rd
185,37.045064,-93.246306,N Shady Cove
185,37.028138,-93.216030,N 12th St/W Dawn St
160,36.968279,-93.231829,Kentucky Rd
160,37.062637,-93.287849,E Katella Cir
216,37.005028,-93.193242,S 14th Ave
185,37.054587,-93.306420,Northview Rd/Foxwood Dr
445,37.035368,-93.282900,Lantern Ridge/E Appleridge
216,37.039986,-93.298352,W South St/S Southgate Dr
216,37.079734,-93.290242,E Lindbergh Rd/Dickens Rd
160,37.051686,-93.172417,N Bobolink/N Bobolink Dr
185,37.066724,-93.249457,Scioto Dr/Winged Foot Dr
185,37.065587,-93.298655,W Tracker Rd
216,37.061979,-93.191315,Cardinal Rd/N Pheasant Rd
160,37.052551,-93.270192,N Jerico St
499,37.069012,-93.232691,N 22nd St
216,37.062966,-93.229550,Air Park Rd/N Town Center Dr
334,37.053433,-93.293712,Short St/Frank St
160,37.032953,-93.453680,Wildhorse Rd
160,37.006738,-93.182142,20th Ave
160,36.999148,-93.203050,Oriole Ct
160,37.029034,-93.477778,S Inmon St
185,36.924128,-93.284310,US Hwy 160 S
276,37.044567,-93.237700,N 25th St
185,37.088173,-93.297404,Michael Ln/McSpadden Ct
334,37.032218,-93.295768,W Twin Oak Dr/S Brookwood Ct
160,36.909101,-93.261942,Fern Rd
185,37.094216,-93.325326,/Nicholas Rd
160,37.052106,-93.244394,N 30th St
334,37.071949,-93.224077,/W James River Rd
160,37.071547,-93.182951,N Seacrest Dr
216,37.076540,-93.300741,N Massey Blvd
246,37.029657,-93.219986,W Parkview/N 14th St
185,37.032309,-93.288119,/Old Bittersweet
246,37.028047,-93.202324,E Parkview Cir/N 4th Ave
276,37.026229,-93.322372,Ballard Dr
216,37.059247,-93.222158,Brian Ln/N 17th St
276,37.058336,-93.242817,Emily Dr/N 29th St
362,37.022333,-93.219068,/W Hall St
185,36.836320,-93.218944,US Hwy 65
216,37.033563,-93.199970,N Lincoln Ct/N Patriot Dr
160,37.070666,-93.210032,Blue Stem Rd
160,36.994556,-93.303618,S Rabbit Ln
362,37.025040,-93.227504,W Diane St/N 18th St
160,36.930825,-93.281279,/State Hwy Ee
160,37.064274,-93.190256,E Lakecrest Dr
160,37.012307,-93.196605,S 11th Ave/E Wren
276,37.003538,-93.190343,State Hwy 14/S 16th Ave
160,37.034473,-93.201764,Riverside Rd
216,37.003989,-93.092115,Cinnamon
185,36.970005,-93.284071,/Steinert Ln
334,37.027378,-93.321254,Butterfield Dr
216,37.029083,-93.260239,N 43rd St
185,37.018701,-93.211622,W Oak St
185,37.078872,-93.298214,W Sycamore St/N Pine St/Maple St
160,36.851910,-93.312408,/Beryl Rd
185,36.998706,-93.190066,Sherwood Ct/S 16th Ave
185,37.023481,-93.202642,/N 4th Ave/E Farmer St
390,37.073611,-93.223636,N 17th St
160,37.035722,-93.236282,N 24th St
216,37.092610,-93.231211,US Hwy 65
160,37.017610,-93.610060,US Hwy 60
631,37.043611,-93.307758,N Ellen St/State Hwy 14
185,37.046060,-93.245057,W Saratoga/N 31st St
160,37.065935,-93.555418,NW 1st St
334,37.054081,-93.218281,School St/State Hwy Nn
185,36.997369,-93.078068,Crocodile Ave/Elm St
246,37.036745,-93.304738,S James St/Livingston
160,37.001160,-93.081519,Main St/Bull Creek Ave
276,37.084389,-92.921508,/Olga Rd
216,37.040464,-93.270226,Timber Pl
185,37.038185,-93.308337,S Bryant St/W Bryant St
246,37.053921,-93.243840,W Webb Rd/N 29th St
246,37.070644,-93.210911,N Brown Ln
246,37.084630,-93.299420,English Village Park
362,37.068314,-93.219073,State Hwy Nn
445,37.025416,-93.225869,17th St/W Diane St
246,37.062984,-93.296067,Greenbriar Dr/Flora St
160,37.060658,-93.251008,Merion Dr/Meroin Dr
276,37.064237,-93.302905,/Bryan Dr
605,37.032709,-93.326983,W Old Bittersweet/S Nicholas Rd
160,37.056451,-93.280033,N Santa Monica Dr/E Weldon Dr
216,37.049891,-93.291746,Bessie St/Missouri Ave
185,37.025305,-93.299357,Croley Blvd
185,37.004420,-93.215930,W South St
246,37.017197,-93.207443,W Robertson/S 4th St
185,37.052223,-93.281503,Taylor Way
216,37.003929,-93.198046,E South St
160,37.045889,-93.285253,Eastwood Dr
185,37.067842,-93.225892,Boat St
216,36.884097,-93.234555,Stutesmun Ln/US Hwy 65
185,37.035297,-93.256252,N 40th St/W Jackson Rd/Combs Rd
160,37.068816,-93.276031,Kings Mead Cr/Old Castle Rd
160,37.056624,-93.326330,/Nicholas Rd
160,37.022875,-93.295926,Shady Oak Dr
305,37.019212,-93.202787,E Walnut St/S 4th Ave
276,37.053868,-93.278362,Maplewood Hills Dr
160,37.023070,-93.091382,State Hwy 125 N
160,37.057381,-93.239125,W Cover Dr
216,36.924609,-93.284631,Glossip Ave
185,37.072251,-93.213185,N Purple Ln
216,37.047925,-93.288988,Kelsey Ct/E North Becky Cir
185,37.001623,-93.202367,S 6th Ave
160,37.047247,-93.293788,Frank St/Cherry St
160,37.061196,-93.551058,S Republic St/E Mt Vernon Rd
185,36.997402,-93.079761,Shark Cir/Elm St
185,36.997157,-93.214924,S 13th St/W Warren Ave
160,37.004110,-93.574035,State Hwy 413
160,37.019821,-93.199241,S 8th Ave/E Elm St/N 8th Ave
160,37.037447,-93.450535,State Hwy 14 W
160,37.059356,-93.231708,N 22nd St
216,37.005013,-93.090362,Village Dr
160,37.062561,-93.264806,Pr Dr/N Cheyenne Rd
246,37.042766,-93.295746,Gene St/Elm St
216,37.058714,-93.206398,3rd St
160,37.037092,-93.209941,State Hwy Nn/Harpers Hill Rd
216,37.064293,-93.213867,N Kensington/N 11th St
216,37.070897,-93.293880,N Main St
185,37.061468,-93.383062,W Fox Fire Ct
185,36.974682,-93.207316,Crimson Cir
216,37.053906,-93.275825,Roubidoux/Galileo
276,37.004481,-93.217988,/US Hwy 65 Bus
246,37.002886,-93.087993,Aven Ave
185,37.064896,-93.262911,Button Wood Dr
185,37.029650,-93.217144,N 13th St/W Parkview
160,37.039393,-93.344991,Essex Rd/Emerald Oaks Dr
160,37.004807,-93.080994,Park Cir/Division St
185,37.031644,-93.201928,N Riverside Rd
305,37.025515,-93.224372,W Diane St/16th St
185,37.062141,-93.191856,/N Pheasant Rd
185,37.094451,-93.297887,N Massey Blvd
160,37.042103,-93.287826,Poplar Ct
160,37.016962,-93.152477,State Hwy Jj
216,37.064102,-93.220120,Kissee Trl
160,37.044308,-93.582442,US Hwy 60
160,37.045438,-93.196962,/N Riverside Rd
185,37.039082,-93.316639,Care Ave/Danie Dr/S Daniel Dr
185,37.005929,-93.199218,Becky Ln/S 9th Ave
160,37.010536,-93.217279,S 13th St
216,36.937031,-93.276676,Holiday/Maplewood Dr
390,37.055882,-93.294281,Aspen Dr/N Main St
160,37.061624,-93.219246,State Hwy Nn/Carmen St
160,37.063607,-93.557370,SW Elm St/
579,37.093169,-93.300853,N Fox Hollow Dr E
276,37.067083,-93.220620,Lloyd
276,37.048742,-93.216617,/N Weaver Rd
362,37.057549,-93.294227,Slim Wilson Blvd/N Main St
160,36.998715,-93.202454,Elk Valley Rd
160,36.992577,-93.345404,Shelvin Rock Rd
160,36.993905,-93.086322,/S Linden Ave
185,37.079694,-93.286643,E Lindbergh Rd/East Rd
276,37.072652,-93.544888,NE Elm St
160,37.030522,-93.482430,Snowdrop Ave/Brown St
246,37.058552,-93.252554,Interlochen Dr/Oakmont Dr
160,36.974124,-93.206251,Crimson Cir
160,37.034130,-93.288950,Rice St
334,37.032171,-93.296711,S Creekwood
185,37.023878,-93.295234,Daleview Cir/S Main St
185,36.999447,-93.188869,Sherwood Ct/S 18th Ave
216,37.064626,-93.189911,/E Lakecrest Dr
160,37.015108,-93.211183,S 9th St
185,36.863370,-93.227813,Busiek Rd/
185,37.065559,-93.309744,W Tracker Rd
185,37.062442,-93.223229,N 17th St
160,37.003326,-93.183487,State Hwy 14/
160,37.046049,-93.285987,Cypress Ave/Hightower Ave
185,37.024046,-93.302324,/W Janny Ln
160,37.028545,-93.310309,Butterfield Dr/Crestwood St/Chinkapin Ave
185,37.064456,-93.556365,/SW Elm St
185,37.025724,-93.195000,E McCracken Rd//N 12th Ave
160,37.048489,-93.230779,Longview Rd/N 21st St
160,36.964342,-93.308318,Basil Dr/Licaria Rd
185,37.037696,-93.473946,State Hwy 14 W
185,37.000159,-93.089218,Amanda St
160,36.858266,-93.306879,US Hwy 160 S
160,36.990843,-93.245319,/Riverdale Rd
185,37.067962,-93.275146,Beaufort/Old Castle Rd
160,37.052945,-93.315959,Zion/Yellowstone
160,37.018150,-93.215743,W Oak St
160,36.938646,-93.215975,Nevada Ln/Jackson Spring Rd
276,37.070686,-93.194857,N 11th Ave
305,36.999479,-93.207213,W Daniels St/W Rainey St
185,37.077707,-93.184658,/Buck Run
216,37.074547,-93.197682,N 8th Ave/E Waterford Blvd
185,37.070652,-93.302449,N Massey Blvd
185,37.046475,-93.244336,W Saratoga/N 30th St
160,36.839590,-93.246249,State Hwy Bb
276,37.017187,-93.206447,S 3rd St
216,37.050900,-93.308918,N Hawthorn Dr/Honeysuckle Ln
160,37.035224,-93.591636,US Hwy 60/Lambeth Rd
362,37.055869,-93.293659,Frank St/Aspen Dr
160,37.058017,-93.555985,W Howard Ave/West St
216,37.044259,-93.322099,Leeann Dr
185,37.030568,-93.211056,/N 9th St
499,37.027711,-93.231384,W Bingham
185,37.020859,-93.201433,E Church/N 6th Ave
185,37.003372,-93.185272,State Hwy 14
185,37.041637,-93.306838,Dover St/Coventry St
185,37.026110,-93.326326,Pinhook Dr
185,37.038707,-93.240574,N Bradbury Ln
160,37.047182,-93.243209,W Crestwood St
185,37.050615,-93.284767,North St/Niangua Dr
160,36.863574,-93.228133,US Hwy 65
246,37.034717,-93.329807,Willowdale Ct/Woodcastle Rd
160,37.033061,-93.281808,S Eastridge/Southridge St
246,37.003762,-93.194559,S 13th Ave/E South St
160,37.002243,-93.137199,State Hwy 14/Harmony Cir
160,36.995785,-93.217034,Ridgecrest Ave/S 14th St
246,37.024770,-93.297091,Shady Oak Cir
160,37.093951,-93.305781,Fox Hollow Blvd
216,37.061159,-93.196586,Sunrise Ct
472,37.025384,-93.211922,N 10th St/W Jackson St
216,37.035908,-93.227600,US Hwy 65
185,37.053559,-93.306913,N Ellen St/Old Wilderness Rd
160,37.000745,-93.201120,E Watermill Cir
216,37.036316,-93.330979,Carriage Ct
216,37.031685,-93.199731,N 7th Ave/E St Charles/E Crossland
185,36.971452,-93.337792,/Seneca Rd
216,37.046196,-93.283349,Eleven Pt/Niangua
246,37.038182,-93.473023,/State Hwy P
185,37.029528,-93.312854,Hickory/Crestwood
216,37.059024,-93.244177,Ashley Dr/N 30th St
160,36.945263,-93.055250,State Hwy 125
216,37.055608,-93.243798,N 29th St
276,37.029837,-93.282801,S Cobble Creek Blvd
160,37.017696,-93.159434,McCracken Rd
216,37.065530,-93.215352,W Thorngate
160,37.050382,-93.280986,North St
305,37.018518,-93.206431,W Oak St/S 3rd St
185,37.037644,-93.326840,Hwy M
185,37.023331,-93.299822,W Citydel Rd/Massey Blvd/Sunrise Dr
160,37.056243,-93.171910,N Bobolink Dr//E Covey Ln
276,37.067670,-93.213535,Annondale Ct
246,37.018328,-93.206591,W Oak St
160,37.055033,-93.317196,N Gregg Rd/W Sleepy Hollow Dr
185,37.044213,-93.239170,N Skyview Ln/Ozark Cir
185,37.018135,-93.216264,W Oak St
160,37.040902,-93.205793,W Stonehill Rd/Stonehill Ct
418,37.043553,-93.326657,Hwy M
160,37.058946,-93.213069,N Penny Ct
216,37.036233,-93.304395,/Norton Rd
160,37.049888,-93.272279,Tucker Bay Cir
160,36.912188,-93.252653,Manning Rd
246,37.012512,-93.182970,S 21st Ave
185,37.056644,-93.243762,W Garton Rd/N 29th St
276,37.041671,-93.326721,Hwy M/Hi - Mac Rd
160,37.032865,-93.332899,Old Bittersweet Ct/Moppin Hollow Ln
160,37.045828,-93.242947,W Saratoga
246,37.038059,-93.326827,Hwy M
216,37.039787,-93.272595,Shangri-la/E Mount Vernon St
160,36.999159,-93.201621,E Sugarmill Ct
160,37.053874,-93.242267,W Webb Rd
160,36.931760,-93.232450,US Hwy 65
160,37.052261,-93.294382,W Lorene St/N Main St
246,37.021040,-93.210542,N 8th St/W Church St
160,37.052807,-93.270183,N Jerico St/Welch St
185,37.078938,-93.311767,/Owen Rd
246,37.004415,-93.198054,10th Ave/April Dr
216,37.004941,-93.212158,S 10th St/W Windsor St
216,37.056967,-93.221628,N 16th St/W Garrett Ln
362,37.070399,-93.251600,Walnut Grove Cir
216,37.045727,-93.279348,Country Ridge/Brook Forest
185,37.067958,-93.293968,N Main St
160,36.908856,-93.286610,Glossip Ave/Julip Ln
246,37.040939,-93.266617,Timber Hill/W Jackson Rd
276,37.048750,-93.216759,N Weaver Rd
160,37.035637,-93.236350,Kendall/N 24th St
160,37.014371,-93.209051,S 6th St/W Jay St
160,37.018797,-93.135884,/Chelsea Ln
246,36.927365,-93.284315,US Hwy 160 S/Glossip Ave/State Hwy Ee
185,37.050941,-93.301162,/N Patricia St/Tower St
185,37.037276,-93.326853,Hwy M/W Eaglewood Dr
160,37.007820,-93.217599,S Atlas Ct
185,37.052321,-93.297129,W Lorene St/Fairway
160,37.032763,-93.286362,Baldknobber St
160,37.041158,-93.467894,Elm Ave
185,37.050940,-93.301398,/McCroskey St
160,37.007095,-93.182392,E Hartley Rd/20th Ave
160,37.064812,-93.331819,Clearview Ln
216,37.008942,-93.216388,W Hartley St
160,37.052404,-93.300732,W Lorene St/N Patricia St
418,37.065967,-93.235501,/W Calvin Dr
305,37.041095,-93.293039,Water St/Glenn St
160,37.084545,-93.205769,/E Southernview Rd
276,37.049012,-93.294491,Park St/N Main St
160,37.067744,-93.191745,N Pheasant Rd/Peartree Dr
160,37.053064,-93.499315,Side Kick Ct
160,36.999113,-93.077302,Sunset St
216,37.020883,-93.202728,E Church/N 4th Ave
185,37.082609,-93.294331,Michael Ln
216,37.025891,-93.200080,E McCracken Rd/N 7th Ave
276,37.067899,-93.219084,State Hwy Nn/Turnberry Blvd
216,37.072122,-93.214487,W Blue Ln
185,36.830358,-93.219536,US Hwy 65
185,37.066906,-93.246463,Fremont Rd
160,37.044128,-93.291061,Pace Ct/N Market St
160,37.063062,-93.552102,S Billings St/E Purdy Ave
160,37.052564,-93.281504,Taylor Way
276,37.064775,-93.554033,SE Hamilton Ave/S Pine St/NE Pine St/NW Hamilton Ave
160,37.049061,-93.246810,Fremont Rd/North Rd/Longview Rd
160,36.833708,-92.958738,/S State Hwy Uu
185,37.027854,-93.191706,N 15th Ave/E Parkview
160,37.070954,-93.548023,NE Elm St
216,37.067109,-93.220173,Lloyd
185,37.041439,-93.307949,Ellen St
160,37.073363,-93.194934,N 11th Ave
216,37.014609,-93.201486,E Jay St/S 6th Ave
216,37.031748,-93.284801,Placer Mill Rd/Gold Rush Ave
276,36.965404,-93.231631,US Hwy 65
305,37.033757,-93.210383,N 9th St
216,36.872716,-93.230520,US Hwy 65
334,37.055365,-93.302589,Southview Dr/Westview Dr
160,37.054028,-93.310097,W Chickory
160,37.045469,-93.287340,Meadowridge St/Hillcrest Ave
185,36.864219,-93.299362,US Hwy 160 S/Calabash Dr
334,37.066845,-93.554359,/NW Washington Ave
276,37.046273,-93.226792,US Hwy 65
160,37.071327,-93.511210,Terrill Rd
160,37.032236,-93.311653,W Cambridge Ave/Linwood
418,37.025652,-93.226682,Stenger/
246,37.005658,-93.194676,S 12th Ave/Becky Ln
185,37.047548,-93.306318,/Estes St
216,37.039470,-93.321445,Dove Ave/Hummingbird Ln
160,37.002430,-93.123726,State Hwy 14
334,37.035862,-93.322896,Glen Oaks Cir/Glen Oaks Dr
185,37.062390,-93.223229,N 17th St
445,37.054605,-93.304273,Northview Rd/Kenneth St
160,37.064603,-93.287832,Penzance
185,37.018611,-93.208698,S 6th St/W Oak St
305,37.039083,-93.317663,/Care Ave/Gregg Rd
160,36.917921,-93.284288,US Hwy 160 S/State Hwy O
246,37.027366,-93.203968,N Riverside Rd
185,37.028669,-93.234777,W Bingham
185,37.061857,-93.187437,/Cardinal Rd
216,37.072359,-93.325844,Nicholas Rd
160,36.932343,-93.047249,Swan Cave Rd/Chadwick Rd
160,36.984827,-93.294028,Finley Dr
160,37.025498,-93.185087,/McCracken Rd
185,37.001919,-93.197200,S 11th Ave
160,37.032237,-93.285917,Old Bittersweet
185,37.033201,-93.201764,Riverside Rd//N Riverside Rd
160,37.007846,-93.193171,S 14th Ave
185,37.016702,-93.132434,/State Hwy Jj
160,37.069762,-93.082324,Cascade Dr
160,37.047940,-93.289481,Kelsey Ct
276,37.004847,-93.082628,N Oak Ave/Division St
216,37.055277,-93.282552,Jordan/Taylor Way
305,37.066565,-93.303433,N Massey Blvd
185,37.029291,-93.469954,/E Carpenter St
305,36.999010,-93.208850,Southfork Dr/W Matthew St
185,36.994721,-93.212814,W Snider/W Snider St/S 11th St
160,36.902998,-93.244395,Green Mound Rd
160,37.058900,-93.280997,Walleye St/Dyann Dr
362,37.030933,-93.227759,/N 18th St
160,36.943099,-93.245713,/State Hwy Ee
418,37.072940,-93.228001,N 19th St/W James River Rd
185,37.073595,-93.183027,E Warwick Dr/N Seacrest Dr
216,37.037713,-93.257582,/W Jackson Rd
185,36.829218,-93.219826,US Hwy 65
185,37.072957,-93.195700,E Shoreline Dr/E Waterford Blvd
160,37.033495,-93.468515,E Eagle Cir/N Elm Ave/Nola Dr
185,37.023216,-93.300151,W Citydel Rd/
185,37.035154,-93.251887,Byeriley Ln
418,37.026599,-93.321434,Sherwood Ct
160,37.079185,-93.191307,/State Hwy Nn
185,37.058958,-93.215211,Morgan Ct/Sunset Rd
160,37.076085,-93.371021,Nelson Mill Rd/
305,37.003734,-93.221580,S 17th St/Marler Ln
305,37.028983,-93.325697,Pinhook Dr
160,37.064938,-93.191826,/N Pheasant Rd
445,37.065453,-93.303470,N Massey Blvd
160,36.972699,-93.182750,/Red Cedar Rd
160,37.071789,-93.209994,Blue Stem Rd
185,36.852121,-93.254222,/Joshua Tree Dr
160,37.050008,-93.312308,Blackberry Ln/Milton Dr
418,37.039448,-93.314108,Wesley Ave/Charm Dr
276,37.007385,-93.190007,/E Hartley St
305,37.071892,-93.223994,W James River Rd/N 17th St
160,37.020422,-93.191404,/E Jackson
160,37.032304,-93.299470,W Trail Point Dr
160,37.049935,-93.299050,Bennett St/Fort Ave
160,37.001472,-93.194448,E Bain St
334,37.074956,-93.228778,N 19th St
160,37.023342,-93.238074,N 25th St/W Jackson Rd
160,37.058222,-93.556810,Garrison St
362,37.064135,-93.222064,N 16th St/Kissee Trl
160,36.968282,-93.231904,SW Outer Rd/Kentucky Rd
160,37.050257,-93.564119,Kruger Rd
246,37.026554,-93.258164,Dogwood/N 41st St
160,37.037611,-93.298450,/S Southgate Dr/W Gate Ln
276,37.067403,-93.213321,/Annondale Ct/Turnberry Blvd
246,36.995943,-93.189848,S 17th Ave
216,37.052360,-93.299004,W Lorene St/Fort Ave
185,37.069844,-93.212562,N White St/State Hwy Nn
216,36.964994,-93.291174,Cypress Hills Ct
390,37.076264,-93.302696,Gregory Dr
334,37.032786,-93.227540,/N 18th St/W Clay St
216,37.070967,-93.250889,State Hwy CC
305,37.071914,-93.184026,E Province Dr/N Vintage Dr
160,37.023564,-93.201313,N 6th Ave
160,37.059376,-93.288987,Deanna Ln
185,37.001276,-93.095304,State Hwy 14//Main St
216,36.934727,-93.232055,/US Hwy 65
185,37.044081,-93.363166,S Carroll Rd/Hyacinth Ct
362,37.035243,-93.477099,Navajo Cir
185,37.028729,-93.211385,/N 9th St
472,37.042705,-93.293149,Water St/Elm St
216,37.015628,-93.209827,S 7th St
185,36.942364,-93.231858,US Hwy 65
160,36.821703,-93.328374,Jonesville Rd
160,37.058424,-93.288929,Scott Wayne Dr
160,36.847594,-93.332087,Ryan Dr
276,37.035161,-93.314691,Jake Flood Cir/Chitwood Ln
185,37.047518,-93.282204,Meramec Ln
839,37.043619,-93.306005,State Hwy 14/Estes St
185,37.034444,-93.286325,Barbara Ct
160,37.065366,-93.316883,N Gregg Rd
160,37.030964,-93.298421,S South Gate Dr/W Sandalwood Ln
276,37.019792,-93.208457,S 5th St/W Elm St
185,37.054047,-93.570510,/US Hwy 60
160,37.070420,-93.107038,/Finbrooke Rd
160,37.016743,-93.207450,/S 4th St
160,37.066278,-93.260924,E Fair Haven Dr
185,37.064146,-93.191838,E Lakecrest Dr/N Pheasant Rd
246,37.001768,-93.070300,State Hwy 14/Main St
216,36.896666,-93.239133,Wood Art Dr/US Hwy 65
362,37.082827,-93.297728,/Commerce Dr
276,37.067238,-93.210991,9th St/Turnberry Blvd/Roxbury Ct
305,37.030330,-93.324495,S Curtis/Bluegrass Rd
246,37.069055,-93.173341,/N Willow Rd
579,37.033018,-93.326975,S Nicholas Rd
526,37.043594,-93.310613,State Hwy 14/N Truman Blvd/Truman Blvd
185,37.050478,-93.317287,N Gregg Rd/W Bryce Ln/Bryce Ln
160,37.055738,-93.273407,Weldon/Althea
185,37.037251,-93.479025,Apache
160,36.975933,-93.163217,Stargrass Rd
276,37.031281,-93.327033,S Nicholas Rd
185,37.014946,-93.209071,S 6th St/W Lark St
216,36.996431,-93.189385,E Warren Ave
160,37.023491,-93.204344,N 2nd Ave/E Farmer St
216,37.057814,-93.219233,State Hwy Nn
276,37.038481,-93.313235,Dustin
185,36.973638,-93.189655,Bayberry Dr/Shady Ln
305,37.040004,-93.299020,W South St/S Delaware St
445,37.070078,-93.227722,/State Hwy J
160,37.065859,-93.333243,W Tracker Rd
185,36.995537,-93.212079,W Ridgecrest/S 11th St
185,37.025725,-93.195052,/E McCracken Rd/N 12th Ave
216,37.074122,-93.194345,E Lily Dr/N 11th Ave
160,37.001313,-93.096443,State Hwy 14/
160,37.002554,-93.122395,State Hwy 14/State Hwy 00
185,37.001385,-93.098088,State Hwy 14
160,37.010672,-93.192552,E Samuel J St/S 14th Ave
276,36.819431,-93.226378,/US Hwy 65
160,36.917526,-93.243479,US Hwy 65
185,37.012968,-93.197137,S 11th Ave/S 10th Ave
185,36.887032,-93.235209,Winslow Dr
216,36.996457,-93.190262,S 16th Ave/E Warren Ave
305,37.058552,-93.252490,Oakmont Dr
185,37.008686,-93.197326,10th Ave
246,37.057469,-93.241493,W Cover Dr/N Mead Dr
185,37.011822,-93.206768,S 3rd St
216,37.082378,-93.297864,/Commerce Dr
160,37.016968,-93.151504,State Hwy Jj
276,36.999771,-93.207192,W Rainey St
160,36.869563,-93.299078,Valley Woods Rd/US Hwy 160 S
216,37.043941,-93.243837,W Trevor Trl/N 30th St
160,37.086786,-93.308727,W Scarlino Ct
216,37.043746,-93.322111,Leeann Dr
390,37.034568,-93.322898,Bridgewood Cir
185,37.023330,-93.299822,Massey Blvd
185,37.050309,-93.217299,/State Hwy Nn
305,37.038540,-93.305785,S Robert St/Lee St
160,36.939007,-93.231952,US Hwy 65
160,37.002511,-93.117926,Fig Dr
246,37.055567,-93.226475,W Garton Rd
160,37.025266,-93.466746,Wampler Dr/Westview Ave
216,37.048721,-93.236992,Longview Rd
160,37.065612,-93.319318,W Tracker Rd
445,37.066546,-93.233848,Petrus Cir
185,37.068562,-93.549528,Terrill Creek Rd/NE Pine St
160,37.041651,-93.293082,Water St/St Louis St
276,37.060665,-93.251726,Meroin Dr/Oakmont Dr
305,37.012105,-93.183152,S 21st Ave/E Wren
160,37.006139,-93.186851,S 18th Ave
418,37.019247,-93.206406,W Walnut St/S 3rd St
216,37.026456,-93.224740,W Dawn St
276,37.058344,-93.252507,Interlochen Dr
185,37.065646,-93.322659,/W Tracker Rd
276,37.035956,-93.209709,Blue Grass Rd
276,37.036149,-93.317708,Gregg Rd
276,37.026563,-93.259124,42nd St/Dogwood
160,37.091200,-93.185140,/E County Line Rd
246,36.996269,-93.189838,S 17th Ave
160,37.037801,-93.210204,State Hwy Nn
390,37.027347,-93.318637,Redwood Ct/Butterfield Dr
160,37.064626,-93.260256,Button Wood Dr
276,37.066084,-93.213424,N Thorngate Ct
185,37.065590,-93.298914,/W Tracker Rd
216,36.973041,-93.231085,/US Hwy 65
160,36.937180,-93.231011,Selmore Rd
160,37.044062,-93.246976,W Trevor Trl/N Fremont Rd
160,37.049426,-93.304278,Old Wilderness Rd
472,36.995462,-93.210249,W Ridgecrest
160,37.061682,-93.219244,W Liberty Ave/State Hwy Nn
216,37.031047,-93.285445,Silver Streak Rd/Gold Rush Ave
276,37.057907,-93.281016,Walleye St
216,37.061916,-93.190043,Cardinal Rd/N Smallin Rd
216,37.043338,-93.288963,Rice St/E Mount Vernon St
160,37.028623,-93.317276,Pin Oak
216,37.048601,-93.310058,Blackberry Ln/Briarwood Ln
390,37.032262,-93.199635,N 7th Ave/E Kimberly
216,36.996304,-93.185682,/E Warren Ave/S Hammons Rd
216,37.030989,-93.315096,Timber Ridge/Pembrook Ave
472,37.024050,-93.226921,N 18th St/W Jackson St
216,36.951530,-93.231668,US Hwy 65
160,37.050734,-93.310708,Honeysuckle Ln/Persimmon Dr
160,36.982310,-93.292109,Jones Rd
160,37.048581,-93.233470,Longview Rd
185,37.003020,-93.197184,S 11th Ave
246,37.035967,-93.209778,Blue Grass Rd
216,37.026470,-93.134383,Talon Trl
445,37.068991,-93.219045,State Hwy Nn
160,37.061394,-93.094118,Mission Pt Rd
334,37.027489,-93.311411,Hickory Nut Ct
216,37.079969,-93.311855,Owen Rd
185,37.006112,-93.221511,/S 17th St
185,37.032619,-93.201741,N Riverside Rd
216,37.039917,-93.272162,E Mount Vernon St/W Jackson Rd/Timber Creek
246,37.035878,-93.314691,Glen Oaks Dr/Chitwood Ln
472,37.001176,-93.085027,Main St
160,37.074528,-93.185398,N 19th Ave/E Chesapeake Dr
185,37.065563,-93.316517,W Tracker Rd
216,37.047572,-93.306848,Wasson Dr
216,37.036158,-93.265442,E Timber Springs/N Cheyenne Rd
160,37.076606,-93.184667,Melton Rd/Buck Run
246,37.042124,-93.207687,W Boulder Rd
160,37.028154,-93.217166,N 13th St/W Dawn St
246,37.055534,-93.253096,/Interlochen Dr
305,37.028518,-93.326267,Pinhook Dr
216,37.008944,-93.216291,W Hartley St
334,37.044809,-93.227495,/N Biagio
160,37.022208,-93.297371,Canyon Ct
160,37.087713,-93.316326,River Ledge Rd/Guin Rd
362,37.069328,-93.228708,US Hwy 65
185,37.006289,-93.221504,/S 17th St
418,37.064583,-93.231730,/N 21st St
160,37.060445,-93.246587,Fremont Rd/Wilshire Ln
160,37.014623,-93.187478,E Lark St
216,37.045322,-93.133345,Lindenlure Dr/State Hwy 125 N
160,37.014263,-93.206670,W Jay St/S 3rd St
160,37.022925,-93.465677,E Grant St
276,37.078795,-92.988888,/State Hwy U
160,37.054961,-93.216131,McGuffey St/N 13th St
276,37.035462,-93.209995,State Hwy Nn/N 9th St
305,37.035292,-93.317737,Gregg Rd
185,37.037574,-93.317663,Verna Ln/Gregg Rd
185,37.065732,-93.309753,/Mulberry Ct
216,37.080570,-93.302270,Tower Cir
185,37.080262,-93.353159,Phillips Rd/W Syler Rd
185,37.001398,-93.098484,State Hwy 14
160,37.060082,-93.311764,Kathryn St
246,37.052331,-93.313836,Crater Cir
216,37.041187,-93.310768,Truman Blvd/Brett Cir
216,37.030993,-93.282751,Silver Streak Rd/S Cobble Creek Blvd
160,37.054771,-93.545668,State Hwy 14 W
160,37.075108,-93.540300,/NE Elm St
246,37.025445,-93.182475,McCracken Rd
216,37.029152,-93.336236,W Gooch Rd/S Shamrock Rd
216,37.027926,-93.193778,E Parkview
160,37.037875,-93.241273,N Bradbury Ln/W Richwood Rd
305,37.019909,-93.228748,US Hwy 65
160,37.003329,-93.183586,State Hwy 14
788,37.066824,-93.228408,/US Hwy 65
216,37.057746,-93.219215,State Hwy Nn
305,37.000053,-93.197219,S 11th Ave
185,37.033566,-93.286354,Marian Ct
160,37.036868,-93.201087,Riverside Rd/
216,36.997298,-93.204625,W Warren Ave
362,37.077155,-93.230001,/N 21st St
185,37.001246,-93.093364,Main St
216,37.081683,-93.303508,/Meadowview Dr
185,37.026554,-93.311719,Birch St/Hickory Ln
305,37.038931,-93.280466,Kings Carriage Rd/Tiffany Blvd
216,37.046365,-93.313513,Sequoia Dr
185,37.061257,-93.557898,W Mount Vernon Rd/Broadway St
305,37.009378,-93.182840,E Samuel J St
185,37.037705,-93.239993,/W Richwood Rd/N Cedarwood
160,37.054051,-93.308914,N Hawthorn Ct
160,37.084701,-93.325587,/Nicholas Rd
160,36.904834,-93.285226,Glossip Ave
185,37.042671,-93.472822,/State Hwy P
160,37.018972,-93.242175,Baird Rd
246,37.034558,-93.475925,Cherokee Path/Cherokee Trl
160,37.069594,-93.203576,State Hwy Nn
216,37.039528,-93.225493,Lakeland Dr
276,37.026967,-93.211019,/N 9th St
185,36.997607,-93.217927,W Warren Ave/S 15th St
160,36.999786,-93.193989,E Rainey St
160,37.020568,-93.254915,N 38th St
390,37.064359,-93.294059,N Main St
160,37.018592,-93.207823,W Oak St/S 5th St
305,36.999419,-93.208484,Southfork Dr
160,37.038317,-93.251635,Richwood Rd/Byeriley Ln
160,37.038252,-93.247143,N Fremont Rd
160,36.932758,-93.275842,Kentling Ave/State Hwy Ee
305,37.043296,-93.287792,E Mount Vernon St
160,37.058549,-93.305659,Cynthia Dr
160,37.025547,-93.185085,/N 20th Ave
216,37.007795,-93.206307,E Hartley St/S 3rd St
246,37.054870,-93.213641,N 12th St//McGuffey St
246,37.003515,-93.189920,State Hwy 14
160,37.056421,-93.238078,N Grassland Dr/W Garton Rd
160,37.003320,-93.174895,S Salers Ln
160,37.069307,-93.107069,Concord Dr/Finbrooke Rd
246,37.008670,-93.220355,W Hartley
160,37.076540,-93.195432,E Melton Rd/N 10th Ave
185,37.069594,-93.247570,Sawgrass Ave
246,37.030496,-93.327050,S Nicholas Rd
160,36.999083,-93.194316,E Daniels
185,37.067138,-93.310414,Huckleberry Ct
160,37.061971,-93.559318,SW Elm St/
185,36.898905,-93.239950,US Hwy 65
305,37.060941,-93.294145,N Main St
185,37.050230,-93.301199,/Nixa/Tower St
305,37.002416,-93.085214,Scott St/Maple St
160,37.037994,-93.279450,Champagne Cir
185,37.021645,-93.210534,N 8th St/W Brick St
185,37.047297,-93.284168,Piney Ridge/
216,37.055635,-93.227398,W Garton Rd
185,37.064098,-93.219497,Kissee Trl
305,37.004490,-93.218337,/US Hwy 65 Bus
160,37.055474,-93.219749,W Garton Rd
246,36.998121,-93.207470,Candace St
246,37.052455,-93.280231,Santa Monica/Santa Monica Ave
160,36.835181,-93.333195,US Hwy 160 S
160,37.055589,-93.291824,Aspen Cir/Aspen Dr
185,37.010827,-93.196041,E Samuel J St/S 11th Ave
216,37.044493,-93.310620,Center Cir/N Truman Blvd
160,37.052851,-93.208631,Fenwicke Dr
246,37.032185,-93.284129,Old Bittersweet/Ridgecrest Ave
276,37.074241,-93.196722,E Waterford Blvd
160,37.000978,-93.072218,/State Hwy 125
185,37.060052,-93.314981,Red Hawk Ct/Kathryn St
216,37.087160,-93.298543,Fitz Ln
472,37.025292,-93.226519,/W Diane St
185,37.046412,-93.228679,N 20th St
160,37.070040,-93.237359,State Hwy CC
865,37.025260,-93.215655,N 12th St//W Jackson St
160,36.999029,-93.193371,S 14th Ave
276,37.071439,-93.211672,N Green Ln/W Black St
160,36.972095,-93.283116,/Highlandville Rd
246,37.080283,-93.296837,Streamside Ct
160,36.992529,-93.215938,Selmore Rd
390,37.026209,-93.229239,N 20th St
160,37.018914,-93.391795,/Hidden Valley Rd
276,37.050578,-93.285867,North St/Hightower Ave
305,37.027481,-93.308892,Norton Rd
160,37.038667,-93.284367,S Kingsgate Ct
160,37.024366,-93.207681,W Jackson St
216,37.058305,-93.242602,Emily Dr
216,37.058383,-93.244187,Emily Dr/N 30th St
160,37.083483,-93.246020,Fremont Rd
160,37.049363,-93.299057,Park St/Fort Ave
160,37.055519,-93.221654,W Garton Rd
276,37.031980,-93.220523,Crossland St/N 14th St
160,37.043222,-93.247011,/N Fremont Rd
246,37.041444,-93.326724,Hwy M
246,37.003444,-93.188127,State Hwy 14
160,37.004615,-93.072662,/Division St
185,37.032464,-93.308759,Norton Rd
160,37.023669,-93.512075,Cranberry Rd/Zoller Rd
160,37.023595,-93.247238,32nd St
160,37.054660,-93.317159,N Gregg Rd
216,37.038557,-93.304678,S James St/Lee St
185,37.027886,-93.192736,E Parkview/N 14th Ave
185,37.065566,-93.309526,W Tracker Rd
246,37.024796,-93.296646,Shady Oak Cir/
917,37.043624,-93.305030,State Hwy 14/Old Wilderness Rd
160,37.088329,-93.308920,W Cortona Dr/
216,37.026627,-93.310658,Juniper Ln
185,37.024408,-93.207844,W Jackson St
185,37.069929,-93.216768,State Hwy Nn
185,37.032364,-93.289492,Old Bittersweet/Eagle St
216,37.064102,-93.219947,Kissee Trl
276,37.050625,-93.286891,North St/Hillcrest Ave
160,37.076629,-93.185455,/Melton Rd
472,37.063856,-93.294071,N Main St
552,37.003621,-93.225154,S 19th St/Marler Ln
160,37.032438,-93.291506,Old Bittersweet
160,37.007112,-93.182926,E Hartley Rd
160,37.009773,-92.928328,/Eagle Dr
185,37.053217,-93.313471,Cascades Dr/Yellowstone St
160,37.067718,-93.246030,Fremont Rd
276,37.047583,-93.307660,N Ellen St/Wasson Dr
445,37.036176,-93.282726,Bishops
246,37.065566,-93.297181,W Tracker Rd
185,36.996426,-93.189225,E Warren Ave
185,37.078959,-93.232642,Twin Acres Ct
160,37.012626,-93.200318,S 7th Ave
246,37.030927,-93.296680,S Birchwood Ln/W Sandalwood Ln
185,36.998501,-93.190059,S 16th Ave
160,37.050187,-93.318604,W Bryce Ln/N Rita Ct
185,37.066334,-93.262948,Park Haven Rd/E Fair Haven Dr/N Park Haven Rd
246,37.069937,-93.546763,Clayton Ave/Linda Ln
246,37.078012,-93.231284,Walk on Dr
185,37.033076,-93.334964,Old Bittersweet Way
276,37.046455,-93.227503,Southgate Dr
246,36.975390,-93.230972,US Hwy 65
185,37.039958,-93.303985,W South St/West St
246,37.022325,-93.205658,N 2nd St/W Hall St
185,37.016742,-93.135518,State Hwy Jj/Shephard Ct
160,36.932796,-93.049536,Chadwick Rd
216,37.090802,-93.304713,N Fox Hollow Dr W/Guin Rd
216,37.083327,-93.295491,Michael Ln/
185,37.064472,-93.250629,/Interlochen Dr/Oakmont Dr
216,37.030020,-93.202715,N Riverside Rd
216,37.026986,-93.191163,E Bingham St
185,36.873240,-93.026509,Mitchell Ln
185,37.003360,-93.184822,State Hwy 14/S Thomas Dr
276,37.052230,-93.273460,Althea Ave/Althea
390,37.023873,-93.319414,Grassey Ct
160,36.993491,-93.228905,/S 19th St
160,37.034292,-93.201070,N Lincoln Ct
216,36.959293,-93.231490,US Hwy 65
276,37.061605,-93.251726,Merion Dr/Oakmont Dr
276,37.016158,-93.319811,W Laura Dr/Becky St
185,36.997359,-93.077615,/Elm St
160,37.076756,-93.536950,Bluebell Rd
185,37.044877,-93.319792,Avalon St/Marie St
185,37.063961,-93.552093,S Billings St/N Billings St/E Hamilton Ave
185,37.079742,-93.232966,Parkway Cir
160,37.043714,-93.329152,State Hwy 14/Cedar Heights Dr
246,37.002611,-93.202342,S 6th Ave
305,37.025071,-93.218626,W Jackson St/N 14th St
160,36.982214,-93.043913,State Hwy 125
160,37.026913,-93.470702,S Clark Ave/Pacific St
160,37.030302,-93.194601,N Crestview Ct/N Farmington Dr
185,37.019487,-93.400313,State Hwy N
334,37.043820,-93.241899,N 28th St/W Trevor Trl
160,37.031088,-93.293700,Trotter St
160,37.001935,-93.230003,/US Hwy 65
160,37.077635,-93.083770,Elm Grove Rd
216,37.065163,-93.188563,/E Lakecrest Dr
160,37.047398,-93.317446,N Gregg Rd/Grace Ave
160,36.991202,-93.230227,US Hwy 65
160,37.040009,-93.326771,Hwy M
276,37.003879,-93.197131,S 11th Ave/E South St
160,37.035410,-93.325640,W Tyler Ln
160,37.043968,-93.344962,N Applebury Pl/State Hwy 14 W
305,37.067043,-93.233771,/N 23rd St
160,37.058791,-93.313695,Raven's Nest Ave
216,37.065734,-93.223821,N 17th St
216,37.059565,-93.562329,SW Elm St/W Howcroft Ave
185,37.056666,-93.292836,Jones Ct
185,37.043704,-93.328177,State Hwy 14
160,37.075441,-93.293781,/N State Hwy CC
216,37.050938,-93.301918,McCroskey St
185,37.032839,-93.288976,Baldknobber St/Rice St
246,36.904739,-93.242340,/Green Mound Rd/US Hwy 65
160,36.853460,-93.224003,US Hwy 65
160,37.038151,-93.228853,N 20th St
276,37.035641,-93.314691,Chitwood Ln
526,37.023913,-93.227440,W Jackson St
185,36.884180,-93.234157,/Stutesmun Ln
160,37.069584,-93.203251,State Hwy Nn
160,36.960997,-93.232180,Tatum Dr
185,37.032853,-93.289486,Baldknobber St/Eagle St
160,37.023501,-93.244452,N Fremont Rd/W Jackson Rd
160,37.014017,-93.182968,E Jay
160,37.037617,-93.299524,W Gate Ln/Harrison St
216,37.063141,-93.214588,N Kensington
305,37.035741,-93.317722,Glen Oaks Dr/Gregg Rd
160,37.071632,-93.262304,State Hwy CC
276,37.003652,-93.195368,12th Ave
160,37.028928,-93.300306,Croley Blvd
276,37.028291,-93.314790,Red Maple Ct/Butterfield Dr
160,37.068919,-93.195719,N 10th Ave
185,37.031116,-93.202476,Finley River Pkwy
160,36.872448,-93.293896,Hedgetree Rd/Hedge Apple Rd
160,36.964593,-93.230408,Selmore Rd/Persimmon Rd
552,37.021630,-93.205688,N 2nd St/W Brick St
185,37.015850,-93.206486,W Jay St/S 3rd St
160,37.087399,-93.328594,Carriage Dr/Guin Rd
185,37.064574,-93.256192,Quail Ridge Ct
160,37.090611,-93.334876,Porterfield Dr
160,37.076579,-93.475470,State Hwy P
160,37.013438,-93.006429,State Hwy 14/Shoshone Dr
160,37.040379,-93.263131,W Jackson Rd
472,37.062496,-93.227889,US Hwy 65
305,37.030950,-93.481761,Cherry Ave/Sugar Ln
160,37.071131,-93.417518,State Hwy Zz
362,37.090790,-93.298546,/Guin Rd
246,37.052293,-93.307576,N Ellen St
160,37.016793,-93.204615,E Georgia St/S 2nd Ave
917,37.023116,-93.230480,W Jackson Rd
185,37.027260,-93.207589,W McCracken Rd
160,36.879275,-93.039388,Barber Rd
334,37.063042,-93.231127,Air Park Rd/N 21st St
160,37.008891,-93.215535,W Robin Rd
160,37.067477,-93.250922,Spyglass Ave
246,37.056576,-93.251812,Pasatiempo Dr/Interlochen Dr
185,37.029602,-93.310100,Crestwood/Hackberry
160,37.014677,-93.308166,S Scarlet Oak Ct
185,37.052920,-93.207403,Ledgestone Dr/Ivy Creek Dr
276,37.035412,-93.284042,E Appleridge/Ridgecrest Ave
246,37.033291,-93.317817,Gregg Rd
185,37.016321,-93.197534,S 10th Ave/E Georgia
160,37.075824,-93.295601,Lakeshore Dr
160,37.061272,-93.560906,SW Main St/Mount Vernon Rd
216,37.040671,-93.269984,/W Jackson Rd
185,36.953865,-93.231900,US Hwy 65
160,37.084223,-93.325602,/Nicholas Rd
185,37.028494,-93.319678,Cedarwood Ct
216,37.029031,-93.329476,W Gooch Rd
185,37.025220,-93.315376,S Timber Ridge Dr
216,37.005171,-93.207976,S 7th St/W Waverly St
216,37.033160,-93.200570,Country Crest Rd
185,37.063180,-93.308700,Eaglecrest St
631,37.070108,-93.228801,State Hwy CC/State Hwy J/US Hwy 65
185,37.000157,-93.089111,Amanda St/Renee Ave
160,37.017989,-93.243158,S 28th St/Unnammed Rd
216,37.024641,-93.302197,W Citydel Rd
305,37.025887,-93.311123,Pecan Ln/Hickory Ln
305,37.072769,-93.184012,E Whetstone/N Vintage Dr
160,37.016890,-93.214394,W Robertson St/S 11th St
160,37.031645,-93.313834,W Cambridge Ave/Linwood Ave
216,37.064607,-93.249053,Bellerive Dr/Interlochen Dr
160,37.037526,-93.210078,State Hwy Nn
160,36.859855,-93.304205,/US Hwy 160 S
185,37.079815,-93.233305,/Parkway Cir/N 23rd St
160,36.869451,-93.303774,Valley Woods Rd/Water Ln
160,37.069324,-93.194774,State Hwy Nn/N 11th Ave
160,37.028717,-93.235956,W Bingham/N 24th St
185,37.029050,-93.330473,/S Golden Meadows Dr/W Gooch Rd
216,37.086726,-93.307954,W Scarlino Ct/N Tuscany Ln
185,37.036589,-93.292002,S Amberwood Cir
160,37.064068,-93.250047,Canterbury Dr
362,37.028705,-93.227886,N 18th St
710,37.043124,-93.302587,/Massey Blvd
160,37.070628,-93.210191,N Gold Ln
185,37.079411,-93.233356,N 23rd St
216,36.997624,-93.219779,W Warren Ave/S 16th St
160,37.023451,-93.241104,/W Jackson Rd
362,37.025461,-93.318015,Gregg Rd
160,36.985032,-93.293670,Finley Dr/US Hwy 160 S
160,37.015277,-93.211180,S 9th St/Pebblebrook Dr
185,37.071592,-93.302421,N Massey Blvd
334,37.039835,-93.293708,Meadowlark St/Devonshire St/E South St
160,37.087399,-93.328515,/Guin Rd
160,37.054788,-93.272461,Spout Spring St/Stout Spring
160,37.060209,-93.308803,Kathryn St/Eaglecrest St
160,37.052568,-93.289443,E Kyle St/Evergreen Ave/Kyle St
185,37.031189,-93.224725,Valley Cir/N 17th St
276,37.029444,-93.299573,Pine Hill Ct
160,36.943078,-93.230328,Selmore Rd/State Hwy Ee
160,37.027175,-93.207022,W McCracken Rd
276,37.050633,-93.287066,North St/Hillcrest Ave
305,37.028482,-93.314150,Mulberry Ln/Butterfield Dr
185,37.002990,-93.139260,/Harmony Ln
216,37.049790,-93.275674,North St/Old Castle Rd
246,37.003615,-93.222275,Marler Ln
216,37.055846,-93.246000,/W McGuffey St
160,37.025665,-93.193571,E McCracken Rd/
216,37.005160,-93.198796,Amy Ln
305,37.051460,-93.299035,Fort Ave/W Aven Ave
185,37.087369,-93.326616,N Steeple Chase Ct/Guin Rd
185,37.032156,-93.201758,N Riverside Rd
185,37.036528,-93.292664,Yorkshire St/Ozark St
160,37.055714,-93.274042,Old Castle Rd/E Weldon Dr
216,37.062287,-93.302934,Bryan Dr
160,37.064095,-93.219248,Kissee Trl
185,37.087355,-93.325486,Nicholas Rd/Guin Rd
160,37.022253,-93.352159,Amber Ct
246,37.021525,-93.318145,W Inman Rd/Gregg Rd
305,37.034549,-93.479118,W Cherokee Path/Cheyenne
185,37.048067,-93.214993,N Weaver Rd/E River Bluff Dr
305,37.043973,-93.244867,N 31st St/W Trevor Trl
185,37.037472,-93.463816,Thyme Rd/State Hwy 14 W
216,37.004215,-93.209056,S 8th St/W South St
160,36.914625,-93.286645,/Glossip Ave
305,37.040001,-93.300018,Fort St/W South St
160,37.064041,-93.246500,Fremont Rd
160,37.068147,-93.312210,/Owen Rd
185,37.048221,-93.237227,N 25th St
276,36.997755,-93.187392,S 20th Ave
160,37.044507,-93.288865,Rice St/Gold St
160,37.019138,-93.428025,Robinson Rd
160,37.019703,-93.260993,E McCauley Rd
305,37.072493,-93.223691,/N 17th St
160,37.059585,-93.554744,S Pine St/W Howcroft Ave
185,37.056611,-93.291591,Haworth Ct
185,37.026736,-93.195031,E Bingham St/N 12th Ave
185,37.036082,-93.479090,Choctaw/Cheyenne
160,37.030570,-93.293411,Horseshoe Dr
185,37.028526,-93.197180,N 10th Ave
472,37.068885,-93.232695,N Town Center Dr/N 22nd St
216,37.037739,-93.326836,Vintage Ln/Hwy M
552,37.020922,-93.205099,E Church/N 1st St/W Church St
160,37.046833,-93.236779,N 25th St
160,37.001040,-93.076027,Main St/Plum St
216,36.976071,-93.192688,Oak Tree Ln/Black Locust Ln
246,37.018496,-93.202807,E Oak St/S 4th Ave
276,37.060558,-93.303931,/Kenneth St
276,37.081653,-93.301055,Meadowview Dr
160,37.033264,-93.258094,Colleen Dr
216,37.013339,-93.208110,W Wren St/S 5th St
246,37.069989,-93.194137,/E Torrey Pines Dr/N 12th Ave
216,37.068052,-93.319684,Marble Dr/Stonecreek Dr
160,37.041142,-93.445656,State Hwy Zz
246,37.040372,-93.280252,Crystal Ave/E Crystal Ave/Tiffany Blvd
216,37.034553,-93.480101,W Cherokee Path/Seminole
185,36.995820,-93.214787,S 12th St/W Ridgecrest
160,37.074566,-93.280075,Monet Rd
160,37.015282,-93.309217,Norton Rd
246,37.039769,-93.227486,US Hwy 65
160,37.000480,-93.219228,W Rainey St
160,37.017819,-93.161010,Forgey Rd/McCracken Rd
160,37.068929,-93.325986,/Nicholas Rd
216,37.073660,-93.184409,E Warwick Dr
160,37.006437,-93.186842,S 18th Ave
160,37.002099,-93.131109,/State Hwy 14
160,37.041061,-93.445658,State Hwy Zz
185,37.018689,-93.211129,W Oak St/S 9th St
160,37.058202,-93.178157,N Willow Rd
160,37.057413,-93.222864,W Lifecare Cir
160,36.874337,-93.282209,/Sassafras Rd
185,37.081682,-93.303904,/Meadowview Dr
160,37.053268,-93.298978,Carlton St/Fort Ave
185,37.055802,-93.197713,/Indian Valley Rd
305,37.060726,-93.219271,State Hwy Nn
334,37.064953,-93.551921,NW Washington Ave/NE Oak St/E Washington Ave
276,37.064524,-93.223846,Kissee Trl/N 17th St
160,36.972235,-93.283204,/Highlandville Rd
160,37.057306,-93.223985,/W Lifecare Cir
160,37.015760,-93.211168,S 9th St
216,36.994893,-93.218054,S Lilac St/W Snider St
362,37.027364,-93.319712,Butterfield Dr/Cedarwood Ct
160,37.003079,-93.193307,S 14th Ave
216,37.044124,-93.283305,E Spring Valley Cir/Spring Valley Cir
160,37.072076,-93.211277,N Tan Ln
445,37.025232,-93.211103,W Jackson St/N 9th St
160,37.053106,-93.309871,N Elderberry Ln/W Wild Rose
185,37.043160,-93.198708,/E Stonehill Rd
246,37.026499,-93.202905,E McCracken Rd/N 4th Ave
160,37.089870,-93.319707,/James River Ct
160,37.010885,-93.218279,S 14th St
216,37.006261,-93.217659,S Atlas Ct/W Kirkwood St
185,37.049791,-93.275561,North St/E North St
246,37.050086,-93.291741,Pearl St/Missouri Ave
185,36.953739,-93.231620,US Hwy 65
160,37.001699,-93.105936,State Hwy 14/
185,37.063616,-93.219193,/State Hwy Nn
839,37.043617,-93.306461,State Hwy 14/Estes St
160,37.017477,-93.201944,E Robertson/S 5th Ave
160,36.962613,-93.288537,Sunset Brg/Harris Blvd
160,37.001779,-93.139734,Harmony Cir
185,37.066107,-93.231722,N 21st St/W Calhoun
246,36.998455,-93.207892,W Matthew St
160,37.033428,-93.295021,Hillside Dr/S Main St
276,37.026158,-93.205810,N 3rd St/W McCracken Rd
160,37.055776,-93.199980,/Indian Valley Rd
185,37.026779,-93.232776,N 22nd St
160,37.019775,-93.334058,/S Nicholas Rd
216,37.055777,-93.243795,W McGuffey St/W McGuffey
185,37.043049,-93.236426,N 21st St
160,37.067281,-93.550108,/SE Madison Ave
160,37.060253,-93.287671,Gretchen St/Thorn Hill
160,37.089054,-93.310921,/Owen Rd/Guin Rd
276,37.024372,-93.320605,Pinewood
160,37.002401,-93.082684,N Oak Ave/Scott St
185,37.028940,-93.326924,S Nicholas Rd
160,37.048649,-93.170384,/N Bobwhite Dr
276,36.998309,-93.207340,W Matthew St/Candace St
160,37.023862,-93.253513,Kimber Rd/N 37th St
276,36.994980,-93.220814,W Snider St
160,37.038231,-93.239650,N Cedarwood
160,37.033488,-93.482337,Snowdrop Ave
185,37.035459,-93.285282,E Appleridge/S Carriage Xing
216,37.071373,-93.195740,/N 10th Ave
305,37.070145,-93.197214,E Current Dr
246,37.059852,-93.213050,N Penny Ct
160,37.047902,-93.241861,W Oak Run
216,37.072793,-93.293851,Cedar Dr//N State Hwy CC
160,37.032695,-93.477596,Little Ave
160,37.060667,-93.256427,Rolling Hills Dr/Shinnecock Dr
276,37.013365,-93.202720,S 5th Ave
185,37.063848,-93.219187,State Hwy Nn
160,37.058025,-93.556777,W Howard Ave/Garrison St
160,37.059098,-93.288490,/Dyann Dr/Gretchen St
185,37.054876,-93.282571,Taylor Way
160,37.025568,-93.186072,/N 19th Ave
160,37.032034,-93.313285,Fellows
160,36.934656,-93.231067,/Selmore Rd
185,37.051016,-93.314472,Yosemite Dr
305,37.001187,-93.086133,S Linden Ave/Linden Ave/Main St
160,37.054993,-93.119811,Thornbrooke Dr
418,37.006548,-93.214333,S Solaira St
185,37.078957,-93.233328,Twin Acres Ct
216,37.042331,-93.206952,W Boulder Rd/Stonehill Ct
160,37.051388,-93.312140,Milton Dr
160,37.017452,-93.305057,River Birch Ct
160,37.061503,-93.223243,N 17th St
246,37.039979,-93.298105,W South St/Texas Dr
185,37.019345,-93.210593,S 8th St/W Walnut St
160,36.999282,-93.090052,Crystal Ave
160,37.036819,-93.326870,Hwy M/Verna Ln
160,37.048087,-93.280899,Gasconade St
185,37.069508,-93.200913,State Hwy Nn
160,37.060082,-93.313626,Raven's Nest Ave/Kathryn St
185,37.020688,-93.333136,S Nicholas Rd
216,37.065595,-93.300767,/W Tracker Rd
305,37.019071,-93.229091,US Hwy 65
160,37.058600,-93.198176,/E Sunset Rd
160,37.059648,-93.222149,Brian Ln/N 17th St
216,37.001209,-93.088495,Main St/Autumn Dr
185,37.002643,-93.197195,S 11th Ave
185,36.993536,-93.084023,Redbud St/South Ave
160,37.080283,-93.316005,/Four Winds Dr
160,37.003218,-93.177155,State Hwy 14
160,37.011419,-93.217235,S 13th St/W Robin St
246,36.995997,-93.212785,Selmore Rd
216,36.827181,-93.221389,/US Hwy 65
160,37.019859,-93.211325,S 9th St/W Elm St/N 9th St
216,37.053662,-93.269934,Roubidoux
160,37.070197,-93.293908,N Main St
305,37.017446,-93.308344,/Chestnut Rd/Mahogany Rd
160,37.019767,-93.309063,Norton Rd
276,37.059498,-93.220191,Brian Ln
216,37.032929,-93.282934,Lantern Ridge/Southridge St
305,37.065042,-93.247652,Fremont Hills Dr/Congressional Cir
160,37.054856,-93.274738,Apollo Ct
305,37.048602,-93.307657,N Ellen St/Briarwood Ln
185,36.985396,-93.230788,US Hwy 65
160,36.977138,-93.192224,Oak Tree Ln/Oak Tree Cir
160,37.060077,-93.312156,Kathryn St/Bittersweet Ct
160,37.061281,-93.220851,W Carmen St
160,37.046272,-93.315734,Laurel Ln
390,37.054542,-93.294333,Northview Rd/N Main St
216,37.053056,-93.307559,N Ellen St
160,37.027320,-93.284666,Black Sands
160,36.875867,-93.300524,US Hwy 160 S
160,37.063062,-93.326128,Nicholas Rd
246,36.995869,-93.220205,S 16th St/Ridgecrest Ave
185,37.008929,-93.216030,W Hartley St
246,37.050688,-93.230400,/N 21st St
276,37.064949,-93.217480,W Meadowbrook Dr
362,37.028520,-93.323883,Ballard Dr/Butterfield Dr
160,37.043190,-93.276714,Majestic Oak
216,37.053655,-93.269684,Roubidoux
160,36.999012,-93.078968,/Sunset St
185,37.037433,-93.446301,/State Hwy 14 W
216,37.037684,-93.312099,Heather Glenn
216,36.974891,-93.230996,US Hwy 65
246,37.052712,-93.206452,Wakefield Dr
160,37.055920,-93.334671,N Ventura Ct
160,37.081949,-93.239915,N Martingale Cir/W Westwind Dr
160,37.084045,-93.321490,Prairie Ct
390,37.029811,-93.283782,E Gold Fever Ct
160,37.066654,-93.181265,Quail Meadow Rd
185,37.058710,-93.223130,W Riggs Ct
276,37.002135,-93.088415,Autumn Dr
160,37.026337,-93.328432,Butterfly Ct/Mesa Dr
185,37.037135,-93.313238,Sterling
160,37.057324,-93.189169,Houghton Dr/N Smallin Rd
246,37.024908,-93.221560,W Jackson St
418,37.007325,-93.188607,S 17th Ave/E Hartley St
216,37.045495,-93.294640,Walnut St/N Main St
185,37.041554,-93.227295,US Hwy 65
276,37.038088,-93.198061,E Stone Ridge Dr/E Stoneridge Dr/N 9th Ave
160,37.052266,-93.172343,N Bobolink
160,37.001343,-93.097089,State Hwy 14
445,36.994956,-93.220265,S Lotus St/W Snider St
160,36.907442,-93.199987,Hummingbird Rd
160,37.066881,-93.549615,/NE Oak St/SE Madison Ave
160,37.068637,-93.556339,2nd St
160,37.030575,-93.261050,/Wildflower Ln
160,36.975462,-93.225650,Old Prospect Rd/
472,37.004551,-93.220763,/US Hwy 65 Bus
160,37.075706,-93.370844,/Nelson Mill Rd
216,37.059758,-93.562057,/SW Elm St
160,37.037935,-93.210268,/State Hwy Nn
246,37.044678,-93.237673,N 25th St
160,37.060087,-93.285704,Arlington/Thorn Hill
160,37.058028,-93.557053,W Howard Ave/Garrison St
185,37.018531,-93.204541,E Oak St/S 2nd Ave
160,37.031473,-93.201161,E Crossland
185,37.029774,-93.133678,Essex Dr
160,36.908940,-93.077479,State Hwy H/Camp Ridge Rd
334,37.032129,-93.296629,W Twin Oak Dr/S Creekwood
246,37.065254,-93.273593,E Rush Ct
185,37.066680,-93.246478,Fremont Rd
216,37.053973,-93.273441,Roubidoux/Althea
276,36.998794,-93.208473,W Matthew St
362,37.031812,-93.482399,Snowdrop Ave/Appleberry
185,37.067372,-93.293984,N Main St
185,36.997151,-93.214787,W Warren Ave
334,37.006216,-93.216502,W Kirkwood St/S Treetop Ct
185,37.064515,-93.250245,/Canterbury Dr/Interlochen Dr
160,37.065847,-93.332875,/W Tracker Rd
160,37.014859,-93.195709,S 11th Ave/E Lark St
160,37.049803,-93.306547,Clover Ct
631,37.069825,-93.232683,N 22nd St
160,37.036079,-93.237458,Kendall
445,37.064840,-93.231718,/N 21st St
276,37.044601,-93.316783,Maplecrest Dr
160,36.986270,-93.294689,US Hwy 160 S
160,37.000167,-93.090122,Amanda St/Crystal Ave
160,37.035025,-93.591839,US Hwy 60/Lambeth Rd
994,37.043631,-93.303820,State Hwy 14/West St
160,37.074406,-92.903171,Martins Branch Rd
185,37.071449,-93.212504,N White St/W Black St
216,37.057222,-93.240427,N Thistle Dr
246,37.026255,-93.217882,W Diane St
276,37.057562,-93.243814,W Cover Dr/N 29th St
185,37.004422,-93.215989,W South St/US Hwy 65 Bus
246,37.040795,-93.266616,Timber Hill
160,37.008390,-93.213580,W Chase Ct
362,37.068695,-93.231662,/N Town Center Dr
160,37.018583,-93.207412,W Oak St/S 4th St
160,37.046374,-93.545975,Dreier Rd/State Hwy 14 W
185,37.054721,-93.280106,E Roubidoux/N Santa Monica Dr
160,37.047228,-93.296299,Kentwood Ave
160,37.002790,-93.117928,State Hwy 14/Fig Dr
246,37.031124,-93.295070,S Main St/Trotter St
160,36.942445,-93.154524,Mockingbird Hill
160,37.039755,-93.212143,State Hwy Nn/Harpers Hill Rd
390,37.068319,-93.223784,/W Skyline Ave/N 17th St
160,37.017371,-93.214323,S 11th St
185,37.033498,-93.482908,Ashton Ave
499,37.043585,-93.312224,State Hwy 14/Center Cir
246,37.067164,-93.260862,Green Haven Dr
216,36.934733,-93.232363,US Hwy 65
185,37.043545,-93.240122,N Rhodes Cir
276,37.026654,-93.322703,Ballard Dr/Dunn Pl
276,37.092022,-93.297757,N Massey Blvd
185,37.036071,-93.477053,Shawnee Ct
160,37.017736,-93.159145,/McCracken Rd
305,37.059384,-93.299051,Deerfield Dr/W Deerfield Dr
305,37.038480,-93.313760,/Dustin Ln/Charm Dr
160,37.076103,-93.192051,N 13th Ave
160,37.088369,-93.310007,W Cortona Dr/N Prato Ct
185,36.863081,-93.227827,US Hwy 65
390,37.024356,-93.319523,/Grassey Ct
160,37.047009,-93.330247,Kent Cir
160,37.058701,-93.349597,W Union Chapel Rd
185,37.001122,-93.197497,S 11th Ave
362,37.067966,-93.223793,/Boat St/N 17th St
305,37.032797,-93.330320,/W Old Bittersweet
445,37.001174,-93.085202,Main St/Maple St
160,36.999083,-93.194294,E Daniels
160,37.025553,-93.187130,N 18th Ave/E McCracken Rd
216,37.000426,-93.202401,Elk Valley Rd
362,37.027415,-93.312015,Hickory Ln
334,37.042912,-93.299384,Fort St/Jeff St
185,36.968233,-93.231267,US Hwy 65
160,36.975703,-93.190648,Bayberry Dr/Black Locust Ln
390,37.083555,-93.297508,Commerce Dr/N State Hwy CC
160,37.004588,-93.070347,Division St
246,37.093033,-93.386919,Lakeview Dr
160,37.028694,-93.191678,E Highview St/N 15th Ave
160,36.910260,-93.244376,US Hwy 65
160,36.869465,-93.299546,Valley Woods Rd/Elder Rd
160,37.039971,-93.310817,Truman Blvd
185,37.056663,-93.290443,Bill Ring Ct
246,37.053902,-93.275494,Roubidoux
276,37.035390,-93.210009,N 9th St
160,37.000437,-93.217042,W Rainey St
185,37.043416,-93.291090,N Market St/E Mount Vernon St/S Market St
185,36.845574,-93.220197,US Hwy 65
160,37.035351,-93.198879,N 7th Ave/E Rock Creek
246,37.062949,-93.229306,Air Park Rd
160,37.005294,-93.211775,S 10th St/W Waverly St
160,37.055553,-93.224060,/W Garton Rd
160,37.076867,-93.537037,Bluebell Rd/NE Elm St
160,37.075147,-93.298188,N Pine St
185,37.069063,-93.191715,/N Pheasant Rd
160,37.061623,-93.219335,Carmen St
390,37.070262,-93.232684,State Hwy CC/N 22nd St
276,37.069913,-93.545727,Tommy Ave/Linda Ln
216,37.051369,-93.278495,Twin Maple Ct/Rockingham Ave
390,37.060270,-93.294162,N Main St
185,36.937177,-93.232001,US Hwy 65
216,36.924515,-93.284312,US Hwy 160 S/White Ln
276,37.003617,-93.222454,Marler Ln
216,37.076943,-93.300624,N Massey Blvd
185,36.836338,-93.218645,US Hwy 65
305,37.033320,-93.210459,N 9th St
185,37.000946,-93.199110,E Daniels
216,37.053973,-93.274076,Roubidoux/Old Castle Rd
334,37.026427,-93.226079,17th St/W Dawn St
276,37.090791,-93.298007,Guin Rd/N Massey Blvd
216,37.007346,-93.214307,W Tyson Ct/S Solaira St
246,37.089150,-93.092900,/E County Line Rd
160,37.062893,-93.547331,/Hwy 14
160,37.070259,-93.248742,Sawgrass Ave
160,37.027590,-93.295171,S Main St
160,37.048626,-93.237768,Longview Rd
305,37.064820,-93.212309,10th St/Brookshire St/Cobblefield Way
160,37.023585,-93.297205,Sunrise Dr/Shady Oak Dr
185,37.013255,-93.206574,S 3rd St/W Wren St
160,37.017802,-93.609070,Staiger Rd
216,37.048994,-93.230752,N 21st St
390,37.031881,-93.482994,Ashton Ave/Appleberry
185,37.056326,-93.298508,Tonya St/Fort Ct
185,37.012530,-93.208128,S 6th St/S 5th St
216,37.047249,-93.216503,State Hwy Nn
276,37.058273,-93.300599,Dabney Ave
246,37.006613,-93.196748,Chandler St
160,36.994428,-93.083291,Johnson/Wildwood Ln
216,37.053011,-93.210380,Ivy Creek Dr
185,37.033640,-93.477486,McKnight
160,37.029840,-93.197840,N 9th Ave
160,36.998903,-93.085212,Barber Ct/Magnolia St
216,37.022081,-93.232671,N 21st St/W Brick St
362,37.043577,-93.313424,State Hwy 14
160,37.072638,-93.097871,Loganberry Dr/Santa Fe Rd
185,37.063062,-93.551024,S Republic St/E Purdy Ave
160,37.057897,-93.298468,Fort Ct
160,37.061617,-93.219955,Carmen St
216,37.054609,-93.300682,Dabney Ave/Northview Rd
334,37.037990,-93.227676,US Hwy 65
185,36.861953,-93.301134,US Hwy 160 S
334,37.029337,-93.325675,Pinhook Dr
216,37.026508,-93.232876,/N 22nd St
160,37.051362,-93.407726,Kerr Rd
160,37.054661,-93.569609,/US Hwy 60
160,37.025480,-93.184503,McCracken Rd
246,37.062000,-93.296094,Flora St
160,37.055780,-93.264985,N Cheyenne Rd
160,36.969925,-93.243843,Kentucky Rd
185,37.050760,-93.289882,North St
160,37.065540,-93.310395,W Tracker Rd
160,37.037701,-93.228864,N 20th St
216,37.052671,-93.205827,3rd St
160,37.056346,-93.567097,US Hwy 60
362,37.036686,-93.283080,Bishops/Gallup Hill
305,36.998347,-93.078895,Gator Ln
160,37.058921,-93.213811,Sunset Rd
246,36.963701,-93.193238,Iowa Dr/Shady Ln
160,37.004612,-93.072377,Division St
160,37.025707,-93.325398,S Foxx Dr/Pinhook Dr
185,37.034085,-93.287959,Poplar St
305,36.999489,-93.207458,W Daniels St
246,36.927343,-93.284558,Glossip Ave/Mulberry Rd
185,37.028486,-93.201462,E Parkview Cir
472,36.994554,-93.209642,S 7th St/W Snider
276,37.038087,-93.473027,/State Hwy P
160,37.027450,-93.330301,Paradise Dr
160,37.013769,-93.207526,S 4th St/W Swan St
185,37.057538,-93.289748,Clayton St/Slim Wilson Blvd
246,37.069031,-93.233745,N Town Center Dr/N 23rd St
418,37.006464,-93.214353,/S Solaira St
160,37.059486,-93.243754,Ashley Cir/N 30th St
334,37.064084,-93.296963,Ashley Dr/Kinder St
185,37.036321,-93.304101,West St
160,37.027537,-93.295173,S Main St
216,37.050950,-93.299044,Fort Ave/Tower St
246,37.039151,-93.326797,Hwy M
246,36.826861,-93.222141,US Hwy 65
160,37.010656,-93.217275,/S 13th St
216,37.054258,-93.275687,Galileo
334,37.010132,-93.182527,E Finch
246,37.065706,-93.223820,/N 17th St
160,37.022928,-93.465935,Clever Hts/E Grant St
160,36.995338,-93.053062,State Hwy 125
185,37.077543,-93.191974,N 13th Ave/E Hampton Dr
160,37.037095,-93.210105,Harpers Hill Rd
185,37.061365,-93.291526,Kiwi Ct/Peachtree Dr
305,37.033299,-93.210462,N 9th St
185,37.061349,-93.290834,Peachtree Dr
216,37.061227,-93.554657,W Mount Vernon Rd/S Pine St/E Mt Vernon Rd
185,37.065774,-93.309755,Mulberry Ct
185,37.062983,-93.229903,Air Park Rd
216,37.073321,-93.306113,Georgia St
246,36.998118,-93.201749,S Gristmill Ct/E Windmill Dr
185,37.087354,-93.325229,Guin Rd
185,37.022254,-93.202668,E Hall St/N 4th Ave
305,37.012034,-93.182793,E Wren
185,37.033969,-93.199912,N Patriot Dr
185,37.039198,-93.289017,E King Carriage Blvd/S Stoney Path
160,36.923759,-93.238343,Crystal Dr
334,37.059562,-93.294180,Deanna Ln/N Main St
160,37.025493,-93.184938,McCracken Rd
362,37.054549,-93.294815,Northview Rd
839,37.043635,-93.303312,/State Hwy 14
160,36.828039,-93.220847,US Hwy 65
216,37.084083,-93.300299,English Village Park
185,37.039447,-93.304015,W Bryant St/West St
160,37.020989,-93.208659,W Church St
276,37.066884,-93.257778,Rolling Hills Dr
160,37.076534,-93.185199,N 19th Ave
334,37.065588,-93.301547,Robin St/W Tracker Rd
216,37.045723,-93.280351,Country Ridge
276,37.003400,-93.186354,State Hwy 14/
160,37.002883,-93.174911,State Hwy W
185,37.038297,-93.293921,Devonshire St/E Church Hill Ct
160,36.931176,-93.280744,/State Hwy Ee
216,37.034533,-93.478138,W Cherokee Path/Chippewa
362,37.070058,-93.226979,State Hwy J
185,37.046962,-93.318604,Meadow St
160,37.008976,-93.218982,S 15th St/W Hartley St
276,37.010803,-93.520412,/Carefree Ln
160,37.009829,-93.341452,/Smith Hill Rd
185,36.999787,-93.085191,Barber Ct
246,37.028781,-93.203391,/N Riverside Rd
216,37.028183,-93.192731,N 14th Ave
246,36.975396,-93.231265,US Hwy 65
160,37.058905,-93.209329,N 8th St
276,37.027616,-93.324456,S Foxx Dr
216,37.056663,-93.240413,N Thistle Dr
160,37.081904,-93.238632,N 26th St/W Westwind Dr
305,37.060089,-93.219290,State Hwy Nn
276,37.040004,-93.299458,W South St/Harrison St
246,37.039247,-93.277077,Elegant/E Crimson Ave
160,37.032660,-93.468530,E Robin Rd/N Elm Ave/E Loyal Ln
160,37.089031,-93.308976,Guin Rd
160,36.999924,-93.189265,S 16th Ave
185,37.059757,-93.223277,N 17th St
160,36.994739,-93.342526,/S Nicholas Rd
160,37.023251,-93.094622,/State Hwy 125 N
160,37.043730,-93.329946,State Hwy 14/Westminster Dr
246,37.032204,-93.223643,N 16th St/Crossland St
185,37.064704,-93.274697,E Rush Ct/Rich Hill
185,37.080918,-93.205027,Blue Stem Rd
216,37.092619,-93.231511,US Hwy 65
736,37.026529,-93.227080,Stenger/W Dawn St
390,37.065581,-93.302232,Bryan Dr/W Tracker Rd
390,37.032732,-93.228237,US Hwy 65
185,37.053238,-93.297091,Carlton St/Fairway
185,37.048718,-93.237384,Longview Rd
185,37.076780,-93.191145,Melton Rd
185,37.032217,-93.310142,W Cambridge Ave/Hackberry
216,37.069542,-93.254351,Greenbriar Dr/Rolling Hills Dr
160,37.064043,-93.246647,Bellerive Dr
246,37.031751,-93.295048,S Main St
185,36.862427,-93.300632,US Hwy 160 S
160,37.083134,-93.488388,Long Dr
160,37.025807,-93.197284,E McCracken Rd/N 10th Ave
160,37.053279,-93.314243,Parkmor Heights Ave/Yellowstone St
216,37.081567,-93.229885,US Hwy 65
276,36.997320,-93.205167,W Warren Ave/S Denny
185,37.000813,-93.061988,/State Hwy 125
160,36.974070,-93.175832,/State Hwy W
185,37.061747,-93.223239,N 17th St
160,37.074029,-93.304115,/W Bentwater Dr
185,37.045802,-93.309684,Bluebird Ln/Osage Dr
185,37.032783,-93.329829,/W Old Bittersweet
160,36.996644,-93.196072,E Warren Ave/S 12th Ave
160,37.001353,-93.097297,Industrial Park Dr/State Hwy 14
216,37.021378,-93.231198,N 20th St/W Evangel St
216,37.026454,-93.232941,/N 22nd St
185,36.863073,-93.227985,US Hwy 65
185,37.000143,-93.088113,Amanda St/Alf St
185,37.056283,-93.295757,Tonya St/Erin St
160,37.047791,-93.202131,/E River Bluff Dr
160,36.976115,-93.189629,Shady Ln
160,37.019927,-93.230350,N 19th St/W Elm St
216,37.071164,-93.176253,Hollywood
246,37.070406,-93.252792,Rolling Hills Dr/Winged Foot Dr
216,36.876025,-93.231601,/US Hwy 65
160,37.031980,-93.297946,S South Gate Dr/W Trail Point Dr
185,36.997163,-93.215048,W Warren Ave
160,37.024452,-93.208017,W Jackson St
185,37.044044,-93.277222,Scenic View Ct
160,37.051312,-93.316064,Zion/Denali
160,36.922283,-93.285482,Glossip Ave
276,37.067788,-93.195874,E Skyline
160,37.003375,-93.086063,/State Hwy 125 N
160,37.004598,-93.070990,Division St
160,36.972210,-93.284098,Rescue Rd
185,37.065558,-93.307540,W Tracker Rd
390,37.007329,-93.188694,E Hartley St
334,37.065561,-93.296902,W Tracker Rd
216,37.065168,-93.246493,Fremont Rd/Fremont Hills Dr
216,37.077589,-93.195008,E Hampton Dr/N 10th Ave
160,37.043931,-93.402271,/State Hwy 14 W
160,37.062159,-93.554604,W Russell Ave/S Pine St
185,37.003366,-93.185020,State Hwy 14
362,37.007296,-93.187968,S 17th Ave/E Hartley St
362,37.043657,-93.299289,State Hwy 14/N Fort St
499,37.004711,-93.094360,Sugar Tree Rd
216,37.061236,-93.219256,/State Hwy Nn
185,37.064714,-93.261033,Button Wood Dr
160,36.978293,-93.215591,Tillman Rd
160,36.972315,-93.284012,/Rescue Rd
216,37.069914,-93.200433,E Current Cir
185,37.047421,-93.329273,N Richards Castle Dr
160,37.015705,-93.320981,S Becky St
185,37.053252,-93.298166,Carlton St/Delaware St N
160,37.076432,-93.371161,Nelson Mill Rd/
185,37.062618,-93.219220,State Hwy Nn
160,36.937824,-93.278139,Bartlet/Meadowlark
160,36.976821,-93.230178,/Selmore Rd
185,37.034803,-93.326935,Woodcastle Rd/Hwy M
160,37.069736,-93.203147,N 2nd Ave
216,37.031058,-93.471131,Carter Ct
305,37.029249,-93.314309,Mulberry Ln/Crestwood St
246,37.004845,-93.228754,/US Hwy 65 Bus
246,37.070118,-93.197857,/E Current Dr
246,37.025713,-93.260248,N 43rd St
160,37.082351,-93.251470,Westwind Dr
160,37.056507,-93.277525,Maplewood Hills Dr
160,37.058639,-93.298010,Hunter Dr/Pheasant Run
185,37.056346,-93.172179,N Bobolink//E Covey Ln
185,37.043638,-93.322113,State Hwy 14/Leeann Dr
160,37.020116,-93.252095,E McCauley Rd/N 36th St
160,37.045690,-93.390820,State Hwy 14 W
160,37.018977,-93.299654,Massey Blvd
160,37.088491,-93.297515,Michael Ln
185,37.053933,-93.306915,N Old Wilderness Rd/Old Wilderness Rd
216,37.055278,-93.282403,Jordan
160,36.827554,-93.186194,A-3
216,37.038673,-93.326811,Hwy M/W Snyder Blvd
160,37.075658,-93.280039,Monet Rd
160,37.077204,-93.325686,/Nicholas Rd
305,37.054618,-93.301870,Northview Dr/Northview Rd
246,37.031151,-93.483125,Ashton Ave
160,37.010613,-93.193333,E Samuel J St/Summerhill
160,37.020801,-93.199181,E Church/N 8th Ave
216,37.064101,-93.220353,Kissee Trl
160,36.930926,-93.281145,Highlandville Rd/State Hwy Ee
445,37.068817,-93.219052,State Hwy Nn
631,37.071607,-93.223762,/N 17th St
305,37.053570,-93.280154,Santa Monica/N Santa Monica Dr/Montarosa
185,37.027691,-93.314020,Arrowwood Ln/W Arrowwood Ln
185,37.037428,-93.445635,State Hwy 14 W/State Hwy Zz
185,36.911687,-93.244521,US Hwy 65
160,37.007860,-93.417516,/State Hwy N/Mt Carmel Rd
216,37.067831,-93.553164,/NW Jefferson Ave
185,37.000628,-93.184705,S Thomas Dr
160,37.041813,-93.284863,Crimson
216,37.001268,-93.202377,S 6th Ave
160,37.024259,-93.537082,Napper Rd/Zoller Rd
246,37.030168,-93.309913,Pembrook/Hackberry
390,37.033127,-93.199600,N 7th Ave/Country Crest Rd
160,37.039700,-93.275023,E Mount Vernon St
216,37.024071,-93.297146,Shady Oak Cir/Shady Oak Dr
276,37.041570,-93.326722,Hwy M
160,36.983493,-93.309902,W Riverdale Dr
185,36.946046,-93.231768,US Hwy 65
185,36.950363,-93.231988,US Hwy 65
160,36.943105,-93.232375,State Hwy Ee
160,37.061622,-93.219402,Carmen St
362,37.066304,-93.219121,/State Hwy Nn
185,37.006348,-93.199224,S 9th Ave
216,37.066575,-93.304530,Middle Sex Rd
185,37.067142,-93.310560,Huckleberry Ct
334,37.025082,-93.210474,W Jackson St
185,37.050523,-93.284758,North St/Niangua Dr
160,37.079694,-93.287807,E Lindbergh Rd/Middle Rd
185,37.033361,-93.201767,Riverside Rd
216,37.056453,-93.218878,State Hwy Nn
160,36.931261,-93.232132,US Hwy 65
418,37.065579,-93.303127,W Tracker Rd
185,37.045314,-93.215056,/N Weaver Rd
160,37.039799,-93.261083,W Jackson Rd
160,36.913644,-93.295299,Accacia Dr
160,37.037851,-93.480368,State Hwy 14 W
334,37.039986,-93.301396,W South St/Village Center St
160,37.016842,-93.273460,/Minnehaha Rd
160,37.065732,-93.277975,Rockingham/E Donegal Cir
216,37.064484,-93.217505,Cobblefield Way
160,37.069886,-93.215414,State Hwy Nn
160,36.996253,-93.213492,W Meadow
216,37.030533,-93.483014,/Brown St
160,37.069667,-93.203149,N 2nd Ave
334,37.061242,-93.199844,/Sunrise Ct
160,36.982410,-93.292089,Jones Rd
334,37.056256,-93.294264,Tonya St/N Main St
246,37.045845,-93.317451,W Oakhurst St/N Gregg Rd
160,37.004884,-93.083826,Division St/North Ave
185,37.064102,-93.219783,Kissee Trl
276,37.072468,-93.293864,N Main St
185,37.056932,-93.238104,N Grassland Dr
305,37.025984,-93.327658,S Nicholas Rd/Mesa Dr
160,37.012836,-93.158566,/State Hwy Jj
160,37.032187,-93.315024,W Cambridge Ave/Timber Ridge
390,37.037441,-93.292625,/Ozark St
445,37.062508,-93.228296,N 20th St
160,37.066245,-93.224060,/N 17th St
246,37.003491,-93.189481,State Hwy 14
276,37.037423,-93.291734,S Amberwood Cir//E Gallup Hill Rd
276,37.009392,-93.183228,E Samuel J St
160,37.084303,-93.234160,W Ridgeview Cir/N 23rd St
160,37.026551,-93.470715,S Clark Ave
160,37.017999,-93.609552,US Hwy 60
305,37.023405,-93.318770,Redwood St/Hedge Dr
160,37.079755,-93.291936,Laurel Hill Pl/E Lindbergh Rd
160,37.083194,-93.302336,English Village Park
185,37.057866,-93.297395,Brooke Ct
276,37.066810,-93.247786,Winged Foot Dr
185,37.066992,-93.250784,Winged Foot Dr
185,37.065560,-93.307634,W Tracker Rd
160,37.004382,-93.193259,/S 14th Ave
305,37.061184,-93.294139,W Sherman Way/N Main St
216,36.856757,-93.225606,US Hwy 65
334,37.032300,-93.296856,S Creekwood
185,37.079763,-93.292639,/E Lindbergh Rd
216,37.031264,-93.202749,Finley River Pkwy
160,37.050891,-93.311109,Honeysuckle Ln/Persimmon Dr
160,37.069864,-93.319593,Slate Dr/Stonecreek Dr
185,37.071572,-93.261127,State Hwy CC
160,37.085052,-93.120121,State Hwy 125/Brandy Wine
216,37.023176,-93.233664,N 23rd St/W Jackson Rd
216,37.004976,-93.089165,Adam Ave/Millbrooke
160,37.067450,-93.251105,Winged Foot Dr/Spyglass Ave
362,37.043556,-93.314946,State Hwy 14
216,37.008145,-93.089022,Cobblestone Ln
185,37.061041,-93.223256,N 17th St
160,37.074628,-93.198429,N 7th Ave/E Waterford Blvd
185,36.999774,-93.194879,E Rainey St
160,37.030253,-93.231851,N Missouri Dr
160,36.956604,-93.293645,Juniper Rd
216,37.001454,-93.229730,/US Hwy 65
216,37.010778,-93.183324,S 21st Ave
160,37.026900,-93.477416,Old Wire Rd/Westgate Dr
160,37.013387,-93.197570,S 10th Ave/E Wren St
216,37.023509,-93.205699,W Farmer St/N 2nd St/E Farmer St
160,37.016466,-93.305473,Almond Ct/Chestnut Ave
216,37.024146,-93.299962,Massey Blvd
185,37.032858,-93.289886,Baldknobber St/Eagle St
160,37.062364,-93.286222,N Bay Meadow Ct
185,37.015751,-93.221208,17th St
390,37.030288,-93.284282,River Rock Ct
160,37.035913,-93.325109,W Tori Dr/Ryleigh Cir
185,37.008161,-93.090373,Cobblestone Ln
185,37.010470,-93.188526,Melaine Ln/S 17th Ave/E Samuel J St
185,37.076783,-93.191283,Melton Rd/State Hwy Nn
185,37.000382,-93.195967,S 12th Ave
160,37.021774,-93.334264,W Inman Rd/Pinetree Ln
160,36.997236,-93.294839,Mayfair S Ln
185,37.053543,-93.246081,/N 31st St/W Webb Rd
246,37.056291,-93.296362,Tonya St/Fairway Ct
160,37.031051,-93.317689,Pembrook Ave
246,36.996509,-93.187436,S 20th Ave
