Estimated daily crossings,Latitude,Longitude,Name
160,36.818910,-91.859443,/NE Co Rd 168/Co Rd 2010
160,37.010277,-91.981107,Oakwood Dr/Hickory Hills Dr
185,36.750157,-91.881435,Gleghorn St
160,36.791997,-91.895118,Pvt Rd 1715
185,36.737270,-91.862596,/N Minnesota Ave
160,36.675589,-91.861385,State Hwy 17/Pvt Rd 8880
160,36.750670,-91.875650,Lasswell St
160,36.723127,-91.852732,S Aid Ave/E Maple St/W Maple St
160,36.737722,-91.857826,McDaniel St/W Thornburgh St
788,36.727117,-91.852614,W Leyda Ave/S Aid Ave/E Leyda Ave
185,36.727087,-91.891843,Oak Park Blvd/E State Hwy K
160,36.706174,-91.868865,Co Rd 8460
160,36.768228,-91.881189,Ridgewood Dr/Sunset Ter
160,36.991845,-91.769239,Co Rd 2850/US Hwy 60
160,36.997444,-91.700743,Ash St/E 3rd St
185,36.732041,-91.851367,E 1st St/Jackson St
160,36.997960,-91.703507,W 4th St
246,37.007311,-91.702174,Stub St
185,36.717650,-91.871409,Jan Howard Expy
605,36.731209,-91.856104,Garfield Ave/W Broadway St
160,36.771989,-91.887351,Co Rd 4300/Quarry Rd
160,36.993122,-91.700938,S Elm St/Washington St
160,36.753640,-91.878000,Deatherage Ave/Lee Anna Dr
160,36.737034,-91.873660,W 6th St
216,36.746576,-91.890241,Katherine Dr
160,36.915122,-91.931362,Pr Dr
160,36.753709,-91.842650,St Louis St
216,36.985492,-91.976225,/S Harris St
185,36.735900,-91.862030,W 5th St/N Minnesota Ave
160,37.007534,-91.990732,Co Rd 5270
160,36.716582,-91.848720,Jan Howard Expy
160,36.992092,-91.782231,US Hwy 60
390,36.717997,-91.872878,Preacher Roe Blvd/Jan Howard Expy
160,36.991795,-91.819198,State Rte Nn
216,36.757146,-91.876904,McFarland St/Kissinger St
185,36.990405,-91.700680,E James St
472,36.728292,-91.852928,Court Sq/W Main St
160,36.991487,-91.806830,Co Rd 2650/US Hwy 60
160,36.754100,-91.867934,Co Rd 1770
246,36.728295,-91.858446,W Main St/Franklin Ave
160,36.717224,-91.875521,Worley Dr/Co Rd 6460
160,36.664721,-91.732000,/Co Rd 9510
160,36.736178,-91.888165,Roberta Ave/Kelsey Dr
160,36.713368,-91.876408,Mitchell Rd
160,36.722193,-91.869523,Preacher Roe Blvd
185,36.733864,-91.852355,E Thrid St/E 3rd St
160,36.979210,-91.956121,Burnham Rd
185,36.732953,-91.852452,Washington Ave/W 2nd St/E 2nd St
216,36.972284,-91.935308,Pr Rd 1271/US Hwy 60
362,36.717960,-91.872739,Preacher Roe Blvd/Jan Howard Expy
160,36.986259,-91.957802,E Main St
216,36.985671,-91.976037,S Harris St
160,36.737208,-91.848848,Columbus St/Myrtle St
185,36.994040,-91.968798,W 4th St
160,36.993401,-91.691908,S Jackson St
246,36.726418,-91.854871,Worcester St
160,37.001000,-91.702318,7th St/N Elm St
160,36.753472,-91.872163,Holiday Ln/Girdley St
305,36.731151,-91.853690,W Broadway St/Jefferson Ave
160,36.757635,-91.872307,Porter Wagoner Blvd
160,36.768852,-91.879713,Porter Wagoner Blvd
185,37.003988,-91.969122,W 11th St/11 Th St Ridge/N Ferguson St
185,36.996076,-91.726150,US Hwy 60
334,36.729285,-91.848084,Jackie Garret Dr
185,36.710099,-91.876171,Co Rd 6070/US Hwy 160
160,36.992903,-91.971484,/N Ferguson St
160,36.727113,-91.839540,E Main St/S Thayer Ave
160,36.745955,-91.880182,Hull St/Padgett Dr
246,36.997780,-91.705365,Pine St/W 4th St/N Pine St
160,36.717548,-91.832044,S Thayer Ave/Bill Virdon Blvd
552,36.727134,-91.854019,W Leyda Ave/Cherry St
185,36.972061,-91.938173,/US Hwy 63
160,37.012032,-91.991992,/W Business Highway 60-63
552,36.729661,-91.854407,W Trish Knight St/Langston St
246,36.742634,-91.874048,Gibson Ave
362,36.728051,-91.852253,E Main St/Court Sq
160,36.983817,-91.698951,Kansas St
160,37.046325,-92.011624,US Hwy 60-63
160,36.711301,-91.825273,Riggs
276,36.996089,-91.966387,N Center St
160,36.760821,-91.877165,Wayhaven Dr/Roe Ave/Wayhaven Ave
185,36.990263,-91.964990,Short St//E 3rd St
160,36.982023,-91.715832,State Hwy 17/Pruett St
160,36.747745,-91.859044,Luna Dr/1770/Elizabeth St
526,36.727124,-91.854271,W Leyda Ave/Leyda Ave
216,36.727023,-91.850486,S Hill
418,36.730279,-91.856120,W Cass Ave/Garfield Ave
185,36.744746,-91.882542,Kay Dr
160,36.768363,-91.879266,Porter Wagoner Blvd/Sunset Ter
160,36.747431,-91.891365,Terra St/Linda St
160,36.868835,-91.917166,US Hwy 63
160,36.945334,-91.933822,Co Rd 2720/US Hwy 63
160,36.746032,-91.863264,Freedom Dr
276,36.731518,-91.876200,Kentucky Ave
788,36.730299,-91.857831,W Cass Ave
216,36.727869,-91.866149,Garrett St/Westmont Dr
160,36.728411,-91.864042,N Harlin Dr/W Main St
160,36.751595,-91.890635,Siloam Springs Rd
160,36.999717,-91.688804,Derks St/E 5th St
185,36.996515,-91.709947,Vine St/Deboard Dr
499,36.742666,-91.877212,Gibson Ave
160,36.974225,-91.859850,/US Hwy 60
160,36.741969,-91.988001,6894/6895
160,36.989116,-91.964511,N Grand St/E Main St
160,36.775490,-91.885354,Co Rd 163
160,36.736168,-91.851230,Jackson St/E Paydon St
160,36.751687,-91.885308,Lexington Ave
185,36.738296,-91.860008,W Thornburgh St
710,36.729705,-91.856142,Garfield Ave/Trish Knight St
185,36.737177,-91.868389,N Nevada Ave
276,36.742583,-91.872135,Gibson Ave/Porter Wagoner Blvd/Missouri Ave
160,37.000524,-91.702245,N Elm St
276,36.718057,-91.872690,Preacher Roe Blvd/Jan Howard Expy
160,37.040133,-92.007435,Co Rd 1010/US Hwy 60/US Hwy 60-63
160,36.753323,-91.872405,/Porter Wagoner Blvd
185,36.744015,-91.859916,Dana St
216,36.999124,-91.702103,N Elm St/Elm St
445,36.727860,-91.852533,S Aid Ave/Court Sq
160,36.727851,-91.867830,Garrett St/Elmore Dr
362,36.730274,-91.854355,W Cass Ave/Langston St
160,36.921513,-91.929632,/State Rte Uu
185,36.730542,-91.876237,/Kentucky Ave
160,36.988048,-91.982743,US Hwy 60
160,36.748068,-91.874802,Kentucky Ave
160,36.910800,-91.925359,Co Rd 2480/US Hwy 63
160,37.001040,-91.662917,/US Hwy 60
160,36.721656,-91.834464,Elvis Presley Blvd/Butler Ave/Bill Virdon Blvd
160,36.990422,-91.700996,S Elm St/E James St
160,36.736148,-91.850269,St Louis St/E Paydon St
305,36.732229,-91.860353,W 1st St/N Minnesota Ave
216,36.722528,-91.846464,E Maple St/Tanglewood Pl
499,36.728183,-91.853537,/W Main St
160,36.726608,-91.845093,Hynes St/Grace Ave
160,37.001229,-91.700821,N Ash St/E 7th St
305,36.738850,-91.869051,Porter Wagoner Blvd
185,36.730342,-91.860406,W Cass Ave/N Minnesota Ave
160,36.724284,-91.849734,Prospect Ave/Caldwell St
216,36.734745,-91.852451,Washington Ave/W Olden St/E Olden St
216,36.728021,-91.844740,Jackie Garret Dr
160,36.727658,-91.864095,S Harlin Dr/Cynthia Dr/Harlin Dr
362,36.727091,-91.851455,Walnut St/E Leyda Ave
334,36.730195,-91.852536,W Cass Ave/Washington Ave/Cass Ave
160,36.745011,-91.877282,Hoglen Dr/Cole St
185,36.744692,-91.805350,/Parish Rd 2731
160,36.726469,-91.839353,Grace Ave/S Thayer Ave
160,36.710307,-91.877427,Mitchell Rd/6070
305,36.739050,-91.877132,Jan Howard Expy
160,36.723993,-91.854330,W Poplar Ave/Cherry St
160,36.997390,-91.700961,Ash St/E 3rd St
160,36.982071,-91.974849,5050/Bolerjack Rd
216,36.747143,-91.890143,Katherine Dr/Terra St
526,36.731229,-91.857261,W Broadway St/Missouri Ave
160,36.866396,-91.886919,State Rte N
160,36.741941,-91.847555,/Joe Jones Blvd
216,36.991602,-91.969651,N Hwy 137/
160,36.739199,-91.843298,Eads St/Davidson St
160,37.021656,-91.995299,/US Hwy 60/US Hwy 60-63
216,36.987984,-91.691477,Micheal Stihl Rd
472,36.728102,-91.849703,/E Main St
160,36.734022,-91.881964,Greenway Dr/Country Club Dr
160,37.000971,-91.683905,W Industrial Dr/US Hwy 60
216,36.728633,-91.841262,Allen St
160,37.004087,-91.974773,Co Rd 1030
160,36.747727,-91.876606,Jan Howard Expy
160,36.995662,-91.965301,N Hwy 137/N Harris St/7th St
160,36.990258,-91.693393,E James St/Hazel St
160,36.736149,-91.873630,W 5th St/Alaska St
160,36.757764,-91.882478,Paula Dr/Howard Ave
185,36.595849,-92.108351,Co Rd 7280/State Hwy 101
160,36.707777,-91.873702,/Co Rd 8230
160,36.740751,-91.875528,10th St/Kentucky Ave
160,36.988328,-91.973184,S Harris St
216,36.995126,-91.691857,Fairway Dr/S Jackson St
276,36.710648,-91.877131,Mitchell Rd
216,36.708931,-91.827169,Knight St
276,36.732141,-91.852482,Washington Ave
160,36.738134,-91.841960,/Sesson St
605,36.726385,-91.853504,Oak St/Worcester St
160,36.733033,-91.854891,/W 2nd St/Lincoln Ave
160,36.858157,-91.918792,US Hwy 63
216,36.733565,-91.874797,/W 2nd St
305,36.716328,-91.874178,Worley Dr
185,36.757732,-91.880712,Howard Ave
160,36.732919,-91.851358,Jackson St/E 2nd St
216,36.727996,-91.845942,E Main St/S Howell Ave
216,36.975376,-91.945626,/US Hwy 60
160,36.768307,-91.884511,Jennifer Dr/Sunset Ter
160,36.998488,-91.708951,4th Street Cove
160,36.721446,-91.870919,Preacher Roe Blvd/Circle Dr
160,36.650724,-91.691277,Quincey Ave/Main St/E Brandsville Main St
160,36.721928,-91.895273,Dogwood Cir
216,36.734645,-91.847831,E Olden St
160,36.760726,-91.874191,/Wayhaven Dr/Wayhaven Ave
160,36.804590,-91.896474,US Hwy 63
160,37.004869,-91.700751,N Ash St
160,36.731759,-91.874962,W Broadway St/Valley View Dr
160,36.747238,-91.875565,Kentucky Ave
185,36.716623,-91.849729,Jan Howard Expy
160,36.983800,-91.955671,E Main St
216,36.724302,-91.850533,S Hill/Prospect Ave
305,36.711860,-91.875526,Preacher Roe Blvd
185,36.720960,-91.841595,E Hickory St/Lanton Rd
185,37.001266,-91.702349,E 7th St/N Elm St
185,36.718305,-91.872585,/Preacher Roe Blvd
160,36.747785,-91.859867,Jon St/Elizabeth St
216,36.731264,-91.858930,/W Broadway St
160,36.781575,-91.839924,St Louis St
185,36.833992,-91.915577,/NE 182
160,36.709592,-91.880166,Co Rd 6070
185,36.733267,-91.864256,W 2nd St/Porter Wagoner Blvd
216,37.005267,-91.974992,Anney
160,36.741571,-91.833518,Joe Jones Blvd
305,36.712392,-91.876643,Mitchell Rd
160,36.721482,-91.870878,Preacher Roe Blvd/Old Hwy 160
418,36.729913,-91.849145,Jackie Garret Dr
160,36.738666,-91.865044,Minnesota Ave/8th St/N Minnesota Ave
160,36.833919,-91.916061,NE 182/NW 474/US Hwy 63
216,36.734651,-91.847986,Crestwood Cir/E Olden St
160,36.925567,-91.932201,US Hwy 63
552,36.727517,-91.853565,/Garrett St
216,36.985387,-91.714192,Falck St/Meadow Ln
160,36.997589,-91.698261,N Maple St/E 3rd St
185,36.731322,-91.861291,W Broadway St/Nebraska Ave
246,36.994202,-91.969031,W 4th St
246,36.998554,-91.698596,N Maple St/E 4th St
334,36.731583,-91.852497,Washington Ave/W 1st St
160,36.755256,-91.878941,Melissa Pl
160,36.920894,-91.930664,Co Rd 5360/US Hwy 63/State Rte Uu
246,36.725220,-91.848132,Amyx St/Walker St
160,36.727651,-91.858536,Garrett St/Pierce St
185,36.716152,-91.832654,Jan Howard Expy
160,36.784128,-91.839968,/St Louis St
160,37.012048,-91.994820,/Exit Ramp/W Business Highway 60-63
160,36.764810,-91.881157,Ridgewood Dr/Kelly Ave
499,36.729064,-91.850371,St Louis St/E Dixon St
185,36.993969,-91.968695,W 4th St/N Center St/E 4th St
185,36.740185,-91.885063,Stoney Dr/Sycamore Dr
160,36.965402,-91.883573,State Rte U/US Hwy 60
362,36.994771,-91.971293,W 3rd St/Campbell St
160,36.736558,-91.888160,Kelsey Dr
160,36.988130,-91.961276,/E Main St
160,36.576960,-91.815629,State Hwy 17/Co Rd 879
246,36.727135,-91.857342,W Leyda Ave/Parks St
185,36.738733,-91.867963,8th St
160,36.716240,-91.850827,State Hwy 17
246,36.731182,-91.854985,W Broadway St/Lincoln Ave
160,36.743989,-91.861035,Independence Dr/Good Hard Dr
185,36.753765,-91.879563,Lambe Ave
160,36.736186,-91.888573,Roberta/Roberta Ave
160,36.861089,-91.916232,/Co Rd 1350
185,36.728683,-91.845963,N Howell Ave/E Dixon St
362,36.727503,-91.851431,Walnut St/
160,36.991262,-91.963557,4th St/N Ash St
185,36.737599,-91.861049,W Thornburgh St/Missouri Ave
216,36.724769,-91.867637,Reaves St/Humphries Dr
246,36.728127,-91.846491,E Main St/N Howell Ave/S Howell Ave
362,36.718194,-91.873105,/Jan Howard Expy
160,36.726223,-91.857374,Parks St/Worcester St
305,36.730924,-91.852519,Washington Ave/
246,36.712399,-91.875124,8230/Preacher Roe Blvd/Bruce Smith Pkwy
185,36.991357,-91.700980,S Elm St
185,36.708131,-91.827023,Stewart St
216,36.994506,-91.964766,E 6th St/N Grand St
362,36.739125,-91.869370,Porter Wagoner Blvd
160,36.767083,-91.884554,Jennifer Pl
160,36.755398,-91.881744,Deatherage Ave
160,36.747508,-91.892252,Terra St
160,36.587530,-92.058761,/Co Rd 7370
216,36.747121,-91.889127,Terra St/Christopher St
185,36.708112,-91.827291,Creamery Rd/Stewart St
160,37.010319,-91.990695,/Co Rd 5270
160,36.736169,-91.887440,Roberta/Roberta Ave
160,36.997161,-91.709930,Vine St/W 3rd St
160,36.604968,-92.108228,/State Hwy 101
160,36.965051,-91.928023,US Hwy 63
160,36.982472,-91.974251,US Hwy 60
390,36.714928,-91.875364,Mitchell Rd/Chuck Ln
216,36.853664,-91.919042,US Hwy 63
526,36.729149,-91.855090,Dixon/Lincoln Ave
160,36.965440,-91.928749,US Hwy 63
160,36.976491,-91.703579,Bush Ln/Carl Yarber Dr
160,36.743609,-91.859933,Dana St/Good Hard Dr
160,36.921210,-91.930140,/State Rte Uu
276,36.996290,-91.966168,W High St/N Center St/7th St/E High St
839,36.727145,-91.853587,W Leyda Ave/
160,36.996562,-91.711694,Deboard Dr/N Harrison St
160,36.724247,-91.848179,Walker St/Prospect Ave
160,36.921382,-91.930534,/US Hwy 63
160,36.993438,-91.700917,S Elm St
526,36.729674,-91.854990,W Trish Knight St/Trish Knight St
160,36.945321,-91.933476,Co Rd 2720/US Hwy 63
185,36.972242,-91.937860,/Pvt Rd 1271
185,36.726017,-91.866284,Westmont Dr/Worcester St
160,37.000818,-91.678410,Tom Frommel Memorial Dr/US Hwy 60
160,36.996445,-91.964739,N Hwy 137/E High St
185,37.005144,-91.992093,US Hwy 60
160,36.907095,-91.921890,Co Rd 1310/5320
160,36.737046,-91.874091,W 6th St
160,37.001374,-91.964611,Legion Cir/N Walnut St
160,36.736508,-91.842247,Manze Ave
185,36.737966,-91.871455,W 7th St
216,36.993075,-91.966400,Park St/N Walnut St
160,36.741601,-91.834714,/Joe Jones Blvd
160,36.990251,-91.700994,James St//S Elm St/State Rte W
160,36.994427,-91.967381,/5th St
185,36.986772,-91.701044,S Elm St/Douglas St
334,36.716264,-91.873952,Worley Dr
160,36.726939,-91.831175,Co Rd 8240
160,36.731315,-91.883763,Catalina Dr
246,37.005098,-91.975878,Co Rd 1030/Bray Dr
160,36.750292,-91.891156,Linda St/Gleghorn St
472,36.728503,-91.850383,/St Louis St
185,36.731388,-91.864596,/W Broadway St
160,36.970367,-91.934932,US Hwy 63
160,36.838066,-91.917473,US Hwy 63
362,36.712151,-91.876702,/Mitchell Rd
216,36.733613,-91.852440,Washington Ave
216,36.728202,-91.854462,Langston St/W Main St
216,36.992659,-91.693914,/Washington St
246,36.734783,-91.853641,/W Olden St
160,36.726626,-91.845958,Grace Ave/S Howell Ave
185,36.753606,-91.882133,Kay Dr/Lamb Ave
216,36.992470,-91.700953,S Elm St
362,36.731112,-91.852505,Washington Ave/W Broadway St/Jackie Garret Dr
160,36.716292,-91.837204,Jan Howard Expy
185,36.753631,-91.883133,Lynn Dr/Lamb Ave
185,36.938737,-91.933653,US Hwy 63
499,36.728181,-91.853090,W Main St
334,36.738229,-91.868315,/Porter Wagoner Blvd
160,36.999668,-91.712701,W 5th St/US Hwy 60
390,36.736338,-91.845652,/N Howell Ave
160,36.727815,-91.864090,N Harlin Dr/Garrett St/Harlin Dr
216,36.726674,-91.850497,S Hill/Grace Ave
160,36.869240,-91.909647,Co Rd 1510/NE 139/1390
185,36.726656,-91.847432,Grove St/Grace Ave
216,36.693628,-91.800113,US Hwy 63
160,36.704420,-91.816053,/US Hwy 63
160,36.729431,-91.859550,Webster Ave/Pennsylvania Ave
160,36.877847,-91.905246,NE 234
362,36.994248,-91.971658,W 3rd St/Summit Ave
334,36.993519,-91.970823,/N Ferguson St
185,36.709940,-91.876241,/US Hwy 160
185,36.725427,-91.864206,S Harlin Dr/Woodland Ave
185,36.749995,-91.879842,Jackie Dr/Gleghorn St
185,36.992297,-91.969846,E Main St
185,36.742925,-91.883402,Gibson Ave/Chateau Dr
160,36.768038,-91.884519,Jennifer Pl/Jennifer Dr
216,36.716081,-91.831655,/Jan Howard Expy
334,36.728117,-91.850464,S Hill/E Main St
185,36.732253,-91.861266,W 1st St/Nebraska Ave
160,36.654415,-91.695876,Co Rd 9790/Jefferson Ave/US Hwy 63
246,36.732108,-91.856073,Garfield Ave/W 1st St
160,36.740760,-91.897815,Co Rd 6020
362,36.728440,-91.852456,Washington Ave/Court Sq
246,36.996317,-91.967107,/W High St
160,36.711174,-91.825216,Yeager Dr/Riggs
276,36.997294,-91.705018,/Pine St/N Pine Ave
160,36.866614,-91.917478,US Hwy 63
276,36.711928,-91.875330,/Preacher Roe Blvd/Co Rd 8230
160,36.733397,-91.864296,W 2nd St/Porter Wagoner Blvd
185,36.730100,-91.874854,Valley View Dr
334,36.735374,-91.859048,Williams St/Missouri Ave
185,36.727630,-91.868555,Elmore Dr/S Utah Ave
160,36.734276,-91.865685,N Nevada Ave/W 3rd St
185,36.749878,-91.852899,Rader Dr
185,36.995367,-91.971275,W 4th St/Campbell St
160,36.731515,-91.850432,St Louis St/Bratton Ave
185,36.717769,-91.871674,Jan Howard Expy
390,36.993838,-91.970479,W 3rd St/N Ferguson St
605,36.742669,-91.875463,Gibson Ave/Kentucky Ave
185,36.725288,-91.850502,Amyx St/S Hill
160,36.750319,-91.884805,Debra Dr/4100/Gleghorn St
552,36.729653,-91.853711,W Trish Knight St/Jefferson Ave
216,36.727979,-91.845295,E Main St
160,36.715045,-91.828145,/Creamery Rd
160,36.741948,-91.847782,Joe Jones Blvd
276,36.712842,-91.874929,Preacher Roe Blvd
160,36.724013,-91.849754,/Caldwell St
160,36.513919,-91.801755,State Hwy 17/Co Rd 9880
185,36.736824,-91.862356,W 6th St/W Thornburgh St/N Minnesota Ave
160,36.991941,-91.697777,Plum St/Belmont St
160,36.978225,-91.841708,Co Rd 2390/State Rte Ra/US Hwy 60
160,36.992610,-91.691949,Washington St/S Jackson St
185,36.718376,-91.841654,Lanton Rd
276,36.730550,-91.866479,Cass Ave/Halstead St
160,36.733397,-91.865269,N Nevada Ave/W 2nd St
160,36.970517,-91.934692,US Hwy 63
185,36.726420,-91.837447,Grace Ave
246,36.711659,-91.875514,Preacher Roe Blvd
160,36.728044,-91.847935,E Main St
160,36.787412,-91.862591,Co Rd 1930/1260
160,36.767987,-91.882235,Paula Dr
185,36.750024,-91.880761,Joan Dr/Gleghorn St
216,36.746317,-91.876911,Jan Howard Expy
185,36.833954,-91.915780,NE 182/US Hwy 63
160,36.985235,-91.827989,US Hwy 60
160,36.529069,-91.989331,/State Rte E
216,36.729470,-91.861331,Webster Ave/Nebraska Ave
160,36.726970,-91.829467,Co Rd 8240
185,36.749787,-91.880763,Joan Dr/Joann Dr
160,36.633706,-91.951671,/US Hwy 160
160,36.721177,-91.871218,Preacher Roe Blvd
160,36.724611,-91.864342,S Harlin Dr/Renfrow Ave
160,36.713284,-91.876428,Mitchell Rd/Robin Wood Dr
160,36.990656,-91.963569,N Ash St/E 3rd St
160,36.974758,-91.945601,Coastal Dr
160,36.653702,-91.695865,Jefferson Ave
185,36.992938,-91.700942,S Elm St
160,36.724498,-91.862387,Renfrow Ave/S Arkansas Ave
362,36.994178,-91.971738,/Summit Ave
160,36.615867,-92.049170,US Hwy 160/State Rte Oo
526,36.729123,-91.853725,Jefferson Ave/Dixon
276,36.999462,-91.698547,N Maple St/E 5th St
246,36.999522,-91.701666,E 5th St/Elm St
160,36.996492,-91.973719,W High St/W Main St
160,36.965270,-91.928456,US Hwy 63
185,36.725726,-91.877465,Pottersville Rd/E State Hwy K/Jan Howard Expy
160,36.991841,-91.700969,S Elm St
185,36.735462,-91.861793,/N Minnesota Ave
185,36.985457,-91.713231,Von Allmen St/Meadow Ln
160,36.519730,-91.887680,142 Sthy
216,36.731005,-91.850400,/St Louis St
305,36.740793,-91.877090,Jan Howard Expy
445,36.739566,-91.869901,W 8th St/Porter Wagoner Blvd
334,36.741454,-91.881801,Country Club Dr/Timber Ln
160,36.744610,-91.951165,State Hwy CC/Co Rd 4830
185,36.749875,-91.852094,Lakeview Dr/Rader Dr
185,36.993803,-91.961693,/E 6th St
246,36.996214,-91.966056,7th St
160,36.746645,-91.862956,Commerce Dr/Good Hard Dr
160,36.792015,-91.895467,Co Rd 1710/US Hwy 63
185,36.745589,-91.860983,Lisa St/Tiffany St
185,36.987780,-91.701035,S Elm St/Pennycuick Dr
160,36.972918,-91.936717,Pr Rd 1271/US Hwy 60
185,36.722321,-91.844318,Johnson St/E Maple St
185,36.737712,-91.861147,W Thornburgh St/Missouri Ave
185,36.718348,-91.872738,Preacher Roe Blvd
160,36.713408,-91.877445,Robin Wood Dr
160,36.661486,-91.878272,/Co Rd 8130
185,37.002022,-91.702434,Elm St
246,36.760066,-91.881248,Ridgewood Dr
160,36.713089,-91.876475,Mitchell Rd
216,36.755362,-91.872906,Jan Howard Expy
160,36.731385,-91.863887,W Broadway St
160,36.716335,-91.850830,Co Rd 8270/State Hwy 17
160,36.728376,-91.862256,N Arkansas Ave/W Main St/N Arkansas St
185,36.761030,-91.881236,Ridgewood Dr/Wayhaven Dr
160,36.737148,-91.877177,Jan Howard Expy
160,36.725676,-91.877836,E State Hwy K
160,36.737017,-91.872905,Tio Dr/W 6th St
160,36.730402,-91.862225,W Cass Ave/N Arkansas Ave
160,36.725294,-91.908224,Remington Dr
418,36.716106,-91.873531,/Worley Dr/Preacher Roe Blvd
334,36.731326,-91.852505,Washington Ave
216,37.005263,-91.974571,Anney/11th St
160,36.998409,-91.684871,Tom Frommel Memorial Dr
160,36.970553,-91.934773,US Hwy 63
160,36.993726,-91.703839,S Pine St
216,36.717974,-91.872394,/Jan Howard Expy
160,36.792095,-91.895484,US Hwy 63
362,36.994332,-91.971746,W 3rd St
185,36.709569,-91.873650,Co Rd 8230
160,36.736712,-91.888158,Kelsey Dr
185,36.736164,-91.856347,Garfield Ave/McDaniel St
160,36.982990,-91.713740,State Hwy 17/Falck St
216,36.724490,-91.850527,S Hill/Prospect St
246,36.995826,-91.704247,N Pine St/2nd St
160,36.710171,-91.877054,Co Rd 6070/6070
185,36.992517,-91.700952,S Elm St
160,36.742374,-91.869049,Missouri Ave
160,36.517214,-92.092953,State Hwy 142/Co Rd 7880
160,36.977930,-91.705682,Webb St/McCann St
185,36.977792,-91.842799,US Hwy 60
185,36.735109,-91.847992,Crestwood Cir
160,36.736165,-91.873969,W 5th St
160,37.000332,-91.696828,E 6th St/N Marr St
216,36.722336,-91.845202,Hynes St/E Maple St
246,36.727693,-91.859574,Garrett St/Monks St
160,36.729190,-91.876263,Kentucky Ave
499,36.716295,-91.873444,/Preacher Roe Blvd
1149,36.729740,-91.857284,Trish Knight St/Missouri Ave
160,36.994933,-91.968150,W 5th St/5th St
216,36.993203,-91.971142,W Main St/N Ferguson St
160,36.754706,-91.882110,Kay Dr/Burke Ave
160,36.741564,-91.833234,/Joe Jones Blvd
160,36.726614,-91.845382,Grace Ave
160,36.679855,-91.897997,Co Rd 8010
160,36.746512,-91.888389,Palmer St
160,36.727467,-91.897998,E State Hwy K
160,36.665754,-91.907875,Co Rd 7000
246,37.002216,-91.705318,/N Pine Ave
216,36.753692,-91.878987,Deatherage Ave/Melissa Pl
160,36.727428,-91.866175,Cynthia Dr/Westmont Dr
216,36.735566,-91.865439,Porter Wagoner Blvd
246,36.742643,-91.874455,Gibson Ave
185,36.750203,-91.881549,Gleghorn St
334,36.731199,-91.855434,/W Broadway St
160,37.012015,-91.991995,Exit Ramp/
160,36.857515,-91.918868,Co Rd 1350/US Hwy 63
216,36.735135,-91.866216,W 4th St/N Nevada Ave
160,36.725680,-91.877790,E State Hwy K
160,36.987873,-91.973664,W Hill St/S Harris St/Hill St
185,36.753618,-91.879686,Jackie Dr/Lamb Ave/Lambe Ave
185,36.717677,-91.871528,Jan Howard Expy
160,36.833875,-91.916286,/NW 474
160,36.981742,-91.971647,US Hwy 60
160,36.726490,-91.839840,Woods St/Grace Ave
185,36.732334,-91.864045,Porter Wagoner Blvd/W 1st St
160,37.000923,-91.682798,US Hwy 60/Co Rd 3500
160,36.997146,-91.701951,W 3rd St/N Elm St/E 3rd St
185,36.716157,-91.832747,Jan Howard Expy
418,36.716334,-91.873617,Preacher Roe Blvd
160,36.722913,-91.849397,/E Maple St
216,36.985372,-91.976048,Exit Ramp/
185,36.708840,-91.873671,Co Rd 8230
160,36.716403,-91.841459,8490/Jan Howard Expy/Lanton Rd
160,36.672380,-91.911722,/W US Hwy 160
246,36.736873,-91.866699,W 6th St/Porter Wagoner Blvd
185,36.711666,-91.827718,Creamery Rd/Crider St
216,36.734608,-91.860339,Williams St
160,36.709544,-91.970700,/Co Rd 6750
185,36.717774,-91.841659,Lanton Rd
185,37.004996,-91.707493,Delp Rd/Elam St
185,36.718494,-91.873448,Old Hwy 160
185,37.001181,-91.698524,N Maple St/E 7th St
160,36.750504,-91.875012,Jan Howard Expy
160,36.743746,-91.859146,Luna Dr
160,36.978988,-91.956200,Burnham Rd
160,36.747094,-91.888157,Terra St
160,36.722531,-91.865125,Nichols Dr/Preacher Roe Blvd/S Harlin Dr
445,36.728188,-91.853759,Jefferson Ave/W Main St
246,36.997727,-91.699552,E 3rd St/N Plum St
418,36.728443,-91.852686,Washington Ave/Court Sq
216,36.985320,-91.976413,S Harris St
185,36.730120,-91.876243,/Kentucky Ave
185,36.723986,-91.853639,Oak St/W Poplar Ave
160,36.735570,-91.854828,Lincoln Ave
246,36.711778,-91.875405,Preacher Roe Blvd
160,36.724383,-91.843335,Simpson St/Prospect Ave
216,36.725286,-91.853572,Oak St
160,36.753471,-91.872401,McFarland St/Girdley St/Porter Wagoner Blvd
185,36.707941,-91.827267,Creamery Rd
160,36.738143,-91.842296,/Sesson St
246,36.996296,-91.966637,W High St
276,36.994619,-91.969623,W 4th St/N Ferguson St
185,36.722247,-91.842673,/E Maple St
160,36.735274,-91.873666,Alaska St/4th
160,36.733020,-91.847821,Higby St
160,36.716968,-91.849884,S Curry St
246,36.967985,-91.932086,US Hwy 63
160,36.646435,-91.690473,Quincy Ave
216,36.976774,-91.945846,US Hwy 60 Bus
160,36.976189,-91.703581,Carl Yarber Dr
185,36.716019,-91.831213,Bill Virdon Blvd/Jan Howard Expy
216,36.996276,-91.965407,E High St
160,36.708909,-91.876725,US Hwy 160
160,37.012032,-91.991986,W Business Highway 60-63
160,36.987872,-91.981994,S Center Dr
160,36.896096,-91.918642,NE 242/Co Rd 5240/US Hwy 63
472,36.738952,-91.875569,Kentucky Ave/W 8th St
185,36.670497,-91.914156,W US Hwy 160
160,36.990387,-91.699331,E James St/S Ash St
160,36.709700,-91.879489,Co Rd 6070
362,36.728256,-91.852251,Court Sq/E Main St
160,37.046542,-92.011441,US Hwy 60-63
813,36.727147,-91.853791,W Leyda Ave
160,36.725541,-91.837327,Bill Virdon Blvd
276,36.743496,-91.877003,Jan Howard Expy
160,36.725910,-91.901310,/E State Hwy K
160,36.715216,-91.828051,Creamery Rd/US Hwy 63/Jan Howard Expy
160,36.804106,-91.669316,Pr Driveway
160,36.727015,-91.905345,Browning Ave/Bob White Ln
160,36.786266,-91.859165,2023
185,36.737697,-91.854772,W Thornburgh St/Lincoln Ave
160,36.869225,-91.907406,Co Rd 1510/1510
160,36.925525,-91.932539,US Hwy 63
160,36.975693,-91.946343,US Hwy 60
246,36.997547,-91.705178,Pine St
160,36.753762,-91.873463,McFarland St/Jan Howard Expy
216,36.996484,-91.704522,W 3rd St/N Pine St
246,36.742791,-91.881795,Gibson Ave/Country Club Dr
160,36.662773,-91.888818,/Co Rd 8070
216,36.745562,-91.859096,Lisa St/Luna Dr
185,36.992537,-91.968614,N Hwy 137/N Harris St/E 3rd St
185,37.005026,-91.708671,Delp Rd/Deer Park Ln
185,36.994466,-91.963719,N Ash St/E 6th St
160,36.738184,-91.844447,N College St/Sesson St
216,36.731998,-91.853737,Jefferson Ave/W 1st St
160,36.765800,-91.922495,/Co Rd 4220
160,36.991278,-91.964447,4th St/N Grand St
390,36.726400,-91.854040,Cherry St/Worcester St
160,36.981609,-91.709936,State Rte Ww
276,36.740530,-91.870882,Porter Wagoner Blvd
160,36.747167,-91.875577,Kentucky Ave
185,36.991216,-91.700981,S Elm St/Walnut
185,36.747442,-91.891778,Terra St
185,36.977876,-91.842576,US Hwy 60
185,36.995908,-91.702732,Oak St/2nd St
216,36.757838,-91.878267,Lee Anna Dr
445,36.739071,-91.875398,W 8th St
185,36.726392,-91.855064,Worcester St
891,36.730292,-91.857268,W Cass Ave/Missouri Ave
160,36.726210,-91.900704,E State Hwy K
216,36.716740,-91.874983,Mitchell Rd/Worley Dr
185,36.723694,-91.853648,Oak St
160,36.877948,-91.916088,NW 512
185,36.729468,-91.878553,Davis Dr
185,36.939777,-91.933625,/US Hwy 63
185,36.733704,-91.849243,Higby St/E 3rd St
160,36.753653,-91.884211,Debra Dr/Lamb Ave
160,36.990664,-91.693380,Hazel St
390,36.726329,-91.851495,Walnut St/Grove St
160,36.717065,-91.855370,Shuttee St
160,36.755158,-91.883097,Lynn Dr/Burke Ave
160,36.726316,-91.850487,S Hill/Grove St
160,36.982535,-91.974425,US Hwy 60
185,36.754089,-91.886213,Rita Pl
160,37.005254,-91.974151,Anney
246,36.745904,-91.859906,Lisa St/Jon St
185,37.002066,-91.700809,/N Ash St
160,36.910939,-91.925030,Co Rd 2480/US Hwy 63
160,36.994474,-91.737107,3140/US Hwy 60
185,36.713504,-91.876375,Mitchell Rd
185,36.755797,-91.872330,Porter Wagoner Blvd
246,36.727352,-91.845954,/S Howell Ave
552,36.729315,-91.850367,E Cleveland/St Louis St
160,36.711396,-91.825392,Riggs
246,36.713182,-91.874805,Preacher Roe Blvd
160,36.716650,-91.850803,S Hill/State Hwy 17/Jan Howard Expy
246,36.998022,-91.698457,N Maple St/E 3rd St
185,36.737005,-91.862026,W Thornburgh St
160,36.983260,-91.713142,Von Allmen St/State Hwy 17
160,36.994118,-91.696453,Park Dr/S Marr St
160,36.678034,-91.923458,State Hwy Ab
216,36.723208,-91.846465,Tanglewood Pl
160,36.721028,-91.871047,Circle Dr
216,37.000404,-91.700843,E 6th St/N Ash St
216,36.745885,-91.877239,Hoglen Dr/Hull St
160,36.727879,-91.867678,Garrett St/Humphries Dr
185,36.994951,-91.702399,Oak St/W 1st St
160,36.655475,-91.891727,Co Rd 8920/Co Rd 9000
185,36.995180,-91.693932,Fairway Dr
160,36.817166,-91.906029,Co Rd 1730
160,36.988965,-91.708435,Nina Ln
185,37.004962,-91.992352,US Hwy 60
160,36.744882,-91.859109,Luna Dr
160,36.986789,-91.691499,Micheal Stihl Rd
246,36.731821,-91.877305,W Broadway St/Jan Howard Expy
185,36.991181,-91.699295,Walnut/S Ash St
160,36.729513,-91.862244,N Arkansas Ave/Webster Ave
160,36.982723,-91.975552,US Hwy 60
160,36.744123,-91.886214,Gibson Ave
246,36.734510,-91.843432,E Olden St/Davidson St
216,36.733095,-91.859554,W 2nd St/Pennsylvania Ave
185,36.748020,-91.872562,Burgoyne Dr/Porter Wagoner Blvd
216,36.757742,-91.880943,Howard Ave/Ridgewood Pl
185,36.995868,-91.706669,Orchard St/2nd St
160,36.993221,-91.700934,S Elm St
276,36.731153,-91.853733,W Broadway St/Jefferson Ave
160,36.733190,-91.861215,W 2nd St/Nebraska Ave
334,36.730154,-91.850365,/Cass Ave/St Louis St
160,37.012035,-91.993354,W Business Highway 60-63/US Hwy 60
445,36.728245,-91.856222,Garfield Ave/W Main St/Summit St
246,36.728134,-91.851401,Walnut St/E Main St
160,36.722752,-91.897485,Dogwood Cir
216,36.724651,-91.866370,Westmont Dr
185,36.997463,-91.690387,/Bay St/E 3rd St
185,36.734297,-91.866873,W 3rd St/N Oregon Ave
160,36.750270,-91.890505,Siloam Springs Rd/Gleghorn St
390,36.739921,-91.877111,Jan Howard Expy
185,36.730990,-91.877324,Jan Howard Expy
160,37.001433,-91.964720,Legion Cir
445,36.730283,-91.855041,W Cass Ave/Lincoln Ave
160,36.733256,-91.863499,/W 2nd St
246,36.728631,-91.844522,N College St/E Dixon St
160,36.734403,-91.864708,W 3rd St/Porter Wagoner Blvd
246,36.737658,-91.853243,Jefferson Ave/W Thornburgh St
160,36.802585,-91.847454,Co Rd 1580/St Louis St
160,36.993123,-91.700912,Washington St
216,36.995983,-91.965735,7th St
160,36.981962,-91.974425,5050/Bolerjack Rd
160,36.804782,-91.895847,Co Rd 1560/Co Rd 1540/NE 156
246,36.742531,-91.870474,Missouri Ave
160,36.868714,-91.917488,US Hwy 63
216,36.853754,-91.919322,US Hwy 63
552,36.728781,-91.850374,St Louis St
305,36.711970,-91.875478,/Preacher Roe Blvd
160,37.001264,-91.690962,US Hwy 60
160,36.896083,-91.918265,NE 242/2420/US Hwy 63
160,36.715156,-91.827898,US Hwy 63
246,36.746546,-91.889195,Christopher St
160,36.724336,-91.853632,Oak St
160,37.040284,-92.007204,Co Rd 1010/US Hwy 60-63
216,36.737167,-91.847950,Newton St/Myrtle St
185,36.998528,-91.696861,N Marr St/E 4th St
418,36.728095,-91.849234,E Main St/S Curry St
246,36.734781,-91.853326,Jefferson Ave/W Olden St
160,36.866554,-91.917777,US Hwy 63
334,36.998872,-91.698608,N Maple St/E 4th St
185,36.728038,-91.847661,/E Main St
276,36.686680,-91.891213,W US Hwy 160
160,36.729963,-91.883552,Crawford St/Harrison Cr
185,36.725257,-91.849693,Amyx St/Caldwell St
216,36.732164,-91.857788,/W 1st St
160,36.750284,-91.884999,4100/Debra Dr/Gleghorn St
160,36.999546,-91.710806,W 5th St/Doris Dr
216,36.740979,-91.871243,Porter Wagoner Blvd
160,36.740707,-91.873456,10th St/Alaska St
445,36.727724,-91.852602,Aid Ave/S Aid Ave
216,36.999543,-91.702115,W 5th St/E 5th St/N Elm St
216,36.737300,-91.867210,/W 6th St/Porter Wagoner Blvd
216,36.706304,-91.873794,Co Rd 8460
160,36.986740,-91.700086,Douglas St/Missouri St
160,36.813284,-91.845516,Pr Rd 1601
160,36.726034,-91.865283,S Hazel St/Worcester St
185,36.745005,-91.859911,Jon St
362,36.731126,-91.852772,/W Broadway St
160,36.529244,-91.989249,State Rte E/7800
160,36.726001,-91.901125,E State Hwy K
185,36.848684,-91.919638,US Hwy 63
160,36.873621,-91.914986,Co Rd 4490//Burnett Dr
160,36.650946,-91.688757,US Hwy 63
160,36.907129,-91.923671,US Hwy 63/Co Rd 5320
160,36.733484,-91.847535,E 3rd St
418,36.718086,-91.873160,Jan Howard Expy
160,36.730869,-91.874963,Evergreen Dr/Valley View Dr
334,36.728142,-91.852058,E Main St
160,36.769460,-91.881813,Ridgewood Dr/Hoover Dr
362,36.729657,-91.852552,Washington Ave/W Trish Knight St/E Trish Knight St
160,36.986096,-91.975582,S Harris St/Hill St
246,36.728510,-91.846599,Jackie Garret Dr/S Howell Ave
216,36.728485,-91.904393,Quail Run Rd/Covey Dr
160,36.994469,-91.990710,US Hwy 60
185,36.718885,-91.869138,/Circle Dr
185,36.731339,-91.862212,W Broadway St/N Arkansas Ave
276,36.727585,-91.856256,Garrett St/Summit St
160,36.993561,-91.957473,Bryan St/Sunshine Dr
216,36.729063,-91.844513,N College St
160,37.000487,-91.964612,N Center St/N Walnut St
216,36.731252,-91.858361,W Broadway St/Franklin Ave
160,36.964411,-91.924304,US Hwy 63
216,36.728221,-91.855137,W Main St/Lincoln Ave
160,36.737017,-91.872546,W 6th St
185,36.722245,-91.842588,E Maple St
160,36.965455,-91.883355,US Hwy 60
216,36.751426,-91.872466,Porter Wagoner Blvd
216,36.995845,-91.705449,Blake St/Blake/2nd St
334,37.001812,-91.707092,Drake St
216,36.747108,-91.888470,Palmer St/Terra St
276,36.730243,-91.853704,W Cass Ave/Jefferson Ave
160,36.736167,-91.887147,Sarah St/Roberta Ave
605,36.728270,-91.857311,W Main St/Missouri Ave
276,36.976740,-91.713342,Woodruff St/Sara St
216,37.000020,-91.966652,N Corn Ave/W 10th St
160,36.724329,-91.855204,/Canterbury Ave
216,36.720886,-91.877795,Worley Dr
185,36.722593,-91.847080,Locust St/E Maple St
160,36.921053,-91.930367,US Hwy 63/State Rte Uu
216,36.727714,-91.860476,Garrett St/Preacher Roe Blvd
246,36.716360,-91.831261,/Bill Virdon Blvd
160,36.767908,-91.880074,Christie Dr
390,36.739845,-91.875546,Kentucky Ave/9th
216,36.728351,-91.861372,W Main St/Nebraska Ave
246,36.731791,-91.876191,W Broadway St/Kentucky Ave
185,36.720985,-91.842225,/E Hickory St
160,36.671763,-91.912517,W US Hwy 160
185,36.712378,-91.827934,Creamery Rd
160,36.998460,-91.688843,Derks St/4th St
216,36.735873,-91.866839,Oregon St/N Nevada Ave/N Oregon Ave
334,36.742552,-91.871143,Missouri Ave
160,36.981837,-91.955937,Co Rd 4990/Burnham Rd
160,36.993365,-91.700925,S Elm St
160,36.727243,-91.862301,W Leyda Ave/S Arkansas Ave
160,36.838147,-91.917201,US Hwy 63
185,36.735068,-91.865086,4th/Porter Wagoner Blvd
185,36.725936,-91.837892,Fairfield Ave/Bill Virdon Blvd
160,36.992335,-91.691966,S Jackson St
160,36.989196,-91.964888,Short St/E Main St
185,36.663788,-91.723102,US Hwy 63
185,36.988935,-91.963768,N Ash St/E Main St
185,36.726637,-91.846619,Grace Ave/Locust St
160,36.517605,-92.092127,State Rte Yy/State Hwy 142
362,36.738695,-91.868867,Minnesota Ave/Porter Wagoner Blvd/N Utah Ave
160,36.988074,-91.981993,S Center Dr
445,36.717741,-91.872990,/Preacher Roe Blvd
246,37.000472,-91.705401,N Pine St
160,36.760442,-91.874139,/Deatherage Ave
160,36.668473,-91.916741,Co Rd 6310/W US Hwy 160
216,36.744574,-91.860528,Dana St
185,36.711682,-91.827627,Crider St
160,36.724507,-91.851538,Walnut St/Prospect St
160,36.717233,-91.848713,Walker St
185,36.745903,-91.860974,Lisa St/Tiffany St
160,36.749109,-91.880232,Anne Dr/Anne St
160,36.745841,-91.864719,Independence Dr/Old Airport Rd
390,36.728617,-91.852571,Washington Ave
160,36.721039,-91.844373,Johnson St/E Hickory St
390,36.728336,-91.860454,Preacher Roe Blvd/W Main St/N Minnesota Ave
160,36.755517,-91.882568,Paula Dr/Deatherage Ave
160,36.518379,-92.106934,State Hwy 142
160,36.847612,-91.919974,US Hwy 63
160,37.004400,-91.700769,N Ash St/Buddy Ln/Sharp St
216,36.730785,-91.850912,/Jackie Garret Dr
160,36.722206,-91.855198,Shuttee/W Catalpa St/Shuttee St
160,36.680748,-91.898064,W US Hwy 160
185,36.728812,-91.877375,Jan Howard Expy
160,36.765455,-91.878361,Christie Dr/Stein Ave
160,36.991254,-91.968355,N Walnut St/E Main St
472,36.739884,-91.876685,9th
499,36.727871,-91.852682,Aid Ave/Court Sq
160,36.743902,-91.872553,Porter Wagoner Blvd/Imperial Dr
160,36.752033,-91.872447,Porter Wagoner Blvd
160,36.997795,-91.706607,W 4th St/Orchard St
499,36.738928,-91.876679,W 8th St
216,36.737089,-91.845633,N Howell Ave/Myrtle St
185,36.720996,-91.842714,/E Hickory St
185,36.720784,-91.854058,Olive St
246,36.717882,-91.872427,Jan Howard Expy
185,36.723455,-91.846544,Tanglewood Pl
160,36.731446,-91.866468,W Broadway St/Halstead St
362,36.728117,-91.850396,St Louis St/E Main St
160,36.721283,-91.871350,Old Hwy 160
160,36.830845,-91.914722,US Hwy 63
160,36.982239,-91.974350,US Hwy 60
185,36.715957,-91.830764,/Jan Howard Expy
160,36.729321,-91.874890,/Valley View Dr/Webster Ave
185,36.737887,-91.870746,7th St
160,37.007912,-91.990725,Co Rd 5900/Co Rd 5270
160,36.987305,-91.982122,US Hwy 60
160,36.716296,-91.855328,Co Rd 8270
160,36.721071,-91.845255,Hynes St/E Hickory St
160,36.709625,-91.879962,Co Rd 6070
185,36.740118,-91.881841,Country Club Dr/Sycamore Dr
216,36.745880,-91.859094,Luna Dr
185,36.720985,-91.842496,/E Hickory St
160,36.995848,-91.698873,E 1st St/N Plum St
160,36.999915,-91.965474,N Center St/W 10th St
160,36.991888,-91.967674,N Walnut St/E 3rd St
185,36.739168,-91.841045,Allen St
160,36.610682,-91.839608,Co Rd 9180/State Hwy 17
160,36.736171,-91.887701,Roberta/Roberta Ave
160,36.754701,-91.872360,Porter Wagoner Blvd
160,36.734419,-91.874107,W 3rd St
160,36.993518,-92.013700,/Co Rd 5800/Ogden Ln
185,36.822251,-91.912068,US Hwy 63
160,36.731498,-91.863990,Porter Wagoner Blvd
185,36.726539,-91.847430,Grove St
185,36.975152,-91.945701,US Hwy 60
160,36.985305,-91.712225,Meadow Ln/Dunkin St
160,36.726198,-91.850483,S Hill/Grove St
276,36.736410,-91.866184,/Oregon St/Porter Wagoner Blvd
246,36.729584,-91.865162,/S Hazel St/Webster Ave
185,36.733612,-91.860321,/N Minnesota Ave
160,36.742090,-91.856209,Independence Dr/N Garfield Ave/Independece Dr
160,36.994234,-91.972849,W 3rd St/W Main St
216,36.732146,-91.857228,W 1st St/Missouri Ave
160,36.734154,-91.863983,/W 3rd St
160,36.735217,-91.877227,Jan Howard Expy
160,36.740100,-91.846529,Powell St
216,37.004248,-91.975028,Co Rd 1030/Bray Dr
216,36.733661,-91.857561,Missouri Ave
216,36.991915,-91.969296,N Hwy 137/N Harris St/E Main St
160,36.732172,-91.858354,W 1st St/Franklin Ave
160,36.965736,-91.930407,US Hwy 63
160,36.878006,-91.917056,NW 512/Co Rd 5120/Co Rd 4450
185,36.727514,-91.892994,/E State Hwy K
185,36.745172,-91.871086,Independence Dr
160,36.721789,-91.838444,S Thayer Ave/Aldridge St
160,36.730010,-91.883371,Crawford St
160,36.994094,-91.957445,E 6th St/Sunshine Dr
160,37.006560,-91.700710,N Ash St
276,36.732205,-91.859481,W 1st St/Pennsylvania Ave
246,37.006532,-91.702092,Stub St
526,36.715085,-91.873958,/Preacher Roe Blvd
160,36.674863,-91.772883,8760/Co Rd 8760
160,36.736748,-91.867875,N Nevada Ave/W 6th St/Nevada St
185,36.731782,-91.875922,W Broadway St
160,36.746761,-91.879293,Carte Dr/Meadow St
160,36.722190,-91.854363,W Catalpa St/Cherry St
185,36.738306,-91.859404,W Thornburgh St
160,37.015918,-91.993908,Exit Ramp//US Hwy 60
160,36.670803,-91.750268,US Hwy 63
185,36.733404,-91.866895,Oregon St/W 2nd St/N Oregon Ave
160,36.993521,-91.956282,Bryan St
246,36.996448,-91.691846,N Jackson St
216,36.753931,-91.879399,Deatherage Ave/Lambe Ave
185,36.744093,-91.880245,Padgett Dr
362,36.718317,-91.873771,Jan Howard Expy
185,36.717533,-91.832327,S Thayer Ave
160,36.749579,-91.865650,Freedom Dr/Good Hard Dr
160,36.751186,-91.890667,Siloam Springs Rd
246,36.728095,-91.845194,Jackie Garret Dr/S Howell Ave
334,36.745192,-91.872647,Independence Dr/Porter Wagoner Blvd
160,36.977798,-91.714343,Hockman St/Justin St
160,36.716372,-91.855250,Co Rd 8270
160,36.716184,-91.841485,8490
160,37.001200,-91.674674,State Hwy 17/Co Rd 3160/US Hwy 60
246,36.737797,-91.867797,W 7th St/Porter Wagoner Blvd
160,36.513820,-91.805420,Co Rd 9880
246,36.759228,-91.880933,Ridgewood Pl
160,36.791865,-91.895279,Holiday Ln/Co Rd 1710
160,36.753070,-91.843600,Terra Dr
362,36.994486,-91.971385,W 3rd St/Summit Ave
185,36.745235,-91.862078,Amy St
216,36.741482,-91.883449,Chateau Dr/Timber Ln
160,36.992150,-91.753263,US Hwy 60/Co Rd 2990
185,36.971754,-91.938049,US Hwy 63
160,36.873224,-91.914696,Burnett Dr/US Hwy 63
216,36.995575,-91.704137,N Pine St/2nd St
631,36.726352,-91.852627,S Aid Ave/Grove St/Worcester St
160,36.724750,-91.854310,W Prospect St/Cherry St
160,36.991368,-91.964937,Short St/E 4th St
160,36.995455,-91.965477,N Hwy 137/N Walnut St/N Harris St
160,36.883969,-91.830418,Co Rd 2350/Co Rd 2300
499,36.717687,-91.872845,Preacher Roe Blvd
160,36.985187,-91.696214,State Rte W
160,36.737339,-91.873576,Alaska Ave
160,36.965251,-91.928424,US Hwy 63
160,36.997164,-91.711648,W 3rd St/N Harrison St
185,36.753511,-91.872560,/McFarland St
160,36.997077,-91.698051,N Maple St/Maple St/2nd St
160,36.749478,-91.863659,Good Hard Dr
160,36.732993,-91.855552,W 2nd St
276,36.996007,-91.691846,N Jackson St/S Jackson St
160,36.729565,-91.864021,Porter Wagoner Blvd/Webster Ave
160,36.727353,-91.844564,/S College St
160,36.737292,-91.883519,/Chateau Dr
160,36.734118,-91.864572,W 3rd St/Porter Wagoner Blvd
246,36.729073,-91.847719,/Jackie Garret Dr
185,36.754346,-91.880036,Deatherage Ave/Kody Dr
160,36.775419,-91.885341,Co Rd 163
276,36.726116,-91.848107,Walker St/Grove St
185,36.994402,-91.961923,Pine St/E 6th St
362,36.727148,-91.851452,Walnut St
160,36.736714,-91.867837,N Nevada Ave/Nevada St/N Texas Ave
160,36.775912,-91.886048,/US Hwy 63
362,36.726402,-91.854245,Cherry St/Worcester St
160,36.716873,-91.860922,/Jan Howard Expy
160,36.755860,-91.872061,Holiday Ln
185,36.738207,-91.845583,N Howell Ave/Sesson St
526,36.726393,-91.853674,/Worcester St
216,36.740146,-91.883483,Sycamore Dr/Chateau Dr
160,36.768330,-91.885667,Rhonda Dr/Sunset Ter
160,36.991328,-91.964446,E 4th St/N Grand St
246,36.734533,-91.844544,N College St/E Olden St
305,36.757858,-91.876884,McFarland St
185,36.722421,-91.845960,S Howell Ave/E Maple St
216,36.727998,-91.844531,S College St/Jackie Garret Dr/N College St/E Main St
160,36.723880,-91.851563,Walnut St/E Poplar Ave
216,37.000808,-91.707048,Drake St/US Hwy 60
305,36.733447,-91.845800,N Howell Ave/E 3rd St
160,36.738139,-91.842199,Sesson St/Manze Ave
160,36.699262,-91.880932,US Hwy 160/Co Rd 8620/Co Rd 6680/W US Hwy 160
390,36.731239,-91.857815,/W Broadway St
160,37.021545,-91.995770,/US Hwy 60
185,37.002695,-91.705307,8th St/N Pine Ave
160,36.987596,-91.982109,US Hwy 60
160,36.999430,-91.696858,E 5th St/N Marr St
160,36.992563,-91.970228,N Center St/E Main St/W Main St
160,36.757695,-91.906230,Co Rd 4180
160,36.716278,-91.836633,/Jan Howard Expy
499,36.738987,-91.876627,W 8th St
160,36.791994,-91.895279,Pvt Rd 1715
185,36.964918,-91.922228,US Hwy 63
276,36.730588,-91.850375,St Louis St/Jackie Garret Dr
160,36.992874,-91.969885,/N Center St
160,36.997435,-91.688897,/E 3rd St
160,36.725108,-91.844222,Amyx St/Johnson St
160,36.706201,-91.869756,Co Rd 8460
160,36.997764,-91.703548,W 4th St
305,36.731303,-91.860390,W Broadway St/N Minnesota Ave
185,36.822290,-91.911788,US Hwy 63
160,36.704881,-91.816585,/US Hwy 63
334,36.718108,-91.872834,Preacher Roe Blvd/Jan Howard Expy
305,36.993863,-91.972094,Summit Ave/W Main St
499,36.999510,-91.700873,Ash St/N Ash St/E 5th St
185,36.726671,-91.848081,Walker St/Grace Ave
160,36.719875,-91.855269,Shuttee/Bartley St
160,36.995524,-91.967002,N Center St/W 6th St/E 6th St
216,36.750036,-91.880992,Joann Dr/Gleghorn St
160,36.734688,-91.850318,St Louis St/E Olden St
185,36.733791,-91.852427,Washington Ave/E Thrid St
160,36.727430,-91.849249,/S Curry St
185,36.745744,-91.862060,Good Hard Dr/Amy St
160,36.733698,-91.864404,/Porter Wagoner Blvd
160,36.993048,-91.696451,Washington St/S Marr St
185,36.731166,-91.854371,W Broadway St/Langston St
216,36.726065,-91.877433,Jan Howard Expy
160,36.721377,-91.871009,/Preacher Roe Blvd
160,36.994393,-91.972491,Garfield St/W 3rd St
185,36.730330,-91.859530,W Cass Ave/Pennsylvania Ave
631,36.716956,-91.873331,Preacher Roe Blvd
216,36.742510,-91.869619,Concord Rd/Missouri Ave
185,36.708901,-91.827390,Creamery Rd/Knight St
160,36.771983,-91.887023,Quarry Rd
160,36.740787,-91.795884,Co Rd 8040
216,36.996810,-91.704722,W 3rd St/N Pine St/N Pine Ave
160,36.997797,-91.706798,W 4th St
160,36.729148,-91.863954,N Harlin Dr//Porter Wagoner Blvd
185,36.745172,-91.871140,Independence Dr
526,36.743233,-91.875416,Kentucky Ave
160,36.983780,-91.955654,Burnham Rd/E Main St/US Hwy 60 Bus
160,36.998403,-91.683984,W Industrial Dr/Tom Frommel Memorial Dr
160,36.997190,-91.710908,W 3rd St/Doris St
185,36.710126,-91.876522,/Co Rd 6070
185,36.737219,-91.861650,/W Thornburgh St
185,36.746267,-91.875614,Kentucky Ave/Imperial Dr
160,36.711225,-91.826137,Riggs/Anderson Dr
160,36.712843,-91.824821,US Hwy 63
185,36.746311,-91.877226,/Hoglen Dr
185,36.745076,-91.861015,Tiffany St
499,36.728060,-91.852933,Court Sq/W Main St
185,36.707819,-91.819297,/Pvt Rd 8650
185,37.007506,-91.700694,N Ash St/Herman St
305,36.731095,-91.852278,Jackie Garret Dr
160,36.681192,-91.897264,Co Rd 8010/W US Hwy 160
160,36.761926,-91.878697,Christie Dr/Roe Ave
160,36.994748,-91.967846,W 5th St/N Center St/5th St
160,36.545241,-91.971374,State Rte E
246,36.732118,-91.856638,W 1st St
160,36.726203,-91.856158,Summit St/Worcester St
185,36.742758,-91.880262,Gibson Ave/Padgett Dr
160,36.725379,-91.862363,Woodland Ave/S Arkansas Ave
160,36.920310,-91.858335,/State Rte Uu
160,36.725515,-91.877470,Jan Howard Expy
160,37.000060,-91.968001,Corn Ave/W 10th St
160,36.671151,-91.766150,/US Hwy 63
160,36.723998,-91.854941,/W Poplar Ave
216,36.761955,-91.879869,Roe Ave/Laurie Dr
216,36.732988,-91.853692,W 2nd St
160,36.967939,-91.911930,US Hwy 60/US Hwy 63
305,36.731279,-91.859486,W Broadway St/Pennsylvania Ave
246,36.729454,-91.860428,N Minnesota Ave/Webster Ave
160,36.677088,-91.776953,US Hwy 63/Co Rd 9030
160,36.802655,-91.848973,/1580
788,36.729389,-91.858432,Webster Ave/Franklin Ave
276,36.731629,-91.854969,Lincoln Ave
160,36.804556,-91.896158,NE 156/US Hwy 63
160,36.714800,-91.827174,US Hwy 63
390,36.745697,-91.875629,/Kentucky Ave
185,36.994330,-91.738113,US Hwy 60
390,36.740789,-91.876618,10th St
216,36.712484,-91.875430,Bruce Smith Pkwy
160,36.746374,-91.863435,Commerce Dr/Freedom Dr
160,36.736899,-91.868973,W 6th St/N Utah Ave
160,36.920322,-91.859088,Pr Dr/State Rte Uu
185,36.977670,-91.703577,Stevenson Dr/Carl Yarber St/Carl Yarber Dr
160,36.977859,-91.841669,Co Rd 2390
276,36.725750,-91.853520,Oak St
160,36.758092,-91.872665,/Jan Howard Expy
160,36.877907,-91.917744,Co Rd 4490/Co Rd 5120
160,36.753331,-91.867938,Girdley St/Old Airport Rd/Co Rd 1770
185,36.995834,-91.709963,Vine St/2nd St
160,36.705823,-91.875149,Co Rd 8460
185,36.964760,-91.921800,US Hwy 63
185,36.756882,-91.880962,Courtney Pl
185,36.732326,-91.863542,W 1st St
160,36.735101,-91.881931,Country Club Dr
185,36.723133,-91.894122,Dogwood Cir/Hickory Lake Dr
185,36.971859,-91.938285,/US Hwy 63
160,36.739200,-91.842397,Eads St
160,36.768219,-91.880984,Ridgewood Dr/Sunset Ter
160,37.000891,-91.703102,7th St
160,36.802669,-91.848601,Co Rd 1580/1580
160,36.791994,-91.895366,Pvt Rd 1715/Co Rd 1710
216,36.992228,-91.968949,/N Harris St
185,36.709367,-91.821226,Pvt Rd 8650/US Hwy 63
160,36.724716,-91.843333,Simpson St/Prospect Ave
185,36.992143,-91.700960,S Elm St
216,36.728351,-91.846167,Jackie Garret Dr/N Howell Ave
160,36.977804,-91.841669,Co Rd 2390
160,36.732405,-91.866420,W 1st St/Halstead St
160,36.748056,-91.874302,Burgoyne Dr/Kentucky Ave
160,36.736191,-91.888812,Roberta/Roberta Ave
390,36.729551,-91.850364,St Louis St/E Trish Knight St
185,36.938832,-91.933996,US Hwy 63
216,36.751102,-91.872472,Olson Precast Dr/Porter Wagoner Blvd
185,36.735136,-91.866842,W 4th St/N Oregon Ave
216,36.706306,-91.873717,Co Rd 8460/Co Rd 8230
160,36.750625,-91.874927,/Jan Howard Expy
472,36.998935,-91.700896,Ash St/E 4th St
160,36.773776,-91.834561,Co Rd 2459
185,36.720725,-91.841591,/Lanton Rd
160,36.727751,-91.862287,Garrett St/S Arkansas Ave/N Arkansas St
185,36.916708,-91.928429,Pr Dr 5346/US Hwy 63
362,36.730274,-91.854405,W Cass Ave/Langston St
160,36.730436,-91.883686,Harrison Cr
216,36.978306,-91.703553,Webb St/Carl Yarber St
216,36.994527,-91.965350,N Walnut St/E 6th St
160,36.725765,-91.843300,Simpson St
160,36.996588,-91.973717,W Main St
160,36.723678,-91.846540,E Poplar Ave
246,37.007602,-91.702196,Herman St/Stub St
185,36.719454,-91.869542,Circle Dr
362,36.729099,-91.852563,Washington Ave/Dixon/E Dixon St
160,36.987558,-91.973244,Hill St
160,36.757106,-91.872293,Porter Wagoner Blvd
362,36.730311,-91.858405,W Cass Ave/Franklin Ave
246,36.732077,-91.854951,W 1st St/Lincoln Ave
160,36.727653,-91.858297,Garrett St/Pierce St
160,36.976491,-91.702831,Bush Ln
160,36.723685,-91.847079,Locust St/E Poplar Ave
216,37.001772,-91.702406,/N Elm St/Elm St
160,36.993300,-91.700931,S Elm St
160,36.715806,-91.855381,Co Rd 8270
813,36.729326,-91.849398,E Cleveland
499,36.729137,-91.854428,Langston St/Dixon
160,36.999521,-91.708931,W 5th St
216,36.735953,-91.865749,W 5th St/Porter Wagoner Blvd
160,36.734713,-91.851282,Jackson St/E Olden St
185,36.727047,-91.891746,E State Hwy K
160,36.753381,-91.869196,Girdley St
160,36.768204,-91.880056,Christie Dr/Sunset Ter
160,36.760723,-91.873930,Deatherage Ave/Wayhaven Ave
185,36.733528,-91.854880,Lincoln Ave
216,36.737911,-91.861325,Missouri Ave
185,36.996269,-91.724950,US Hwy 60
185,36.761049,-91.882415,Wayhaven Dr/Paula Dr/Wayhaven Ave
160,36.770020,-91.880767,Porter Wagoner Blvd/Hoover Dr
605,36.716904,-91.873185,Preacher Roe Blvd
216,36.747244,-91.879270,Carte Sq/Carte Dr
160,36.717226,-91.875713,Co Rd 6460
216,36.735375,-91.865302,Porter Wagoner Blvd
160,36.721289,-91.834252,Bill Virdon Blvd
362,36.994557,-91.971318,W 3rd St/Summit Ave
185,36.777084,-91.887110,US Hwy 63
276,36.713416,-91.874720,Preacher Roe Blvd
1278,36.729403,-91.857296,Missouri Ave
445,36.718174,-91.873436,Jan Howard Expy
185,36.833760,-91.916007,/US Hwy 63
418,36.718287,-91.873435,Jan Howard Expy
246,36.712451,-91.875270,Preacher Roe Blvd/Bruce Smith Pkwy
216,36.712754,-91.876555,/Mitchell Rd/Bruce Smith Pkwy
160,36.722233,-91.842169,/E Maple St
390,36.716157,-91.873693,Worley Dr/Preacher Roe Blvd
160,36.716743,-91.855377,Jan Howard Expy
185,36.985784,-91.957392,E Main St
276,36.730441,-91.864007,W Cass Ave/Porter Wagoner Blvd
185,36.996521,-91.712696,Maplewood Ct
160,36.725092,-91.843320,Amyx St/Simpson St
160,36.680438,-91.898636,W US Hwy 160
334,37.001101,-91.705367,N Pine St/US Hwy 60/N Pine Ave
185,36.993818,-91.961931,Pine St/E 6th St
185,36.725637,-91.909291,Winchester Dr
185,36.994555,-91.965618,/E 6th St
160,36.724568,-91.864370,S Harlin Dr/Renfrow Ave
160,36.723698,-91.846000,S Howell Ave/E Poplar Ave
160,36.737114,-91.876683,W 6th St
216,37.000305,-91.967999,Corn Ave
334,36.738759,-91.876980,W 8th St
216,36.732503,-91.852472,Washington Ave
160,36.755505,-91.882327,Deatherage Ave
160,36.730504,-91.874901,/Valley View Dr
160,36.792655,-91.894402,Pvt Rd 1715
246,36.967842,-91.931197,US Hwy 63
160,36.750101,-91.875295,Jan Howard Expy
160,36.975502,-91.946489,US Hwy 60
185,36.997946,-91.712744,W 4th St/Maplewood Ct
185,36.726958,-91.830377,/Co Rd 8240
305,36.710507,-91.876003,/US Hwy 160/Preacher Roe Blvd
334,36.730367,-91.849945,/Jackie Garret Dr
216,36.728509,-91.846061,N Howell Ave
160,36.726340,-91.864172,S Harlin Dr/Worcester St
216,36.722274,-91.843377,Simpson St/E Maple St
216,36.692803,-91.798955,Co Rd 8660/US Hwy 63
160,36.768257,-91.882223,Paula Dr/Sunset Ter
160,36.734579,-91.845705,E Olden St/N Howell Ave
216,36.732984,-91.853576,W 2nd St
185,36.721718,-91.841565,Aldridge St/Lanton Rd
216,36.730842,-91.847511,Bratton Ave
216,36.736365,-91.862195,/N Minnesota Ave
160,36.995573,-91.700047,E 1st St/N Ash St
160,36.767974,-91.881090,Ridgewood Dr
305,36.728322,-91.859561,Monks St/W Main St/Pennsylvania Ave
160,36.994072,-91.972466,Garfield St/W Main St
185,36.737921,-91.871584,W 7th St/7th St
160,36.745887,-91.863281,Independence Dr/Freedom Dr
160,36.969408,-91.897103,Co Rd 1870/US Hwy 60
160,36.964552,-91.928872,US Hwy 63
216,36.726457,-91.838623,E Main St/Grace Ave/Bill Virdon Blvd
246,36.737821,-91.868954,7th St/N Utah Ave
160,36.789943,-91.864504,Co Rd 1380/1830
160,36.706319,-91.874443,Co Rd 8460
160,36.979881,-91.956122,Burnham Rd
160,36.733028,-91.857275,/W 2nd St/Missouri Ave
185,36.993186,-91.969551,N Center St/W 3rd St/E 3rd St
185,36.727468,-91.850468,/S Hill
160,36.730376,-91.861314,W Cass Ave/Nebraska Ave
216,36.729625,-91.866500,Webster Ave/Halstead St
185,36.990414,-91.700852,/E James St
216,37.001610,-91.702392,US Hwy 60/N Elm St
160,36.733024,-91.856601,W 2nd St
160,36.982306,-91.974524,US Hwy 60
160,36.995860,-91.967476,/5th St/W 6th St
160,36.745073,-91.880231,Cole St/Padgett Dr
185,37.007764,-91.978845,Elmwood Dr/Welch Dr
160,36.724432,-91.867650,Humphries Dr
185,36.847639,-91.919688,US Hwy 63
160,36.986440,-91.957966,Un-Named New St/E Main St
160,36.995244,-91.701225,S Elm St/E 1st St/N Elm St/W 1st St
160,36.755079,-91.881059,Courtney Pl/Deatherage Ave
160,36.877955,-91.917405,Co Rd 5120
305,36.992671,-91.966833,N Walnut St/E 4th St
160,36.993128,-91.700346,/Washington St
160,36.750169,-91.885600,Gleghorn St
246,36.734781,-91.853912,W Olden St
160,37.000806,-91.679086,US Hwy 60
305,36.977790,-91.713328,Hockman St/Sara St
185,36.992241,-91.752604,US Hwy 60/Co Rd 2990
216,36.733159,-91.860322,W 2nd St/N Minnesota Ave
160,36.981166,-91.970312,US Hwy 60
160,36.731382,-91.863998,W Broadway St/Porter Wagoner Blvd
160,36.971315,-91.937060,US Hwy 63
216,36.976735,-91.712870,Woodruff St
160,36.736572,-91.887066,Sarah St
185,36.834103,-91.915831,/US Hwy 63
185,36.733865,-91.852425,Washington Ave/E 3rd St
185,36.995649,-91.709967,Vine St
216,36.728281,-91.845945,Jackie Garret Dr/N Howell Ave
185,36.993583,-91.964822,N Grand St/Alley
185,36.717248,-91.850777,S Hill/S Curry St
160,36.994428,-91.703702,S Pine St/N Pine St/W 1st St
160,36.736415,-91.887071,Sarah St
160,36.726091,-91.846641,Locust St
160,36.570543,-91.801474,/State Hwy 17
160,36.727076,-91.870149,Wildwood Ter/Elmore Dr
305,36.728290,-91.858293,Pierce St/W Main St
185,36.741745,-91.840976,Allen St/2570/Joe Jones Blvd
185,36.848551,-91.919934,NW 478/US Hwy 63/4780
160,36.992034,-91.700962,S Elm St/Belmont St
160,36.989635,-91.964487,N Grand St
276,36.995243,-91.970564,W 4th St/Summit Ave
305,36.738197,-91.868275,N Nevada Ave/Porter Wagoner Blvd
160,36.723880,-91.852706,S Aid Ave/E Poplar Ave
160,36.961201,-91.931936,US Hwy 63
185,36.734071,-91.860460,W 3rd St/N Minnesota Ave
185,36.730330,-91.858972,/W Cass Ave
160,36.982524,-92.005500,/State Hwy 76
552,36.742672,-91.877027,Gibson Ave/Jan Howard Expy
160,36.717450,-91.875692,Worley Dr
160,36.999634,-91.705396,W 5th St/N Pine St
216,36.728071,-91.848473,E Main St
160,36.727171,-91.858544,W Leyda Ave/Pierce St
160,37.000840,-91.677943,US Hwy 60
185,36.848534,-91.919652,US Hwy 63/4780
305,36.993326,-91.967762,N Hwy 137/E 4th St
160,36.736945,-91.857480,McDaniel St
160,36.777214,-91.860002,Pvt Rd 2011
160,36.978017,-91.955820,Burnham Rd
185,36.995753,-91.706674,Orchard St/2nd St
246,36.967883,-91.931226,US Hwy 63
246,36.996822,-91.705442,W 3rd St/Blake St
160,36.768088,-91.879017,Porter Wagoner Blvd/Sunset Ter
246,36.745565,-91.859904,Lisa St/Jon St
160,36.996429,-91.969335,W High St/N Ferguson St
185,36.994976,-91.703912,N Pine St/W 1st St
160,36.729915,-91.874857,/Valley View Dr
552,36.727520,-91.853781,Garrett St
