Estimated daily crossings,Latitude,Longitude,Name
305,36.762160,-89.537910,I- 55
160,36.582106,-89.920890,/Co Rd 524
246,36.867337,-89.596006,W Murray Ln
160,36.762314,-89.587641,N Calvin St/Harris St
216,36.427180,-89.684202,/I- 55
160,36.635057,-89.544584,I- 55 Lp
160,36.587871,-89.612212,5th St
246,36.586745,-89.612203,5th St/Hunter Ave
499,36.425863,-89.700598,/de Lisle Ave
160,36.495761,-89.818495,/State Hwy 153
305,36.587352,-89.610990,6th St/State Hwy D
216,36.585915,-89.531365,Mill St/Locust St
246,36.429570,-89.695845,E 6th St/Payne Ave
216,36.452141,-89.919844,W 4th St/E 4th St/S Main St/Main St
160,36.597582,-89.531986,Greenbriar Dr
185,36.866672,-89.567275,Geoarge E Day Pkwy/Colonel George E Day Pkwy
160,36.587372,-89.543104,Latham St/Davis St
390,36.450970,-89.919273,/E 5th St
185,36.758367,-89.591255,/Oak Dr
160,36.428557,-89.706452,W 5th St/Macarthur Ave
185,36.587134,-89.614388,/Roberts Ave
390,36.669847,-89.573828,Co Rd 611
216,36.612210,-89.703990,/Swartz Ave
160,36.782055,-89.445654,State Hwy 80/State Hwy B
160,36.722511,-89.580008,/State Hwy Hh
160,36.610483,-89.816194,Ash St
185,36.757070,-89.685951,Garfield
160,36.752696,-89.586681,S Calvin St/Travis St
185,36.854584,-89.532641,I- 55
160,36.867189,-89.549566,Lynual St
185,36.744583,-89.538509,Co Rd 602
246,36.674097,-89.538165,/I- 55
185,36.864618,-89.584419,S Kings Hwy
160,36.461140,-89.701743,State Hwy F
185,36.869755,-89.575593,Stanford Dr
185,36.522694,-89.609646,Mitchell St/Catalpa St
160,36.869571,-89.573893,Ladue Dr/Stanford Dr
160,36.493950,-89.817592,State Hwy B
160,36.483849,-89.646696,Clara Ave/Conran Pl
185,36.615156,-89.811788,Locust St/High St
160,36.737327,-89.562839,/US Hwy 61
160,36.555430,-89.940791,US Hwy 62
276,36.434368,-89.706455,Macarthur Ave/W 11th St/Mac Arthur Ave
160,36.598563,-89.593920,State Hwy U
160,36.515394,-89.611121,Orchard St/de Lisle St
185,36.424565,-89.671462,State Hwy 162/
160,36.823895,-89.576609,US Hwy 61
160,36.592696,-89.524100,Hunter St/Pinnell Ln
185,36.435043,-89.711027,Mc Crate Ave/W 12th St
362,36.455549,-89.922280,Whiterow Ave/W 1st St
185,36.435572,-89.711023,Mc Crate Ave
160,36.700785,-89.539069,/Co Rd 608
246,36.671496,-89.553111,State Hwy P/US Hwy 61
305,36.586092,-89.535282,Capitol Blvd/Mill St
276,36.423060,-89.702002,S Huffman Ave
216,36.448534,-89.918828,S Gideon Ave/7th St
418,36.432140,-89.699341,King Ave
160,36.436028,-89.705326,Park Ave
276,36.430604,-89.695508,E 7th St
246,36.866764,-89.569597,Bucklin Cir
185,36.540503,-89.592234,Co Rd 314
216,36.435079,-89.690122,Compress Rd/US Hwy 61
160,36.592694,-89.526258,Pinnell Ln
305,36.597207,-89.534958,Dawson Rd/Happy Ln
418,36.865466,-89.598560,Montgomery St
362,36.583745,-89.532043,Water St/Kingshighway
185,36.435243,-89.613275,Rhonda Ln
246,36.424177,-89.704959,Le Sieur Ave/W 1st St
185,36.607470,-89.813893,Williamson St
216,36.439012,-89.701062,State Hwy 162
246,36.434369,-89.701937,N Huffman Ave/W 11th St
160,36.427860,-89.693320,Sam Lafont St
185,36.428664,-89.692579,Foster Ave
216,36.845393,-89.632012,Bon Secour Ave/State Hwy Ff
246,36.556706,-89.955456,US Hwy 62/US Hwy 25 Bus/US Hwy 25
160,36.553477,-89.817779,/W Freeman Ave
216,36.431602,-89.701279,E 8th St
160,36.771091,-89.567745,US Hwy 61
472,36.424799,-89.699386,King Ave
160,36.421850,-89.669955,Kyle Dr
185,36.591888,-89.509913,State Hwy Ww
305,36.868481,-89.571007,/Pine St
334,36.424274,-89.697365,E 1st St/US Hwy 61
334,36.864257,-89.582363,/S Main St
185,36.520213,-89.609619,Mitchell St/Hickory St
216,36.517804,-89.613599,Mc Carty St/Main St
185,36.497230,-89.619557,Co Rd 312
334,36.869142,-89.569799,Cambridge Dr
334,36.593143,-89.540960,Pinnell Ln/I- 55 Lp
216,36.519001,-89.609606,Mitchell St/E Elm St
160,36.424553,-89.672570,State Hwy 162
246,36.759355,-89.532504,State Hwy 80
185,36.758080,-89.584270,S Miller Dr/Miller Dr/Hall St
160,36.759418,-89.525271,State Hwy 80/
160,36.863568,-89.570510,Colonel George E Day Pkwy
185,36.671536,-89.506479,State Hwy P
216,36.869648,-89.566969,County Line Rd/S Ingram St
216,36.428525,-89.698304,E 5th St/Baker Ave
160,36.615141,-89.814387,Mulberry St/High St
160,36.817605,-89.520280,State Hwy Aa
418,36.633536,-89.546583,/I- 55
160,36.528819,-89.609742,Mitchell St/US Hwy 61
418,36.431125,-89.704851,W 7th St Rear/Le Sieur Ave/Rear W 7th
185,36.553572,-89.788415,US Hwy 62/
160,36.752928,-89.689971,Jefferson St/Kennedy St
216,36.584190,-89.550020,I- 55 Lp
185,36.848570,-89.682448,E Front St
276,36.429570,-89.694796,E 6th St/Workman Ave
246,36.421943,-89.704230,Portage Village
160,36.819883,-89.520298,/State Hwy Aa
390,36.432633,-89.699962,/E 9th St
246,36.590351,-89.532380,Saint Mark Ln/Saint Matthew Ln
185,36.864431,-89.577617,Innsbruck Ln/Woodruff Ave
276,36.454276,-89.919044,/E 2nd St
160,36.551068,-89.821736,Alexander Ave/Missouri St
185,36.440171,-89.672844,Co Rd 419
276,36.585949,-89.570409,I- 55
160,36.483816,-89.617064,State Hwy F
160,36.546556,-89.609778,/US Hwy 61
160,36.597044,-89.616505,State Hwy D
305,36.435353,-89.701249,E 12th St/Huffman Ave Rear
246,36.869509,-89.548101,/County Line Rd
276,36.578057,-89.574409,I- 55
160,36.553549,-89.790496,US Hwy 62/Co Rd 343/Co Rd 529
362,36.539129,-89.592376,I- 55
472,36.430638,-89.701967,N Huffman Ave/W 7th St/E 7th St
445,36.757389,-89.541312,Lytle Dr
526,36.566024,-89.601195,/Laura St
185,36.583691,-89.613407,River Rd/S Fourth St
185,36.583401,-89.549122,Beverly Dr
445,36.863817,-89.590438,School St
160,36.592700,-89.523811,2nd St/Pinnell Ln
334,36.588655,-89.531868,Howard Ave/Scott St
216,36.868662,-89.573763,Marsh Dr/Cambridge Dr
362,36.593747,-89.543505,Saint Bridget Ln
160,36.565625,-89.607800,/US Hwy 61
334,36.539435,-89.591948,/I- 55
185,36.522198,-89.611127,de Lisle St/Catalpa St
160,36.520210,-89.606559,Dunklin St/Hickory St
160,36.596185,-89.615404,Main St
160,36.433667,-89.695052,E 10th St
160,36.867109,-89.551556,US Hwy 60
160,36.784681,-89.573797,Co Rd 840
246,36.674118,-89.538494,/I- 55
526,36.865837,-89.581453,S Main St/Southland Dr
305,36.521031,-89.600109,/I- 55
160,36.516222,-89.591415,Co Rd 403
305,36.426456,-89.698314,Baker Ave/E 3rd St
216,36.595833,-89.530834,Dawson Rd/Sycamore St
216,36.511604,-89.604810,I- 55
185,36.452513,-89.925017,W 4th St/Harty Ave
499,36.754059,-89.686679,Adams St/Main St
160,36.537766,-89.736821,Co Rd 335
185,36.869459,-89.573875,Marsh Dr/Ladue Dr
160,36.448272,-89.920119,/S Main St
160,36.845088,-89.618027,US Hwy 60
160,36.670606,-89.572882,2nd St/Gould St
185,36.553428,-89.827586,US Hwy 62/W Freeman Ave
160,36.487847,-89.635789,US Hwy 61
185,36.421319,-89.704381,Portage Village
160,36.451985,-89.917312,Walker Ave/E 4th St
160,36.539932,-89.609745,/US Hwy 61
160,36.867425,-89.569727,Bucklin Cir
334,36.429590,-89.703480,W 6th St/Meatte Ave
160,36.615141,-89.815560,East St/High St
216,36.597604,-89.617818,State Hwy U/State Hwy D
160,36.376077,-89.522497,State Hwy 162
185,36.759322,-89.535484,State Hwy 80/
334,36.869362,-89.533164,I- 55
246,36.588639,-89.530099,Church St/Scott St
185,36.613142,-89.819622,Fable St/W Main St
216,36.590433,-89.617470,/1st St/W Charlotte St
185,36.430591,-89.697474,E 7th St
160,36.759468,-89.589648,Parson Dr/W Main St/Ridgeview Dr
216,36.455456,-89.920254,W 1st St
216,36.597638,-89.617898,Van Buren St/State Hwy D
185,36.553879,-89.765551,US Hwy 62
160,36.424569,-89.649684,State Hwy 162
160,36.845664,-89.613657,/US Hwy 60
246,36.587153,-89.617477,Roberts Ave/1st St
160,36.457518,-89.921954,W Railroad St/W Jefferson St
362,36.455521,-89.921658,W 1st St
185,36.845184,-89.685161,Carrol St//E Beech St
185,36.579936,-89.557556,Levee Rd
276,36.514870,-89.602157,S Outer Rd
305,36.435148,-89.705337,Park Ave/W 12th St
246,36.758733,-89.590807,Elm Cir
185,36.818732,-89.575673,/US Hwy 61
334,36.759282,-89.537863,State Hwy 80/I- 55
216,36.427396,-89.710445,Dogwood
160,36.453368,-89.923613,Lunbeck Ave
160,36.467912,-89.710679,Co Rd 344
160,36.606128,-89.533686,Delaware Cir
160,36.781414,-89.520021,/State Hwy Aa
185,36.586253,-89.525416,Line St/Mill St
160,36.517875,-89.614200,Toney St
246,36.553449,-89.822967,/W Freeman Ave
160,36.518415,-89.608083,/Davis St
305,36.589888,-89.522546,Riley St/Hunt Rd
305,36.585923,-89.533924,Mill St/Lewis St
246,36.569699,-89.578974,/I- 55
552,36.430646,-89.702577,W 7th St
246,36.864377,-89.574391,Stoneville Way
160,36.426982,-89.704852,Le Sieur Ave
160,36.731282,-89.402387,State Hwy Oo
334,36.584138,-89.526649,Water St/Main St
185,36.566127,-89.592003,Eddie St/Laura St
334,36.866674,-89.601081,W Murray Ln
160,36.427397,-89.709322,Redbud Cir
472,36.426329,-89.702000,N Huffman Ave/E 3rd St
216,36.598560,-89.529668,Saint Peter Dr/Saint Isadore Dr
216,36.426996,-89.706472,Mac Arthur Ave
305,36.598509,-89.526625,Saint Vincent Dr/Saint Peter Dr
160,36.437346,-89.915400,Co Rd 280
185,36.446176,-89.920967,Monroe St
788,36.425068,-89.696068,State Hwy 162
185,36.589419,-89.609862,7th St/Benton St
246,36.526433,-89.597498,/I- 55
160,36.464946,-89.654833,Co Rd 320
276,36.864320,-89.578551,Woodruff Ave
185,36.850278,-89.688943,Laurel St/N Madison St
160,36.866835,-89.546429,/Harlene St
305,36.569919,-89.589872,US Hwy 61
216,36.595187,-89.523814,Missouri Ave/2nd St
334,36.604986,-89.534158,Sequoyah Ave
160,36.595442,-89.601827,Amanda Dr
185,36.848462,-89.682823,Fisher Dr/E Front St
185,36.429588,-89.706439,Macarthur Ave/W 6th St
160,36.756080,-89.686779,Taft/Main St
185,36.583679,-89.613879,River Rd
246,36.592689,-89.522284,Hunt Rd/Pinnell Ln
160,36.439398,-89.682208,Co Rd 314
499,36.588652,-89.533087,Scott St/Kingshighway
216,36.514025,-89.602556,/S Outer Rd
160,36.461219,-89.667351,Co Rd 324/US Hwy 61
160,36.759385,-89.529071,State Hwy 80
246,36.433322,-89.691652,E 10th St
499,36.430083,-89.701973,N Huffman Ave
305,36.587384,-89.610990,6th St
276,36.648032,-89.548900,/US Hwy 61
160,36.432126,-89.696930,Warren Ave
160,36.567871,-89.609847,State Hwy D
216,36.441912,-89.866504,State Hwy 162///state Hwy 162
160,36.509232,-89.820609,Warner St/Third St
160,36.598418,-89.601263,Cavalier Rd
499,36.424849,-89.700605,S de Lisle Ave
246,36.594919,-89.545683,Saint Margaret Ln
160,36.393320,-89.752326,/State Hwy Yy
362,36.866335,-89.571654,Plantation Blvd/Clearwater/Auburn Dr
160,36.845427,-89.613640,US Hwy 60
362,36.435919,-89.699336,Clover Ln/King Ave
246,36.862294,-89.532766,I- 55
160,36.744588,-89.538697,Co Rd 602/
160,36.814595,-89.520261,State Hwy Aa/Eagle Dr
305,36.567520,-89.598202,Young St/Howard St
160,36.433120,-89.695045,E 10th St Rear
160,36.458144,-89.916286,E Jefferson St
185,36.525525,-89.609652,/Mitchell St
216,36.598327,-89.543115,State Hwy U/Saint Anne Ln
216,36.437853,-89.708591,Robin Ln/St Anthony Ave
865,36.862883,-89.583138,/S Main St
390,36.424358,-89.699827,E 1st St/Cotton St
276,36.426960,-89.698322,/Baker Ave
160,36.512194,-89.591366,Co Rd 403
185,36.427880,-89.694960,US Hwy 61
160,36.584124,-89.524080,/Water St
185,36.656041,-89.538608,I- 55
418,36.516576,-89.612608,Pecan St/Lewis St
185,36.585327,-89.547818,I- 55 Lp
216,36.440564,-89.673169,I- 55
390,36.867642,-89.582774,Prairie Ave
305,36.458802,-89.917007,/N Walker Ave
334,36.856569,-89.582835,/US Hwy 61
526,36.858529,-89.585712,/Hennings
160,36.847197,-89.684025,Bates St/Myrtle St
418,36.460389,-89.917668,State Hwy 153
160,36.555209,-89.817198,Rogers St
305,36.590486,-89.538202,Saint Francis Ln
216,36.431158,-89.681790,I- 55
216,36.862228,-89.576320,Daffodil Dr
246,36.450738,-89.664065,Co Rd 324
185,36.781811,-89.454723,State Hwy 80/Co Hwy 701
305,36.868846,-89.555874,/Keystone Dr
276,36.759513,-89.586346,Johnson's Aly/N Dean St
216,36.758780,-89.591397,Elm Cir/Oak Dr
185,36.781814,-89.453890,/State Hwy 80
362,36.586754,-89.609937,Hunter Ave/State Hwy D
246,36.589974,-89.526422,Riley St/Henry Ct
160,36.616125,-89.816894,North St/N Broad St
160,36.553780,-89.772632,US Hwy 62/Co Rd 527
160,36.842590,-89.702773,E Front St
160,36.751817,-89.585559,Steel St/S Dean St
160,36.845632,-89.682832,Beech Pl
185,36.869587,-89.528343,Co Rd 408
160,36.451838,-89.897113,State Hwy 162
160,36.788723,-89.531697,I- 55/Co Rd 820
216,36.700797,-89.538258,I- 55
445,36.435358,-89.699329,E 12th St/King Ave
185,36.606091,-89.534379,Sequoyah Ave/Delaware Cir
160,36.551077,-89.823032,Alexander Ave/Locust St
160,36.755320,-89.587992,Moore St/Belt St
160,36.615141,-89.816885,N Broad St/High St
160,36.856064,-89.582725,US Hwy 60/US Hwy 61
160,36.483465,-89.627238,Co Rd 412/State Hwy F
445,36.421950,-89.706131,/Portage Village
185,36.565989,-89.598240,Howard St/E Laura St/W Laura St
390,36.443051,-89.671379,Bandy Rd
160,36.425939,-89.704875,Le Sieur Ave
472,36.867921,-89.591351,School St/Murray Ln
216,36.607966,-89.814251,S Dixie St
185,36.757728,-89.686845,Co Rd 850/Main St/State Hwy H
246,36.422692,-89.704203,Portage Village
185,36.848447,-89.688186,Elm St
334,36.431638,-89.692415,/US Hwy 61
246,36.571016,-89.584476,/US Hwy 61
276,36.599633,-89.526634,Saint Vincent Dr
185,36.428097,-89.684416,Outer Rd
185,36.758303,-89.665040,State Hwy H/State Hwy E
216,36.594437,-89.545670,Saint Margaret Ln/Saint Virginia Ln
305,36.865355,-89.570388,Pine St/
160,36.428039,-89.706459,Macarthur Ave/Mac Arthur Ave
160,36.552255,-89.820440,Cherry St/Riley Ave
160,36.567123,-89.595021,E Francis St/Maryland St
216,36.595840,-89.532003,Dawson Rd/Maple St
276,36.435058,-89.710136,/W 12th St
334,36.588629,-89.528488,Powell Ave/Scott St
390,36.671523,-89.538484,State Hwy P/I- 55
276,36.425381,-89.704887,Le Sieur Ave/W Main St
246,36.587433,-89.608597,8th St
526,36.589578,-89.524056,Hunter St
276,36.592806,-89.543414,Saint Anne Ln
216,36.583208,-89.609995,/State Hwy D
305,36.867585,-89.593950,W Murray Ln
276,36.428022,-89.700609,/de Lisle Ave
246,36.862682,-89.576408,Daffodil Dr
160,36.848347,-89.581175,/US Hwy 61
185,36.591544,-89.611012,6th St/Lewis Ave
216,36.437019,-89.708630,Florida Ave/Brown Dr
185,36.756547,-89.690162,Taft St/Kennedy St
246,36.585779,-89.618820,Locust Ln/Baehr Rd
246,36.864416,-89.598350,Montgomery St/Cherokee
445,36.425363,-89.700600,S de Lisle Ave/Main St/de Lisle Ave/2nd St
185,36.569521,-89.594346,Co Rd 506
305,36.425380,-89.703478,S Meatte Ave/Meatte Ave/W Main St
185,36.416871,-89.688811,I- 55
160,36.596524,-89.612291,4th St/5th St
631,36.569037,-89.599856,Bernice Ave/W Sisson St/E Sisson St
390,36.593945,-89.521401,Brush Prairie Rd/Tennessee Ave
160,36.754036,-89.687523,Adams St/Van Buren St
160,36.670617,-89.573858,Co Rd 611/Gould St
185,36.456886,-89.917679,/E Railroad St
334,36.585273,-89.526062,/Old Kingshighway
216,36.777536,-89.532030,I- 55
684,36.867131,-89.597621,W Murray Ln/S West St
160,36.762898,-89.588251,N Calvin St
160,36.761877,-89.588741,Davis St
390,36.861938,-89.581838,/Colonel George E Day Pakway/Colonel George E Day Pkwy
160,36.598353,-89.627914,State Hwy Mm/State Hwy D
216,36.772168,-89.535086,I- 55
160,36.753193,-89.683279,Jefferson St/Hoover
684,36.425349,-89.696937,Warren Ave/E Main St
160,36.854241,-89.537786,Co Rd 807/Johnson St
362,36.869451,-89.555812,Keystone Dr/County Line Rd
160,36.841848,-89.668203,US Hwy 60
185,36.438996,-89.682257,Bandy Rd
185,36.840991,-89.677099,US Hwy 60
185,36.446009,-89.920519,S Main St/Marie St
185,36.584413,-89.534216,Lewis St/Old Kingshighway
276,36.671524,-89.537558,/State Hwy P
160,36.832721,-89.578256,/US Hwy 61
390,36.430108,-89.699362,King Ave
160,36.759387,-89.528918,State Hwy 80
246,36.589435,-89.528492,Powell Ave
362,36.751449,-89.537461,/State Hwy V
276,36.591162,-89.534850,Saint Francis Ln
216,36.597683,-89.545748,Saint Margaret Ln/Saint Theresa Ln
160,36.587727,-89.613411,4th St/Mott Ave
246,36.593869,-89.534710,el Camino Ct
305,36.756276,-89.538109,I- 55
418,36.592164,-89.538004,Pinnell Ln
160,36.584350,-89.525115,Line St/Water St
185,36.446116,-89.920452,Monroe St/S Main St
160,36.555426,-89.940720,US Hwy 62
246,36.636119,-89.545266,I- 55/US Hwy 61/I- 55 Lp
839,36.759251,-89.540792,State Hwy 80
160,36.425167,-89.563832,State Hwy 162/State Hwy M
334,36.425719,-89.695304,/Sam Lafont St
216,36.438421,-89.687881,State Hwy 162/US Hwy 61
160,36.613786,-89.505634,Co Rd 732
160,36.446475,-89.920277,S Main St/Marie St
160,36.519042,-89.612630,E Elm St/Lewis St
390,36.752757,-89.537487,/State Hwy V
246,36.514476,-89.602335,S Outer Rd
276,36.566842,-89.604850,Duncan/young/US Hwy 61
160,36.596134,-89.615576,Travis St/Main St
658,36.424418,-89.691232,State Hwy 162/Albert Clay Rd
216,36.752206,-89.683243,Madison St/Hoover
305,36.490456,-89.625838,Village 3rd
160,36.649558,-89.538918,I- 55
246,36.511410,-89.605372,I- 55
185,36.439297,-89.687282,US Hwy 61
917,36.861726,-89.583549,Stallcup/Col George E Day Pkwy/US Hwy 61
160,36.436258,-89.841612,State Hwy B
276,36.454005,-89.924855,W 2nd St/Harty Ave
160,36.847166,-89.685222,Carrol St/Myrtle St
185,36.586084,-89.538623,Mill St/Park Ave
185,36.597930,-89.618606,State Hwy D
216,36.869610,-89.576672,Cambridge Dr
185,36.455486,-89.920888,Anderson Ave/W 1st St
472,36.587381,-89.538647,Davis St/Park Ave
160,36.598324,-89.549895,Hope Way/State Hwy U
160,36.590005,-89.543202,Bloomfield Rd/I- 55 Lp
305,36.460269,-89.919277,State Hwy 162/State Hwy 153/N Main St
216,36.869791,-89.572321,Poplar Dr/Stanford Dr
216,36.589881,-89.617481,/1st St
216,36.448495,-89.918317,7th St
185,36.840205,-89.691593,US Hwy 60
216,36.457444,-89.918267,N Gideon Ave
160,36.845231,-89.682866,E Beech St/Beech Pl
362,36.452296,-89.921727,/W 4th St
276,36.589405,-89.613428,4th St/Benton St
216,36.864770,-89.571341,Clearwater Rd
185,36.867327,-89.596090,/W Murray Ln
185,36.428521,-89.695874,E 5th St/Payne Ave
160,36.852031,-89.533653,Johnson Dr
305,36.595838,-89.529528,Dawson Rd/Mitchell Ave
362,36.426436,-89.697326,E 3rd St
160,36.612926,-89.810426,State Hwy 153
160,36.609547,-89.815565,S East St/Elm St
362,36.586879,-89.610035,Co Rd 502/State Hwy D
216,36.854617,-89.586701,/US Hwy 60
160,36.436038,-89.687573,/Bandy Rd
160,36.458744,-89.923996,Haven Dr/N Lunbeck Ave
160,36.425012,-89.619003,State Hwy 162
246,36.862857,-89.596798,Cotton Ridge Dr
445,36.584382,-89.531228,Mott St/Locust St/Old Kingshighway
362,36.638566,-89.543702,I- 55
160,36.731921,-89.444712,Co Rd 713
160,36.492545,-89.630199,US Hwy 61
160,36.812091,-89.687330,Co Rd 832
246,36.428550,-89.704879,W 5th St/Le Sieur Ave
246,36.426460,-89.706479,W 3rd St/Macarthur Ave
185,36.649628,-89.549323,Co Rd 634/US Hwy 61
160,36.565918,-89.592214,Laura St
185,36.457044,-89.919282,W Railroad St/E Railroad St/N Main St
160,36.841616,-89.668190,US Hwy 60
445,36.586892,-89.527050,Mill St/Main St
246,36.422394,-89.686195,/I- 55
216,36.851429,-89.581797,US Hwy 61
305,36.430629,-89.700603,E 7th St/de Lisle Ave
305,36.593741,-89.543084,Saint Anne Ln/Saint Bridget Ln
160,36.853711,-89.528878,Pprivate Rd
160,36.695970,-89.464143,Co Rd 711
216,36.583638,-89.609955,River Rd/State Hwy D
305,36.562232,-89.582184,I- 55
390,36.863991,-89.583922,S Kings Hwy/S Kingshighway
160,36.553470,-89.819197,W Freeman Ave/Olive St
216,36.448538,-89.918900,/7th St
762,36.862151,-89.583922,S Kings Hwy
160,36.850536,-89.529048,Robert Ave
216,36.869895,-89.571271,Pine St/Stanford Dr
276,36.423903,-89.697620,US Hwy 61
216,36.758290,-89.585092,S Railroad St/Hall St
185,36.806484,-89.573504,/US Hwy 61
185,36.520923,-89.612606,/Lewis St
246,36.552244,-89.821733,Missouri St/Riley Ave
160,36.605777,-89.448921,State Hwy P/State Hwy Ww
246,36.846653,-89.689258,Madison St/E Front St
160,36.754655,-89.565342,US Hwy 61
160,36.489372,-89.626469,I- 55
160,36.464990,-89.649436,I- 55/Co Rd 320
216,36.591499,-89.615025,3rd St/Lewis Ave
305,36.428541,-89.699375,E 5th St/King Ave
160,36.649367,-89.538311,Co Rd 724
390,36.864474,-89.569061,Red Arrow
276,36.869361,-89.532856,I- 55
160,36.430614,-89.693378,/E 7th St
276,36.570871,-89.585228,US Hwy 61
334,36.593435,-89.543285,Saint Anne Ln
246,36.522173,-89.612532,Catalpa St/US Hwy 61/Lewis St
246,36.553449,-89.823017,W Freeman Ave/Locust St
160,36.426557,-89.711113,Mc Crate Ave/Sunset Dr
246,36.869509,-89.551601,/County Line Rd
246,36.587396,-89.535283,Capitol Blvd/Davis St
185,36.508247,-89.820624,Third St/Porter St
185,36.540730,-89.609754,US Hwy 61
160,36.590427,-89.615052,3rd St/Charlotte Ave
246,36.867963,-89.569830,Bucklin Cir
216,36.649183,-89.549178,/US Hwy 61
185,36.781811,-89.454556,State Hwy 80
216,36.870176,-89.572399,Poplar Dr
305,36.840407,-89.532035,Amberfield Rd/State Hwy Aa
216,36.593665,-89.609864,N 7th St/Phillips Ave
185,36.517729,-89.609616,/Mitchell St
160,36.592698,-89.523176,Russell St/Pinnell Ln
246,36.596515,-89.545720,Saint Margaret Ln
276,36.611615,-89.557395,I- 55
216,36.869798,-89.572265,Stanford Dr
160,36.452536,-89.925521,/W 4th St
246,36.864145,-89.559966,US Hwy 60
216,36.517340,-89.600725,S Outer Rd
185,36.847125,-89.686415,N Benton St/Myrtle St
160,36.483276,-89.646771,State Hwy F/Pikey St
160,36.587859,-89.618834,/Baehr Rd
216,36.744569,-89.537914,Co Rd 602/I- 55
334,36.430620,-89.699360,E 7th St/King Ave
160,36.817074,-89.647809,/Co Rd 828
216,36.554874,-89.585344,I- 55
362,36.428535,-89.701986,W 5th St/N Huffman Ave/E 5th St
160,36.613152,-89.815556,E Main St/East St
160,36.588198,-89.523098,Russell St/Virginia Ave
160,36.432632,-89.696795,E 9th St/Warren Ave
276,36.847031,-89.689257,Sarno St//Madison St
246,36.755573,-89.537529,State Hwy V
605,36.588678,-89.544118,Scott St/I- 55 Lp
185,36.453152,-89.919125,E 3rd St
160,36.865714,-89.554777,US Hwy 60
246,36.584271,-89.525757,/Water St
605,36.567873,-89.599835,Bernice Ave/US Hwy 61
246,36.865561,-89.584631,/S Kings Hwy
160,36.451954,-89.914887,State Hwy 162/E 4th St
160,36.518340,-89.606568,/Dunklin St
185,36.865722,-89.574651,Stoneville Way
185,36.553198,-89.857051,US Hwy 62/Field Rd
185,36.585018,-89.528071,Powell Ave/Old Kingshighway
160,36.587911,-89.522509,Virginia Ave/Dunn St
246,36.868360,-89.547291,US Hwy 60
390,36.567568,-89.604341,Fountain St
160,36.424469,-89.681673,State Hwy 162
185,36.450871,-89.917564,E 5th St/S Walker Ave
334,36.597287,-89.535368,Kingshighway/Blades Dr
160,36.598814,-89.535933,/Dawson Rd
185,36.575470,-89.575695,I- 55
246,36.520810,-89.606554,/Dunklin St
216,36.421828,-89.686159,Skyview Rd
216,36.592560,-89.615024,3rd St/Dawson Ave
216,36.439226,-89.691294,State Hwy 162/Co Rd 345
276,36.458175,-89.918267,N Gideon Ave/E Jefferson St
216,36.554878,-89.930157,US Hwy 62/Co Rd 558
305,36.868532,-89.555879,S Acres Dr/Keystone Dr
276,36.594535,-89.521360,Brush Prairie Rd
160,36.820679,-89.520297,State Hwy Aa
418,36.424325,-89.698582,E 1st St
216,36.426443,-89.703477,W 3rd St/Meatte Ave
185,36.526509,-89.597768,I- 55
160,36.858558,-89.587416,/Lawrence
185,36.606911,-89.813995,Williamson St
160,36.589947,-89.610990,/6th St
390,36.427488,-89.698330,E 4th St/Baker Ave
276,36.635849,-89.545084,I- 55/I- 55 Lp
362,36.592233,-89.538311,Pinnell Ln
736,36.866486,-89.602541,W Murray Ln
160,36.855193,-89.660042,/State Hwy 114
390,36.669629,-89.573827,Co Rd 611/Burge
362,36.567570,-89.604872,Fountain St/Duncan/young
160,36.818399,-89.520292,Co Rd 810/State Hwy Aa/Nance Rd
160,36.592597,-89.611034,6th St/Dawson Ave
160,36.431589,-89.696894,Warren Ave/E 8th St
552,36.432622,-89.699324,E 9th St/King Ave
185,36.700782,-89.537565,Co Rd 708
160,36.553478,-89.817631,W Freeman Ave/Risco Rd
305,36.592992,-89.543546,Saint Anne Ln/Ramsey Ln
246,36.432471,-89.692025,E 9th St
185,36.521460,-89.605125,Reeder St/Cypress St
579,36.432485,-89.699327,King Ave
305,36.593013,-89.531765,Maple St/Pinnell Ln
160,36.497267,-89.624596,Co Rd 312/US Hwy 61
216,36.772440,-89.534901,I- 55
418,36.428017,-89.699378,/King Ave
305,36.584464,-89.532393,Kingshighway/Old Kingshighway
185,36.433268,-89.691329,/US Hwy 61
160,36.805964,-89.598115,/Field Rd
305,36.592995,-89.543310,Saint Anne Ln/Ramsey Ln
276,36.808798,-89.573917,US Hwy 61/Field Rd
160,36.423875,-89.672821,/Richland Rd
185,36.519010,-89.610301,/E Elm St
160,36.869504,-89.546419,County Line Rd
390,36.867534,-89.582301,Kay Dr
185,36.737339,-89.537677,I- 55
185,36.841081,-89.675800,US Hwy 60
160,36.833603,-89.578418,US Hwy 61
160,36.517430,-89.608082,/S Davis St
216,36.536574,-89.593170,I- 55
276,36.450182,-89.663998,I- 55
390,36.595878,-89.527258,Saint Vincent Dr/Dawson Rd/Main St
160,36.591272,-89.526347,Femmer Dr/Henry Ct/Vandenvender Ave
160,36.433907,-89.659256,Glenair Rd/Co Rd 417
276,36.429020,-89.703486,Meatte Ave
185,36.869644,-89.573404,Ladue Dr/Stanford Dr
160,36.762782,-89.588827,Davis St/Summit St
160,36.867453,-89.569530,Bucklin Cir
185,36.863974,-89.577535,Innsbruck Ln
160,36.439399,-89.681150,Bandy Rd
216,36.766238,-89.537633,I- 55
185,36.612075,-89.704844,Swartz Ave/State Hwy D
305,36.424354,-89.700604,S de Lisle Ave/E 1st St
160,36.843360,-89.697500,Poplar St/Levy St
185,36.589308,-89.530120,/Church St
160,36.846224,-89.686389,N Benton St/Spruce St
185,36.857264,-89.579293,US Hwy 60
216,36.589928,-89.613446,/4th St
216,36.439134,-89.695298,State Hwy 162
185,36.589387,-89.529536,Mitchell Ave
160,36.850855,-89.534342,Harlene Dr
246,36.451017,-89.919916,E 5th St/S Main St
160,36.756108,-89.685524,Taft/Mc Arthur St
276,36.647762,-89.548835,US Hwy 61
160,36.753027,-89.687509,Van Buren St/Jefferson St
276,36.450170,-89.664009,I- 55
246,36.846755,-89.689260,Madison St
276,36.592698,-89.522604,Pinnell Ln
160,36.585764,-89.612190,5th St/Broughton Ave
185,36.572884,-89.575377,I- 55 Lp
185,36.847818,-89.686452,Sarno St/N Benton St
216,36.521383,-89.606550,Dunklin St/Cypress St
246,36.591494,-89.617463,1st St/Lewis Ave
160,36.538462,-89.885914,Co Rd 240
216,36.536582,-89.593489,/I- 55
305,36.552244,-89.823022,Locust St/Riley Ave
216,36.759991,-89.586403,Huls St/N Dean St
216,36.568526,-89.596759,US Hwy 61/E Sisson St
362,36.587142,-89.609804,7th St/Co Rd 502
305,36.869033,-89.582044,Patricia Dr/Murray Ln
160,36.596138,-89.612271,Mooney St/5th St
276,36.866601,-89.569565,Bucklin Cir
160,36.845252,-89.682007,E Beech St
334,36.454336,-89.920314,/W 2nd St
160,36.426440,-89.704864,W 3rd St/Le Sieur Ave
160,36.454248,-89.918416,Gideon Ave/E 2nd St
160,36.450427,-89.679299,US Hwy 61
160,36.843775,-89.640475,/US Hwy 60
216,36.592975,-89.544523,Saint Helen Ln/Ramsey Ln
445,36.572424,-89.577590,I- 55/US Hwy 61/I- 55 Lp
160,36.627678,-89.491710,Co Rd 727/Co Rd 730
160,36.754021,-89.565245,/US Hwy 61
246,36.437087,-89.706678,Brown Dr
216,36.519057,-89.616952,W Elm St
160,36.520206,-89.607409,Hickory St/Elm Street Aly
246,36.521431,-89.611133,de Lisle St/Cypress St
276,36.867361,-89.595805,W Murray Ln
246,36.864013,-89.602075,Cherokee
185,36.496874,-89.619275,I- 55
305,36.428010,-89.701991,N Huffman Ave
334,36.595181,-89.527268,Main St/Missouri Ave
160,36.612465,-89.815545,East St
276,36.436116,-89.689428,/US Hwy 61
334,36.589944,-89.525527,Line St/Riley St
185,36.451852,-89.901014,/State Hwy 162
160,36.790895,-89.531731,I- 55
216,36.866359,-89.603525,W Murray Ln
160,36.869162,-89.566945,Colonel George E Day Pkwy
684,36.860281,-89.583574,/US Hwy 61
185,36.575342,-89.567221,/I- 55 Lp
185,36.445515,-89.920991,S Main St
185,36.586146,-89.616263,Winston Ave/2nd St
334,36.460488,-89.917336,State Hwy 153/N Walker Ave
276,36.595172,-89.525584,1st St/Missouri Ave
160,36.553775,-89.772972,US Hwy 62//Co Rd 341
160,36.591246,-89.523151,Russell St/Vandenvender Ave
160,36.813248,-89.520258,/State Hwy Aa
499,36.868498,-89.579952,S Main St
160,36.437633,-89.795085,State Hwy 162
216,36.468764,-89.646222,I- 55
185,36.615158,-89.811423,Dawna St/High St
160,36.439380,-89.673614,Outer Rd
418,36.588636,-89.535276,Capitol Blvd/Scott St
445,36.431566,-89.703449,Meatte Ave/W 8th St
276,36.590826,-89.531559,Saint Mark Ln/Saint Thomas Ln
160,36.671387,-89.573895,State Hwy W/Co Rd 611
160,36.616823,-89.813056,Dale St
246,36.868371,-89.587672,Murray Ln
160,36.445002,-89.920821,Adams St
185,36.454194,-89.917160,Walker Ave/E 2nd St
216,36.856190,-89.535595,State Hwy Aa/Paul Dr
445,36.427496,-89.699372,E 4th St/King Ave
216,36.454366,-89.920961,Anderson Ave/W 2nd St
185,36.437449,-89.817866,State Hwy 162/State Hwy B
216,36.554864,-89.585852,Co Rd 305
684,36.866570,-89.601888,W Murray Ln
185,36.496872,-89.618541,Co Rd 412
160,36.565933,-89.595080,E Laura St/Maryland St
472,36.566012,-89.599852,S Bernice Ave/W Laura St
526,36.425858,-89.702001,N Huffman Ave/
185,36.582894,-89.610008,Market St/State Hwy D
276,36.430111,-89.706437,Macarthur Ave
684,36.422216,-89.702928,Portage Village
160,36.759384,-89.529218,State Hwy 80
185,36.575058,-89.567098,/Levee Rd
445,36.425851,-89.699387,/King Ave
160,36.597656,-89.526617,Saint Vincent Dr/Saint Paul Dr
160,36.596868,-89.616609,Jackson St
185,36.594636,-89.612269,/5th St
305,36.516754,-89.601616,/I- 55
499,36.585200,-89.617532,Blades Ave/Blades Dr
216,36.519059,-89.617574,W Elm St
276,36.590486,-89.538771,Saint Francis Ln
362,36.588997,-89.535296,/Capitol Blvd
334,36.588969,-89.531894,Howard Ave
185,36.433458,-89.701941,N Huffman Ave/W 10th St
185,36.588612,-89.541166,Laforge Ave/Scott St
246,36.590322,-89.533100,Saint Mark Ln/Kingshighway
334,36.866468,-89.570605,Plantation Blvd/Pine St
160,36.533975,-89.570831,Co Rd 406
276,36.441428,-89.696410,Margaret St
276,36.431121,-89.699359,King Ave
276,36.612058,-89.557767,Co Rd 635
1772,36.858860,-89.583303,Brunt/Hennings/US Hwy 61
185,36.468421,-89.701709,Co Rd 344/State Hwy F
246,36.587160,-89.618826,Roberts Ave/Baehr Rd
418,36.425841,-89.698308,Baker Ave
160,36.581874,-89.921323,Co Rd 524/Field Rd
160,36.844369,-89.631959,US Hwy 60/State Hwy Ff/Pharris Ridge Dr
216,36.869492,-89.549582,County Line Rd
185,36.830913,-89.577915,/US Hwy 61
160,36.437921,-89.706469,Robin Ln
276,36.597772,-89.535313,Dawson Rd/Happy Ln/Kingshighway
160,36.868448,-89.537725,/State Hwy Aa
185,36.467803,-89.713454,Co Rd 344
216,36.759588,-89.585206,Johnson's Aly/N Railroad St
160,36.848122,-89.684043,Bates St/E Front St
390,36.669569,-89.574931,Burge
160,36.761288,-89.587553,N Calvin St/Story St
276,36.569624,-89.591368,/US Hwy 61
185,36.568833,-89.604877,Duncan/young
185,36.433406,-89.708672,W 10th St/Florida Dr
216,36.862108,-89.576252,Daffodil Dr
185,36.863240,-89.601312,Arapahoe Dr/Apache
160,36.781975,-89.446429,State Hwy 80
160,36.673615,-89.403286,State Hwy P/Co Rd 738
216,36.428006,-89.703495,Meatte Ave
246,36.586065,-89.543132,Latham St/Mill St
160,36.581899,-89.920669,Field Rd
185,36.612348,-89.819632,Fable St/N Railroad St
305,36.863240,-89.598135,Montgomery St
526,36.422760,-89.702001,S Huffman Ave/Cotton St
185,36.839423,-89.699261,US Hwy 60
185,36.777320,-89.568654,US Hwy 61
185,36.841308,-89.675889,US Hwy 60
216,36.570060,-89.589123,Co Rd 302/US Hwy 61
305,36.862273,-89.537751,State Hwy Aa
185,36.592826,-89.609840,N 7th St
160,36.432488,-89.704838,W 9th St/Le Sieur Ave
305,36.429569,-89.698794,E 6th St
160,36.620256,-89.828794,Co Rd 535
160,36.560813,-89.955402,US Hwy 25
160,36.511731,-89.611104,Cedar St/S de Lisle St
631,36.865954,-89.603008,/Branum St
160,36.581838,-89.921385,/Co Rd 524
305,36.427491,-89.700622,E 4th St/de Lisle Ave
472,36.567760,-89.600460,US Hwy 61
160,36.453241,-89.921040,Anderson Ave/W 3rd St
246,36.758665,-89.586266,/Shelby/S Dean St
334,36.429544,-89.693832,E 6th St/US Hwy 61
160,36.751820,-89.585275,Casey St/Steel St
160,36.484802,-89.817574,/State Hwy B
185,36.598915,-89.810441,State Hwy 153
334,36.605214,-89.533769,Cherokee Cir
160,36.755369,-89.565451,US Hwy 61
185,36.843168,-89.649126,US Hwy 60
185,36.424615,-89.663767,State Hwy 162
185,36.614655,-89.962418,State Hwy D
160,36.759050,-89.569339,/E Main St/State Hwy H
185,36.869605,-89.524256,Co Rd 408/Co Rd 544
160,36.554251,-89.745485,US Hwy 62/
160,36.670888,-89.637448,State Hwy W
276,36.759269,-89.538815,State Hwy 80
362,36.518947,-89.605048,Reeder St/E Elm St/State Hwy Ee
216,36.453183,-89.919769,W 3rd St/Main St/E 3rd St
160,36.483463,-89.627328,State Hwy F
160,36.458536,-89.926218,State Hwy 162/W Railroad St
246,36.429047,-89.699371,King Ave
185,36.450539,-89.922391,/W 6th St
334,36.867291,-89.582693,Prairie Ave
185,36.424916,-89.627128,State Hwy 162/State Hwy Kk
334,36.866865,-89.599667,/W Murray Ln
216,36.589979,-89.527194,Riley St/Main St
216,36.590459,-89.610998,6th St/Charlotte Ave
160,36.615146,-89.817806,High St
160,36.755143,-89.684781,Washington St
160,36.431625,-89.700565,E 8th St/de Lisle Ave
160,36.442914,-89.684850,US Hwy 61
362,36.430983,-89.692856,US Hwy 61/Workman Ave
305,36.585768,-89.610960,Broughton Ave/6th St
185,36.573836,-89.570827,/I- 55 Lp
160,36.592588,-89.609942,N 7th St/Dawson Ave
246,36.583875,-89.550660,Des Cyprie Pl/I- 55 Lp
185,36.522311,-89.599564,I- 55
160,36.841055,-89.686258,N Benton St
472,36.585205,-89.617941,Blades Ave
160,36.615141,-89.814581,Mulberry Cir/High St
334,36.435351,-89.701932,E 12th St/N Huffman Ave
246,36.588661,-89.536549,Crisler St/Scott St
216,36.518778,-89.609608,/Mitchell St
160,36.610482,-89.815559,Ash St/East St/S East St
160,36.583627,-89.535026,Capitol Blvd/Water St
390,36.591932,-89.531705,Saint Mark Ln/Saint Thomas Ln
160,36.842661,-89.631881,Depro Ave/Pharris Ridge Dr
185,36.595171,-89.612266,5th St/Ress St
334,36.572650,-89.576476,/I- 55 Lp
185,36.759544,-89.486637,State Hwy 80/Co Rd 706
160,36.588137,-89.618822,Waring Ave/Baehr Rd
216,36.589412,-89.610982,6th St/Benton St
246,36.592563,-89.539590,St Christopher/Pinnell Ln
499,36.426447,-89.695907,US Hwy 61/E 3rd St
631,36.424755,-89.697034,US Hwy 61
160,36.433713,-89.695902,E 10th St/Barnes Ave
160,36.497104,-89.624791,US Hwy 61
160,36.817704,-89.520282,/State Hwy Aa
334,36.847306,-89.687400,N Scott St
160,36.420534,-89.746120,Co Rd 355
305,36.589781,-89.533134,Riley St/Kingshighway
185,36.861338,-89.586277,/Stallcup
185,36.649406,-89.538953,I- 55
160,36.701371,-89.669234,Co Rd 628/State Hwy E
160,36.569028,-89.598157,E Sisson St
216,36.522566,-89.609644,Mitchell St/Catalpa St
526,36.589878,-89.524069,Riley St/Hunter St
185,36.869440,-89.544274,US Hwy 60
185,36.852038,-89.532900,I- 55
160,36.757746,-89.685619,Mc Arthur St/State Hwy H
185,36.752214,-89.683084,Madison St/Co Rd 845
334,36.867467,-89.582733,Prairie Ave/Kay Dr
968,36.424410,-89.690052,/State Hwy 162
276,36.426959,-89.700594,/de Lisle Ave
185,36.613142,-89.819572,School St/E Main St/W Main St
185,36.424390,-89.687473,Outer Rd/State Hwy 162
160,36.610817,-89.556268,Co Rd 728
160,36.612724,-89.810409,S Railroad St/State Hwy 153
362,36.426438,-89.697411,E 3rd St
160,36.595246,-89.615404,Main St
246,36.585960,-89.529690,Mill St/Church St
185,36.452336,-89.922361,/Whiterow Ave/W 4th St
445,36.518869,-89.598971,S Outer Rd/State Hwy Ee
472,36.751838,-89.537469,State Hwy V
160,36.615146,-89.817736,/High St
216,36.587376,-89.541155,Laforge Ave/Davis St
160,36.772870,-89.483549,State Hwy 80
445,36.425366,-89.702001,N Huffman Ave/W Main St/S Huffman Ave/2nd St
246,36.587388,-89.536514,Davis St/Crisler St
160,36.757716,-89.687726,Co Rd 850/Van Buren St/Co Rd 847
160,36.581877,-89.920588,/Field Rd
390,36.599246,-89.526627,Saint Vincent Dr/St Lawrence Dr
160,36.443288,-89.684617,US Hwy 61
160,36.431703,-89.681255,I- 55
216,36.421745,-89.694470,Haynes Dr
185,36.519060,-89.618200,W Elm St
216,36.759053,-89.571128,/E Main St
246,36.422395,-89.685827,Skyview Rd
185,36.568027,-89.595304,Young St
185,36.567140,-89.596557,Franklyn Ave/E Francis St
246,36.460278,-89.918733,/State Hwy 153
305,36.490469,-89.625024,I- 55
445,36.862258,-89.590129,School St
246,36.868578,-89.547451,/US Hwy 60
362,36.599626,-89.620271,/St Louis St/Liberty St
160,36.839999,-89.694501,US Hwy 60
216,36.540521,-89.591794,I- 55
276,36.425522,-89.694880,Foster Ave/Sam Lafont St
185,36.869563,-89.531917,Co Rd544
418,36.866110,-89.598685,/Montgomery St
276,36.850824,-89.533344,Harlene Dr
305,36.586123,-89.546496,Mill St/I- 55 Lp
160,36.464980,-89.648130,Co Rd 418/Co Rd 320
160,36.525598,-89.611039,/US Hwy 61
216,36.870303,-89.567625,Stanford Dr/Cambridge Dr
185,36.548028,-89.588248,I- 55
216,36.595199,-89.545685,Saint Margaret Ln/Saint Catherine Ln
185,36.592569,-89.616256,Dawson Ave/2nd St
185,36.427486,-89.703498,W 4th St/Meatte Ave
160,36.595997,-89.521483,Dawson Rd/Brush Prairie Rd/State Hwy U
334,36.839144,-89.532702,I- 55
526,36.425363,-89.700935,2nd St
160,36.457944,-89.920531,N Anderson Ave/W Jefferson St
216,36.827078,-89.577211,/US Hwy 61
968,36.862105,-89.583455,S Kings Hwy/S Main St/US Hwy 61
160,36.860890,-89.589813,School St/Stallcup
160,36.781862,-89.483455,Co Hwy 803
216,36.588344,-89.610988,6th St/Ewing St
246,36.451860,-89.909580,State Hwy 162/
185,36.668287,-89.552623,/US Hwy 61
216,36.455396,-89.919000,E 1st St
276,36.517440,-89.611119,/de Lisle St
160,36.869319,-89.565450,County Line Rd
185,36.424564,-89.671533,State Hwy 162
185,36.759038,-89.565991,State Hwy 80/State Hwy H/US Hwy 61
499,36.565998,-89.600523,W Laura St/Laura St
160,36.517796,-89.615571,W Main St/de Mint St
160,36.583687,-89.612892,Victory St/River Rd
390,36.459315,-89.920521,N Anderson Ave/W Washington St
418,36.429590,-89.702732,W 6th St
160,36.438748,-89.746781,State Hwy 162/Co Rd 353
216,36.429562,-89.698278,E 6th St/Baker Ave
160,36.553523,-89.809285,US Hwy 62/State Hwy 153
185,36.591278,-89.525685,Femmer Dr/Vandenvender Ave
276,36.483483,-89.631731,State Hwy F/I- 55
185,36.520522,-89.606556,/Dunklin St
305,36.833133,-89.533037,Co Rd 806
185,36.582493,-89.548318,Levee Rd
891,36.861816,-89.582937,Col George E Day Pkwy
160,36.470721,-89.914919,/State Hwy 153
185,36.586211,-89.528095,Mill St/Powell Ave
334,36.589524,-89.526295,Byrd Dr
160,36.424446,-89.683552,State Hwy 162/Outer Rd/Skyview Rd
276,36.435333,-89.696979,E 12th St
216,36.431604,-89.698296,E 8th St/Baker Ave
246,36.589799,-89.528487,/Digges Pl/Riley St
160,36.612408,-89.815541,S Railroad St//East St
160,36.555118,-89.610377,/US Hwy 62
160,36.586366,-89.614383,Winston Ave
185,36.433447,-89.694153,E 10th St
276,36.453301,-89.922322,Whiterow Ave/W 3rd St
160,36.458143,-89.916163,E Jefferson St
499,36.421897,-89.701999,Portage Village/S Huffman Ave
160,36.846359,-89.690229,Dunklin St/E Front St
160,36.591543,-89.526255,Femmer Dr
160,36.773877,-89.519881,State Hwy Aa
185,36.453395,-89.574131,Phillips/Delisle St
160,36.805971,-89.597983,Field Rd
246,36.453271,-89.921684,W 3rd St
160,36.432657,-89.701252,E 9th St/Huffman Ave Rear
160,36.591210,-89.521564,Vandenvender Ave
276,36.777729,-89.532282,I- 55
185,36.584655,-89.529407,Church St/Mott St/Old Kingshighway
216,36.869468,-89.544927,US Hwy 60
276,36.567180,-89.600475,Francis
390,36.424413,-89.685377,State Hwy 162/I- 55
160,36.451876,-89.910203,State Hwy 162/
334,36.424349,-89.701144,E 1st St
160,36.426546,-89.709328,Redbud Cir/Sunset Dr
579,36.589206,-89.525517,Line St/Hunter
418,36.432433,-89.708674,W 9th St/Florida Dr
216,36.762954,-89.538239,I- 55
216,36.758962,-89.584339,Miller Dr/W Main St/N Miller Dr
605,36.425839,-89.696929,Warren Ave
185,36.588622,-89.613430,4th St
362,36.429583,-89.699366,E 6th St/King Ave
160,36.616876,-89.812111,/Shelley St
185,36.524655,-89.799646,Hwy 153 Rear Gravel
185,36.754939,-89.688814,Washington St/Harrison St
334,36.865013,-89.602998,Branum St
185,36.451485,-89.922764,W 5th St/Sarff Ave
160,36.425338,-89.686529,Outer Rd/
246,36.862375,-89.579064,/Colonel George E Day Pkwy
185,36.606007,-89.534361,Sequoyah Ave
246,36.599669,-89.621787,Providence St/Liberty St
160,36.846207,-89.687276,S Scott St/Spruce St
160,36.553730,-89.692666,US Hwy 62
216,36.468761,-89.645821,I- 55
276,36.598019,-89.523604,Saint Peter Dr/Saint Paul Dr
216,36.781761,-89.569302,/US Hwy 61
216,36.597056,-89.609994,Kuenn St/N 7th St/7th St
160,36.434668,-89.694211,E 11th St
185,36.597436,-89.537942,Blades Dr/I- 55 Lp
185,36.439055,-89.682117,Bandy Rd/Co Rd 314
160,36.854239,-89.530695,/State Hwy Aa
185,36.556841,-89.956391,Laclede St
160,36.600236,-89.702065,State Hwy W
305,36.861130,-89.587944,Stallcup/Lawrence
185,36.596903,-89.537929,Blades Dr
160,36.582208,-89.550774,Riverside Dr/Old Kingshighway
160,36.591522,-89.609901,/Lewis Ave
185,36.478739,-89.914889,State Hwy 153
160,36.454522,-89.603293,/State Hwy Kk
445,36.591519,-89.612249,5th St/Lewis Ave
276,36.589420,-89.612211,5th St/Benton St
160,36.529652,-89.596424,I- 55
160,36.426028,-89.737982,Co Rd 209
216,36.595173,-89.521353,Brush Prairie Rd/Missouri Ave
160,36.791997,-89.570918,US Hwy 61
418,36.596778,-89.529620,Saint Isadore Dr/St Joseph Dr
216,36.591541,-89.615027,3rd St/Lewis Ave
185,36.514195,-89.612613,W Walnut St/E Walnut St/Lewis St
160,36.457912,-89.930608,State Hwy 162/
160,36.820174,-89.520298,State Hwy Aa
160,36.602118,-89.536892,/Shawnee St
160,36.517429,-89.614142,Toney St
216,36.516587,-89.613579,Pecan St/Mc Carty St
362,36.516589,-89.611134,Pecan St/de Lisle St
216,36.603972,-89.534115,Shawnee St/Sequoyah Ave
305,36.490469,-89.625418,I- 55
160,36.842858,-89.690362,Dunklin St
390,36.431147,-89.693324,/Workman Ave
246,36.452014,-89.917964,/E 4th St
185,36.797973,-89.571987,Calvin Ln/US Hwy 61
246,36.818168,-89.532114,I- 55
160,36.760787,-89.587506,N Calvin St/Roberts St
305,36.591269,-89.524085,Hunter St/Vandenvender Ave
160,36.436309,-89.841707,State Hwy B
160,36.870858,-89.567031,S Ingram St
160,36.868900,-89.583064,Prairie Ave/Murray Ln
246,36.755110,-89.685488,Washington St/Mc Arthur St
246,36.865500,-89.584618,S Kings Hwy/Southland Dr
185,36.768219,-89.537331,I- 55
185,36.810474,-89.574215,/US Hwy 61
246,36.861782,-89.595804,Cotton Sq Cir
160,36.533079,-89.601194,State Hwy Ad
160,36.854478,-89.530879,State Hwy Aa
160,36.421949,-89.668382,/Kyle Dr
160,36.791108,-89.532023,I- 55
160,36.453118,-89.918493,E 3rd St/Gideon Ave
185,36.567578,-89.601353,US Hwy 61
160,36.591197,-89.521185,State Hwy Ww/Vandenvender Ave
472,36.865606,-89.597313,S West St
216,36.450889,-89.918100,/E 5th St
216,36.428543,-89.703491,W 5th St/Meatte Ave
160,36.483767,-89.645948,Clara Ave
160,36.698068,-89.557042,US Hwy 61
390,36.459304,-89.918261,N Gideon Ave/E Washington St
160,36.495779,-89.815610,State Hwy 153/N State Hwy 153
185,36.773610,-89.568109,/US Hwy 61
246,36.635297,-89.544712,I- 55 Lp
276,36.439103,-89.696684,State Hwy 162
499,36.592407,-89.541491,I- 55 Lp/Ramsey Ln
185,36.781811,-89.454373,State Hwy 80//Co Rd 703
160,36.602145,-89.536609,Shawnee St
362,36.424357,-89.699383,E 1st St/King Ave
185,36.849895,-89.533741,Mayfair Dr
160,36.553248,-89.854934,US Hwy 62
160,36.844635,-89.686348,/N Benton St
445,36.459306,-89.917013,E Washington St/N Walker Ave
185,36.582259,-89.612913,Victory St
185,36.842943,-89.649025,US Hwy 60
185,36.781812,-89.480664,State Hwy 80
185,36.849357,-89.581376,/US Hwy 61
160,36.452353,-89.922721,W 4th St/Sarff Ave
276,36.590446,-89.613444,4th St/Charlotte Ave
160,36.459306,-89.918740,E Washington St
185,36.515378,-89.605075,Reeder St/E Orchard St
472,36.862293,-89.565185,US Hwy 60
472,36.589060,-89.533148,Kingshighway
499,36.866968,-89.598877,Montgomery St/W Murray Ln
160,36.744655,-89.531078,State Hwy V
216,36.598353,-89.564124,State Hwy U/I- 55
185,36.574502,-89.576563,/I- 55
216,36.590225,-89.530409,Broughton Dr
362,36.592891,-89.532447,Saint Matthew Ln/Pinnell Ln
445,36.432675,-89.698441,Baker Ave
418,36.585177,-89.526832,Main St/Old Kingshighway
160,36.671765,-89.684323,/State Hwy W
216,36.865939,-89.574694,Plantation Blvd/Stoneville Way
276,36.435913,-89.701929,N Huffman Ave/Clover Ln
160,36.410521,-89.617717,Co Rd 417/State Hwy Tt
160,36.517857,-89.614063,Toney St/Main St
185,36.454199,-89.572723,/State Hwy Kk
185,36.598521,-89.810442,/State Hwy 153
216,36.586074,-89.541168,Laforge Ave/Mill St
185,36.597697,-89.543153,Saint Theresa Ln/Saint Anne Ln
185,36.425389,-89.706483,Macarthur Ave/W Main St
160,36.524171,-89.913969,Co Rd 246/State Hwy J
185,36.553427,-89.827748,US Hwy 62/Co Rd 241/Co Rd 535
499,36.587430,-89.545092,Davis St/I- 55 Lp
160,36.433731,-89.691021,US Hwy 61
160,36.430574,-89.693133,E 7th St/US Hwy 61
160,36.515397,-89.614110,Toney St/W Orchard St
246,36.571268,-89.583278,/US Hwy 61
160,36.751760,-89.586608,S Calvin St/Steel St
362,36.847178,-89.687468,S Scott St/E Front St
185,36.759446,-89.519752,State Hwy 80/State Hwy Aa
160,36.584771,-89.610955,S 6th St/6th St/Diggs Ave
445,36.425354,-89.698317,E Main St/Baker Ave
216,36.522311,-89.599261,I- 55
185,36.759946,-89.587428,N Calvin St/Huls St
305,36.867767,-89.592527,Murray Ln/W Murray Ln
160,36.774189,-89.519885,/State Hwy Aa
390,36.424408,-89.685684,State Hwy 162/I- 55
160,36.517765,-89.614257,/Main St
390,36.599188,-89.526626,Saint Vincent Dr/St Lawrence Dr
216,36.424395,-89.686455,/State Hwy 162
160,36.762271,-89.588781,Davis St/Harris St
276,36.859027,-89.581689,/Brunt
216,36.432670,-89.701946,N Huffman Ave/E 9th St
185,36.842930,-89.631888,/Pharris Ridge Dr
160,36.511732,-89.610951,/Cedar St
185,36.854601,-89.532928,I- 55
305,36.833140,-89.532619,I- 55
160,36.596948,-89.530637,Greenbriar Dr
185,36.456966,-89.919285,Main St/N Main St
276,36.866939,-89.583693,Alexander Ave
246,36.429600,-89.700609,E 6th St/de Lisle Ave
334,36.427487,-89.701997,N Huffman Ave/W 4th St/E 4th St
160,36.552863,-89.881705,US Hwy 62/Co Rd 546
390,36.425357,-89.697890,E Main St
160,36.603331,-89.536987,Shawnee St
579,36.427477,-89.696928,Warren Ave/E 4th St
160,36.393300,-89.749717,State Hwy Yy
185,36.425457,-89.686260,Outer Rd
216,36.868225,-89.588858,Murray Ln
160,36.517774,-89.606571,Dunklin St/E Main St/S Dunklin St
276,36.513909,-89.602619,/S Outer Rd
246,36.448607,-89.920095,7th St/S Main St
216,36.439361,-89.691292,Co Rd 345
216,36.656267,-89.538309,I- 55
216,36.421472,-89.686308,Skyview Rd
160,36.437653,-89.699328,/King Ave
185,36.553202,-89.856858,US Hwy 62
305,36.458160,-89.917004,E Jefferson St/N Walker Ave
185,36.590333,-89.607384,9th St/Charlotte Ave
160,36.605699,-89.449161,Co Rd 732/State Hwy Ww
185,36.517795,-89.611112,de Lisle St/E Main St/Main St
216,36.864843,-89.574478,Stoneville Way/Woodruff Ave
276,36.825620,-89.532515,I- 55
160,36.857876,-89.651010,/State Hwy 114
160,36.759441,-89.521990,State Hwy 80
160,36.612709,-89.810627,S Railroad St/S Caney St
276,36.426543,-89.706478,Macarthur Ave/Sunset Dr/Mac Arthur Ave
160,36.843445,-89.635527,Barnett St
216,36.766237,-89.567037,US Hwy 61
185,36.455792,-89.918303,/Gideon Ave
185,36.855344,-89.532538,State Hwy Aa
246,36.431131,-89.700601,de Lisle Ave
185,36.767703,-89.537211,I- 55
160,36.433087,-89.695912,Barnes Ave/E 10th St Rear
160,36.855247,-89.532652,I- 55
216,36.755057,-89.686701,Washington St/Main St
160,36.553464,-89.820413,W Freeman Ave/Cherry St
160,36.869450,-89.553565,County Line Rd
499,36.431116,-89.703459,Meatte Ave/Rear W 7th
185,36.556431,-89.954135,US Hwy 62
246,36.592671,-89.521489,Brush Prairie Rd/Pinnell Ln
216,36.509716,-89.606990,I- 55
160,36.863791,-89.574213,Stoneville Way/Innsbruck Ln/Clearwater Rd
160,36.482116,-89.723913,State Hwy Zz
160,36.433436,-89.706457,Macarthur Ave/W 10th St
246,36.586165,-89.617481,Winston Ave/1st St
246,36.863909,-89.559857,US Hwy 60
418,36.454306,-89.919675,W 2nd St/Main St/E 2nd St
418,36.632923,-89.546548,/I- 55
246,36.842679,-89.532061,State Hwy Aa
216,36.583954,-89.528365,/Water St
160,36.458516,-89.926311,State Hwy 162
185,36.848448,-89.687655,N Scott St/Elm St
445,36.424324,-89.698377,E 1st St
362,36.759277,-89.538149,State Hwy 80/I- 55
305,36.454389,-89.921667,W 2nd St
472,36.429059,-89.701981,N Huffman Ave
276,36.706720,-89.558345,US Hwy 61
160,36.612648,-89.815556,/East St
160,36.447384,-89.920183,Madison St/S Main St
246,36.435322,-89.695872,E 12th St/Barnes Ave
185,36.696317,-89.556783,/US Hwy 61
185,36.855379,-89.532654,State Hwy Aa/I- 55
160,36.601007,-89.519050,Co Rd 732/State Hwy U
185,36.439386,-89.674290,I- 55
276,36.611852,-89.557594,I- 55
246,36.562645,-89.582326,I- 55
390,36.863773,-89.584172,/S Kings Hwy
276,36.439109,-89.696437,State Hwy 162
246,36.862293,-89.533047,I- 55
216,36.839722,-89.698290,US Hwy 60
334,36.866258,-89.570564,Pine St/
216,36.520030,-89.604991,Reeder St
305,36.539542,-89.592196,/I- 55
276,36.836471,-89.531984,State Hwy Aa
160,36.520223,-89.611127,de Lisle St/Hickory St
334,36.435083,-89.708634,St Anthony Butler Dr/W 12th St
216,36.861804,-89.566539,US Hwy 60
276,36.867593,-89.575030,Stoneville Way/Auburn Dr
185,36.868258,-89.581778,Patricia Dr
246,36.430097,-89.698283,Baker Ave
362,36.460286,-89.920524,State Hwy 162/N Anderson Ave
390,36.518916,-89.604438,State Hwy Ee
216,36.595230,-89.543111,Saint Catherine Ln/Saint Anne Ln
160,36.554221,-89.746515,US Hwy 62
216,36.555738,-89.609837,US Hwy 61
276,36.483441,-89.628549,/State Hwy F
526,36.430647,-89.702731,W 7th St/Rear W 6th St
160,36.455364,-89.918335,E 1st St/Gideon Ave
160,36.731925,-89.444394,Co Rd 714/Co Rd 713
276,36.517808,-89.612614,Main St/Lewis St
276,36.428538,-89.700610,E 5th St/de Lisle Ave
246,36.594562,-89.525555,/1st St
160,36.441366,-89.685871,/US Hwy 61
185,36.791404,-89.570813,US Hwy 61
160,36.731916,-89.445127,Co Rd 713
334,36.707168,-89.558411,/US Hwy 61
276,36.604323,-89.534023,Sequoyah Ave/Osage Cir
305,36.428521,-89.696707,Warren Ave/E 5th St
216,36.589827,-89.529453,Riley St/Mitchell Ave
160,36.806275,-89.520210,State Hwy Aa/Mallard Dr
160,36.830298,-89.686389,Co Rd 831/State Hwy E
185,36.428511,-89.695041,/E 5th St
276,36.437499,-89.688500,US Hwy 61
305,36.757370,-89.542528,Lytle Dr/Love's Industrial Dr
216,36.772137,-89.534786,I- 55
185,36.584020,-89.527912,Water St/Powell Ave
276,36.593139,-89.530826,Sycamore St/Pinnell Ln
160,36.460891,-89.701746,State Hwy F
276,36.521510,-89.612602,/Lewis St
216,36.596302,-89.520903,/State Hwy U
185,36.822242,-89.576310,Co Rd 828/US Hwy 61
185,36.615152,-89.812255,Shelley St/High St
362,36.426459,-89.698573,E 3rd St
246,36.589297,-89.528494,Powell Ave
160,36.432343,-89.617784,State Hwy Kk/Cotton St
216,36.441462,-89.865773,State Hwy 162
185,36.420692,-89.702006,S Huffman Ave
160,36.518980,-89.608083,Davis St/E Elm St
160,36.552814,-89.909805,US Hwy 62
305,36.517801,-89.611906,Main St
276,36.592976,-89.543868,Ramsey Ln
305,36.572265,-89.578336,/US Hwy 61
305,36.571405,-89.582604,/US Hwy 61
185,36.847583,-89.686438,N Benton St
334,36.756300,-89.537517,State Hwy V
160,36.634678,-89.609794,Co Rd 644/Co Rd 641
185,36.496873,-89.618895,I- 55
216,36.843885,-89.635538,US Hwy 60
276,36.596543,-89.527108,Saint Vincent Dr/St Joseph Dr
185,36.671535,-89.506646,/State Hwy P
472,36.592211,-89.541633,I- 55 Lp
185,36.457495,-89.919264,N Main St
160,36.554272,-89.744965,US Hwy 62
216,36.840583,-89.686238,US Hwy 60/N Benton St/State Hwy E
305,36.581179,-89.555849,Blomfield Rd/Bloomfield Ln/Old Kingshighway/I- 55 Lp
684,36.518884,-89.598271,/State Hwy Ee
390,36.450925,-89.918658,E 5th St/S Gideon Ave/Gideon Ave
499,36.429591,-89.701977,N Huffman Ave/E 6th St/W 6th St
276,36.435649,-89.689741,US Hwy 61
710,36.425301,-89.696658,State Hwy 162/E Main St/US Hwy 61
246,36.868221,-89.569800,Bucklin Cir
216,36.855453,-89.532937,State Hwy Aa/I- 55
305,36.583390,-89.551556,Riverside Dr/I- 55 Lp
160,36.735534,-89.409751,State Hwy Bb
160,36.845903,-89.689242,Madison St/Spruce St
216,36.430595,-89.696936,Warren Ave/E 7th St
216,36.432365,-89.691931,/US Hwy 61
160,36.586922,-89.525448,Line St/Mill St
160,36.603281,-89.537211,/Shawnee St
216,36.440118,-89.673593,I- 55
305,36.866523,-89.581066,S Main St
276,36.668958,-89.538149,/I- 55
160,36.591252,-89.522769,Vandenvender Ave
160,36.435733,-89.840627,State Hwy B
216,36.583676,-89.614236,River Rd
246,36.450434,-89.919960,W 6th St/S Main St
160,36.436563,-89.842184,State Hwy 162/State Hwy B
334,36.430190,-89.704860,Le Sieur Ave
185,36.569085,-89.604894,W Sisson St
160,36.593321,-89.525566,/1st St
605,36.588178,-89.525482,Line St/Virginia Ave
185,36.592755,-89.544665,Saint Helen Ln
185,36.439359,-89.687240,US Hwy 61
472,36.754099,-89.685395,Adams St/Mc Arthur St
160,36.613309,-89.703909,/Catron Dr
276,36.595847,-89.525654,Dawson Rd
185,36.675198,-89.399497,/Co Rd 738/Hcr1
216,36.554869,-89.585640,I- 55
160,36.565927,-89.592033,Laura St
185,36.424393,-89.687964,State Hwy 162/Ivie Dr
246,36.597057,-89.611078,Kuenn St/6th St
160,36.759634,-89.591691,Oak Dr/W Main St
160,36.673889,-89.427816,State Hwy P
185,36.589431,-89.607396,9th St/Benton St
185,36.598185,-89.617939,Van Buren St
160,36.845212,-89.683609,/E Beech St
216,36.497196,-89.618151,Co Rd 412
390,36.751843,-89.538020,I- 55
185,36.847473,-89.686432,N Benton St/E Front St
276,36.591508,-89.616270,Lewis Ave/2nd St
160,36.568339,-89.956801,US Hwy 25
160,36.671386,-89.572869,State Hwy W/2nd St
185,36.854424,-89.586473,/US Hwy 60
160,36.847228,-89.682787,Fisher Dr/Myrtle St
334,36.424313,-89.703462,S Meatte Ave/W 1st St
160,36.424548,-89.647032,Willow St/State Hwy 162
334,36.439062,-89.698706,State Hwy 162
185,36.817281,-89.575417,Co Rd 808/US Hwy 61
216,36.845994,-89.632038,Bon Secour Ave/State Hwy Ff
160,36.759044,-89.572200,/E Main St
185,36.424912,-89.627342,State Hwy 162
362,36.866218,-89.604596,W Murray Ln
185,36.446013,-89.920278,Marie St
185,36.556462,-89.954277,US Hwy 62
185,36.423288,-89.684917,Skyview Rd
185,36.479416,-89.914886,State Hwy 153
526,36.759241,-89.541748,/State Hwy 80
362,36.424339,-89.702003,E 1st St/W 1st St/S Huffman Ave
160,36.451848,-89.898084,State Hwy 162/Co Rd 279
185,36.612178,-89.704808,Swartz Ave
246,36.861930,-89.566183,US Hwy 60
185,36.458014,-89.925634,/W Railroad St
160,36.649389,-89.538674,I- 55
185,36.553515,-89.810267,/E Freeman Ave
160,36.449511,-89.918221,/6th St
362,36.585769,-89.609792,Broughton Ave/State Hwy D
276,36.483455,-89.627784,State Hwy F
160,36.828103,-89.577398,/US Hwy 61
160,36.611419,-89.814263,Walnut St/Dixie St
362,36.862330,-89.579335,Colonel George E Day Pakway/Colonel George E Day Pkwy
185,36.584874,-89.528454,Old Kingshighway
185,36.614680,-89.963174,State Hwy D
160,36.426572,-89.738159,Co Rd 355
160,36.589835,-89.531301,Howard Ave/Riley St
160,36.593710,-89.545659,Saint Margaret Ln/Saint Bridget Ln
246,36.854726,-89.582457,/US Hwy 61
246,36.424581,-89.704935,Le Sieur Ave
185,36.583700,-89.610939,S 6th St/River Rd
216,36.436968,-89.711011,Mc Crate Ave/Brown Dr
160,36.570332,-89.587886,Co Rd 502/US Hwy 61
276,36.574236,-89.569558,I- 55 Lp
605,36.868651,-89.585321,S Kings Hwy/Murray Ln
276,36.567162,-89.598224,Howard St/E Francis St/Francis
160,36.519022,-89.611141,de Lisle St/E Elm St
185,36.700774,-89.557440,Co Rd 608/US Hwy 61
276,36.586927,-89.545554,I- 55 Lp
160,36.453222,-89.714496,Co Rd 346
362,36.752983,-89.688735,Jefferson St/Harrison St
334,36.823324,-89.532480,I- 55
185,36.587402,-89.530120,Church St/Davis St
185,36.671537,-89.506120,/State Hwy P
276,36.671520,-89.539144,/State Hwy P
185,36.591329,-89.810397,State Hwy 153
160,36.432631,-89.695920,E 9th St/Barnes Ave
160,36.517768,-89.606995,/E Main St
185,36.459310,-89.919257,E Washington St/W Washington St/N Main St
362,36.435356,-89.699928,E 12th St/
552,36.863479,-89.582827,S Main St/S Kingshighway
246,36.456899,-89.918260,N Gideon Ave/E Railroad St/Gideon Ave
418,36.869328,-89.579379,S Main St
216,36.439223,-89.690241,State Hwy 162
185,36.854197,-89.532923,I- 55
216,36.603747,-89.561386,I- 55
362,36.452291,-89.921668,W 4th St/Rhodes Ave
160,36.446352,-89.701829,State Hwy F
160,36.824580,-89.576733,US Hwy 61
305,36.580843,-89.555753,Blomfield Rd/Levee Rd/Bloomfield Ln
216,36.514333,-89.614115,/W Walnut St/Toney St
276,36.427507,-89.695213,E 4th St/US Hwy 61
216,36.432490,-89.703429,W 9th St/Meatte Ave
472,36.520218,-89.601074,State Hwy Ad
185,36.855000,-89.532932,I- 55
160,36.553483,-89.816407,Matthew St/E Freeman Ave
160,36.607869,-89.574239,/Co Rd 639
276,36.597642,-89.529628,Saint Paul Dr/Saint Isadore Dr
216,36.583645,-89.534274,Water St/Lewis St
185,36.440154,-89.673181,I- 55
185,36.457800,-89.923999,W Railroad St/N Lunbeck Ave
246,36.585465,-89.618805,Blades Ave/Baehr Rd
160,36.585938,-89.531848,Howard Ave/Mill St
334,36.599403,-89.528045,St Lawrence Dr
276,36.518831,-89.601784,/State Hwy Ee
276,36.648347,-89.548987,US Hwy 61
334,36.856558,-89.581325,US Hwy 60
160,36.514903,-89.808876,State Hwy 153
362,36.593745,-89.544084,Saint Virginia Ln/Saint Bridget Ln
216,36.615600,-89.540633,Co Rd 728/I- 55 Lp
246,36.514485,-89.602934,I- 55
160,36.744584,-89.563902,Co Rd 602/US Hwy 61
185,36.587145,-89.616265,Roberts Ave/2nd St
185,36.762957,-89.537933,I- 55
305,36.424428,-89.684548,State Hwy 162/
160,36.865521,-89.556036,/US Hwy 60
305,36.431615,-89.699359,E 8th St/King Ave
276,36.568391,-89.604874,Duncan/young/Sanders St
246,36.432492,-89.701948,N Huffman Ave/W 9th St
216,36.453094,-89.917866,/E 3rd St
160,36.429255,-89.706443,Macarthur Ave/W 6th St
216,36.759348,-89.533960,State Hwy 80/
160,36.653348,-89.520117,Co Rd 725/Co Rd 722
362,36.592728,-89.533745,Kingshighway/Pinnell Ln
185,36.750058,-89.583917,S Railroad St/
160,36.424569,-89.649769,State Hwy 162
499,36.426971,-89.699374,/King Ave
185,36.438077,-89.699327,/King Ave
185,36.862466,-89.599763,Cotton Ridge Dr
160,36.431858,-89.681493,I- 55
160,36.781824,-89.453231,State Hwy 80/
185,36.586130,-89.616628,Winston Ave/Locust Ln
276,36.595838,-89.529650,Dawson Rd/Saint Isadore Dr
216,36.428298,-89.711095,W 5th St/Mc Crate Ave
216,36.840350,-89.686234,US Hwy 60/State Hwy E
160,36.863336,-89.571505,Willow Way
499,36.424767,-89.700605,S de Lisle Ave
160,36.453212,-89.920408,/W 3rd St
185,36.519056,-89.616800,E Elm St/W Elm St
276,36.483494,-89.632119,State Hwy F/I- 55
362,36.435245,-89.701932,N Huffman Ave/W 12th St
185,36.737337,-89.537969,I- 55
305,36.428539,-89.702701,W 5th St
334,36.517360,-89.612611,Lewis St
160,36.376312,-89.522824,State Hwy 162/
185,36.585367,-89.525261,Line St/Old Kingshighway
362,36.586755,-89.610965,Hunter Ave/6th St
185,36.556821,-89.956116,/US Hwy 25 Bus/Laclede St
216,36.429053,-89.698291,Baker Ave
216,36.521431,-89.609633,Mitchell St/Cypress St
216,36.417141,-89.688114,Skyview Rd
185,36.603748,-89.561696,I- 55
305,36.847206,-89.687372,N Scott St/E Front St
216,36.567088,-89.591990,/E Francis St/Eddie St
160,36.847804,-89.685252,Carrol St/E Front St
160,36.751800,-89.564947,US Hwy 61
160,36.419948,-89.746241,Co Rd 355
246,36.588195,-89.524061,Hunter/Virginia Ave
246,36.432964,-89.691532,US Hwy 61
160,36.736751,-89.664149,State Hwy E
710,36.866473,-89.602643,Branum St/W Murray Ln
160,36.865317,-89.555883,US Hwy 60
160,36.584773,-89.613401,4th St/S Fourth St/Diggs Ave
276,36.521431,-89.612603,Cypress St/Lewis St
305,36.870128,-89.569194,Stanford Dr
334,36.428520,-89.696938,Warren Ave/E 5th St
246,36.866390,-89.569525,Red Arrow
305,36.431580,-89.701958,N Huffman Ave/E 8th St/W 8th St
160,36.841904,-89.702190,Marjorie St/Lee St
185,36.588396,-89.607400,9th St/S 9th St/Ewing St
160,36.869495,-89.537730,State Hwy Aa
185,36.457668,-89.919257,N Main St
418,36.869331,-89.579482,S Main St/Murray Ln
276,36.823585,-89.532199,I- 55
185,36.445656,-89.919916,Marie St
390,36.669140,-89.573816,Co Rd 611/McGee St
305,36.584865,-89.618818,Baehr Rd/Blades Ave
160,36.866451,-89.577547,Delta Pine/Auburn Dr
160,36.611426,-89.815542,Walnut St/East St
160,36.582062,-89.550207,Levee Rd
216,36.766241,-89.537930,I- 55
160,36.581994,-89.921100,Co Rd 524
246,36.514408,-89.602365,/S Outer Rd
160,36.429204,-89.711089,Mc Crate Ave/W 6th St
246,36.596032,-89.545717,Saint Margaret Ln/Saint Elizabeth Ln
185,36.586746,-89.613419,4th St/Hunter Ave
160,36.483654,-89.817575,State Hwy B
305,36.518847,-89.599989,/State Hwy Ee
185,36.768227,-89.537015,I- 55
160,36.604013,-89.450288,Co Rd 404
276,36.869487,-89.550825,County Line Rd
305,36.588101,-89.528478,Powell Ave/Virginia Ave
160,36.628631,-89.439383,/State Hwy P
160,36.839084,-89.704162,US Hwy 60/Co Rd 799/Stoddard County Rd 799
185,36.533136,-89.609710,State Hwy Ad/US Hwy 61
362,36.864078,-89.601496,Arapahoe Dr/Cherokee
185,36.569185,-89.593503,US Hwy 61/Co Rd 506
160,36.593626,-89.613465,4th St/Phillips Ave
216,36.516601,-89.609619,Pecan St/Mitchell St
216,36.532826,-89.595075,I- 55
185,36.511753,-89.605648,Cedar St/Reeder St
160,36.865961,-89.554778,US Hwy 60
246,36.752746,-89.585660,Travis St/S Dean St
305,36.825619,-89.532219,I- 55
246,36.514208,-89.614116,/W Walnut St/Toney St
246,36.569507,-89.591933,/US Hwy 61
216,36.753976,-89.688766,Adams St/Harrison St
160,36.421359,-89.686970,/I- 55
185,36.595156,-89.609989,N 7th St/Ress St
160,36.592095,-89.611015,/6th St
276,36.587411,-89.528503,Powell Ave/Davis St
160,36.588373,-89.612223,5th St/Ewing St
305,36.865234,-89.571436,Woodruff Ave/Clearwater/Clearwater Rd
160,36.615157,-89.811010,Caney St/High St
445,36.430149,-89.703474,Rear W 6th St/Meatte Ave
216,36.583662,-89.526383,Levee Rd/Main St
185,36.439041,-89.699742,State Hwy 162
418,36.459315,-89.919871,W Washington St/Ogden Ave
185,36.848150,-89.682819,Fisher Dr/Craig Pl
216,36.849348,-89.688907,Maple St/N Madison St
246,36.672852,-89.553333,State Hwy W/US Hwy 61
160,36.437391,-89.915979,Co Rd 280
305,36.585960,-89.530087,Church St/Mill St
276,36.590450,-89.612241,5th St/Charlotte Ave
160,36.609559,-89.816196,/Elm St
276,36.430104,-89.700606,de Lisle Ave
246,36.593292,-89.529548,Mitchell Ave/Pinnell Ln
305,36.423718,-89.693547,Haynes Dr
160,36.597965,-89.602523,State Hwy U
246,36.433368,-89.711043,Mc Crate Ave/W 10th St
160,36.425393,-89.707114,W Main St
305,36.756365,-89.538111,I- 55
160,36.603490,-89.537537,/I- 55 Lp
216,36.422875,-89.700256,Cotton St
160,36.437312,-89.915068,Co Rd 280
160,36.609466,-89.539061,/I- 55 Lp
418,36.589887,-89.523129,Riley St/Russell St
160,36.555424,-89.940688,US Hwy 62
472,36.590493,-89.537166,Saint John Ln/Saint Francis Ln
334,36.454425,-89.922273,Whiterow Ave/W 2nd St
160,36.588138,-89.616254,Waring Ave/2nd St
684,36.862849,-89.584035,S Kings Hwy
276,36.571325,-89.582998,US Hwy 61
246,36.722657,-89.537797,I- 55/Co Rd 704
160,36.751805,-89.586191,Sarah Dr/Steel St
216,36.583671,-89.618807,River Rd/Baehr Rd
185,36.519005,-89.609930,E Elm St
246,36.759074,-89.585177,S Railroad St/W Main St/N Railroad St
246,36.441198,-89.671869,Co Rd 419
160,36.587833,-89.612213,5th St/Mott Ave/State Hwy D
160,36.845309,-89.618220,US Hwy 60
160,36.869433,-89.543280,/Lynual St
276,36.604361,-89.533526,Osage Cir
185,36.583432,-89.537061,Levee Rd/Crisler St
160,36.535031,-89.593823,I- 55
160,36.755198,-89.683243,Washington St/Co Rd 845
246,36.722656,-89.538084,I- 55/Co Rd 704
246,36.454017,-89.923619,Lunbeck Ave/W 2nd St
160,36.603884,-89.450242,Co Rd 404
160,36.762492,-89.590863,Summit St/Ridgeview Dr
246,36.593944,-89.527251,Main St/Tennessee Ave
160,36.598829,-89.529655,Saint Isadore Dr
276,36.869498,-89.552014,County Line Rd
418,36.426428,-89.696924,Warren Ave/E 3rd St
334,36.866842,-89.599845,W Murray Ln
445,36.590507,-89.535941,Saint Francis Ln
246,36.432571,-89.691794,US Hwy 61/Bandy Rd
160,36.483306,-89.645006,State Hwy F
710,36.566300,-89.602418,Laura St
216,36.431058,-89.691402,Foster Ave
160,36.426553,-89.710465,Dogwood/Sunset Dr
334,36.424409,-89.693236,State Hwy 162/
160,36.535102,-89.594119,I- 55
216,36.435355,-89.700569,E 12th St/de Lisle Ave
305,36.439098,-89.696902,State Hwy 162/
160,36.602091,-89.537178,Shawnee St/I- 55 Lp
216,36.497204,-89.618577,I- 55
216,36.597626,-89.533999,Happy Ln/Doyne Dr
160,36.443816,-89.684269,/US Hwy 61
185,36.572208,-89.578613,/US Hwy 61
334,36.847527,-89.687466,Sarno St/N Scott St
362,36.596408,-89.534245,/Dawson Rd
185,36.773642,-89.483547,State Hwy 80
185,36.540599,-89.609753,US Hwy 61/Co Rd 314
362,36.759306,-89.536516,State Hwy 80/State Hwy V
246,36.592693,-89.527240,Main St/Pinnell Ln
185,36.596127,-89.611059,Mooney St/6th St
216,36.430608,-89.694847,E 7th St/Workman Ave
160,36.864383,-89.594149,Roth St
362,36.598876,-89.526622,Saint Vincent Dr
185,36.430816,-89.681785,Outer Rd
185,36.845168,-89.685700,/E Beech St
160,36.612648,-89.811722,S Railroad St/Locust St
185,36.597715,-89.532744,Doyne Dr
362,36.467748,-89.715027,/Co Rd 344
334,36.452052,-89.918576,E 4th St/Gideon Ave
160,36.517207,-89.616693,/W Pecan St
185,36.436032,-89.711019,Mc Crate Ave/Stafford Dr
246,36.432466,-89.691864,E 9th St/US Hwy 61
185,36.598304,-89.545755,Saint Margaret Ln/State Hwy U
160,36.587491,-89.553702,Blomfield Rd
216,36.593312,-89.523812,/2nd St
305,36.639246,-89.543721,/I- 55
246,36.772020,-89.534865,I- 55
246,36.595835,-89.525565,Dawson Rd/1st St
246,36.460274,-89.918241,N Gideon Ave/State Hwy 153
160,36.754909,-89.690033,Washington St/Kennedy St
526,36.422659,-89.702001,Portage Village/S Huffman Ave
160,36.454218,-89.917765,/E 2nd St
185,36.600067,-89.526642,Saint Vincent Dr
445,36.588112,-89.527125,Main St/Virginia Ave
160,36.517776,-89.616975,Demint St/W Main St
160,36.447539,-89.920172,S Main St
185,36.517731,-89.608082,E Main St/Davis St/S Davis St
160,36.570946,-89.957220,Co Rd 524/US Hwy 25
216,36.429589,-89.704867,W 6th St/Le Sieur Ave
160,36.757367,-89.584988,Butler St/S Railroad St
216,36.511779,-89.604303,S Outer Rd
276,36.421265,-89.702000,Portage Village/S Huffman Ave
160,36.598760,-89.537337,Dawson Rd/State Hwy U/I- 55 Lp
185,36.431510,-89.711070,Mc Crate Ave/W 8th St
631,36.422493,-89.702879,Portage Village
160,36.436352,-89.841788,State Hwy B
160,36.484575,-89.639661,US Hwy 61
246,36.847826,-89.688422,Elm St
185,36.512974,-89.612613,W Locust St/Lewis St/Locust St
362,36.518845,-89.600737,I- 55/State Hwy Ee
185,36.553877,-89.765678,/US Hwy 62
246,36.867150,-89.571829,Delta Pine/Auburn Dr
390,36.426972,-89.701999,/N Huffman Ave
334,36.865478,-89.569257,Red Arrow
418,36.759294,-89.537180,State Hwy 80/
276,36.849236,-89.532163,State Hwy Aa
160,36.468093,-89.706122,Co Rd 344
418,36.426467,-89.699380,E 3rd St/King Ave
216,36.439861,-89.673145,Outer Rd/Co Rd 419
276,36.566810,-89.604994,US Hwy 61
160,36.570901,-89.956581,Co Rd 524
185,36.497211,-89.618951,I- 55
185,36.439385,-89.673911,I- 55
246,36.490469,-89.624587,Co Rd 412
160,36.839320,-89.704170,Co Rd 599/US Hwy 60/Co Rd 799
216,36.426928,-89.684617,I- 55
246,36.868783,-89.584088,Alexander Ave/Murray Ln
185,36.865576,-89.555871,/US Hwy 60/Keystone Dr
499,36.424408,-89.693534,State Hwy 162//Haynes Dr
160,36.424550,-89.672823,State Hwy 162/Richland Rd
216,36.759270,-89.587365,N Calvin St/S Calvin St/W Main St
445,36.459304,-89.917643,E Washington St
246,36.596875,-89.543134,Saint Monica Ln/Saint Anne Ln
216,36.455425,-89.919597,E 1st St/Main St/W 1st St
185,36.866897,-89.567291,Geoarge E Day Pkwy/Colonel George E Day Pkwy
334,36.431114,-89.705381,W 7th St Rear
362,36.452091,-89.919206,/E 4th St
185,36.869442,-89.566955,Colonel George E Day Pkwy/County Line Rd
160,36.592739,-89.545105,Saint Lucy Ln
160,36.596000,-89.615494,Main St
216,36.583650,-89.534090,Water St
160,36.750551,-89.583968,S Railroad St
631,36.566032,-89.601588,Laura St
185,36.591275,-89.527209,Main St/Vandenvender Ave
276,36.591520,-89.614227,Lewis Ave
216,36.869411,-89.575286,Stanford Dr
160,36.579556,-89.609996,State Hwy D
216,36.596849,-89.545722,Saint Margaret Ln/Saint Monica Ln
160,36.784678,-89.569731,Co Rd 840/US Hwy 61
216,36.593913,-89.534226,el Camino Ct
246,36.429059,-89.700612,de Lisle Ave
216,36.597045,-89.536865,Blades Dr
185,36.437796,-89.711002,Mc Crate Ave/Robin Ln
390,36.592583,-89.613439,4th St/Dawson Ave
160,36.865301,-89.555930,US Hwy 60
390,36.426444,-89.700596,E 3rd St/de Lisle Ave
246,36.591071,-89.529512,Digges Pl/Mitchell Ave
445,36.430126,-89.703475,Meatte Ave
160,36.591256,-89.522458,Hunt Rd/Vandenvender Ave
185,36.598542,-89.530006,Saint Peter Dr
762,36.425006,-89.695927,State Hwy 162
160,36.598357,-89.632450,/State Hwy D
185,36.869454,-89.555057,/County Line Rd
216,36.589921,-89.612226,/5th St
160,36.829298,-89.577617,Co Rd 806/US Hwy 61
160,36.757067,-89.685598,Garfield/Mc Arthur St
362,36.869180,-89.580820,Murray Ln
418,36.592204,-89.537508,Saint John Ln/Pinnell Ln
185,36.869470,-89.553072,County Line Rd
185,36.855808,-89.582673,US Hwy 60/US Hwy 61
276,36.588377,-89.609832,Ewing St/7th St
185,36.429069,-89.704873,Le Sieur Ave
390,36.567185,-89.599830,Bernice Ave/S Bernice Ave/Francis
185,36.766397,-89.567061,/US Hwy 61
160,36.442353,-89.701856,State Hwy F/Brown Acres Dr
185,36.427533,-89.706465,W 4th St/Mac Arthur Ave
160,36.851161,-89.591016,Larcell Dr
160,36.466446,-89.914928,State Hwy 153/Co Rd 264
390,36.593949,-89.522737,Tennessee Ave
160,36.509225,-89.819321,Second St/Warner St
160,36.863436,-89.571529,Willow Way/Colonel George E Day Pkwy
185,36.468307,-89.701708,Co Rd 344/State Hwy F
160,36.583413,-89.535079,Capitol Blvd/Levee Rd
246,36.589664,-89.543446,I- 55 Lp
216,36.429567,-89.696150,E 6th St
216,36.868987,-89.571106,Pine St/Cambridge Dr
185,36.771429,-89.567793,US Hwy 61
246,36.590221,-89.529486,Broughton Dr/Mitchell Ave
305,36.431538,-89.706452,Macarthur Ave/W 8th St
216,36.861686,-89.596627,Bollweevil Blvd/Cotton Sq Cir/
160,36.731913,-89.445918,Co Rd 714/Co Rd 713
185,36.595838,-89.531690,Greenbriar Dr/Dawson Rd
160,36.511768,-89.612614,Cedar St/US Hwy 61/Lewis St
216,36.435125,-89.706453,Mac Arthur Ave/W 12th St
305,36.593945,-89.523812,Tennessee Ave/2nd St
276,36.586080,-89.536515,Mill St/Crisler St
390,36.586218,-89.527024,Mill St/Main St
185,36.592604,-89.612243,5th St/Dawson Ave
334,36.866120,-89.571615,Clearwater
185,36.724716,-89.560998,/US Hwy 61
185,36.861577,-89.566404,US Hwy 60
185,36.825822,-89.576973,/US Hwy 61
276,36.567785,-89.596627,Young St
160,36.438876,-89.706475,State Hwy 162/Robin Ln
160,36.517890,-89.614308,/Toney St
579,36.566032,-89.601386,/Laura St
246,36.450528,-89.921714,Rhodes Ave/W 6th St
185,36.548180,-89.588503,I- 55
305,36.439072,-89.698175,State Hwy 162
216,36.591470,-89.542167,I- 55 Lp
216,36.553457,-89.821722,W Freeman Ave/Missouri St
160,36.457740,-89.921111,/W Jefferson St
334,36.867137,-89.582657,Prairie Ave
246,36.867794,-89.569799,Bucklin Cir
160,36.425349,-89.711128,Mc Crate Ave/Co Rd 355/W Main St
185,36.869598,-89.526680,Co Rd 408/Co Rd 544
216,36.862179,-89.576348,Daffodil Dr
445,36.865302,-89.603120,Branum St
160,36.868521,-89.560222,S Acres Dr
216,36.432486,-89.706459,Macarthur Ave/W 9th St
246,36.439048,-89.699408,State Hwy 162
445,36.435348,-89.698409,E 12th St/
160,36.591202,-89.521338,Vandenvender Ave
276,36.439050,-89.699324,State Hwy 162/King Ave
160,36.555107,-89.609834,US Hwy 62/US Hwy 61
185,36.841222,-89.677123,US Hwy 60
160,36.605643,-89.538056,/I- 55 Lp
216,36.870048,-89.566996,/S Ingram St
160,36.592070,-89.545116,Saint Helen Ln/Saint Lucy Ln
160,36.854999,-89.660687,/State Hwy 114
445,36.572499,-89.577240,I- 55/I- 55 Lp
305,36.428520,-89.696832,E 5th St
246,36.449776,-89.663995,I- 55
216,36.611770,-89.704113,/State Hwy D
160,36.533352,-89.609712,Co Rd 306/US Hwy 61
160,36.410514,-89.617973,Co Rd 417
276,36.668952,-89.538540,I- 55
216,36.454838,-89.924840,/Harty Ave
418,36.864585,-89.597123,/Cherokee/S West St
216,36.456699,-89.918257,Gideon Ave
334,36.863621,-89.598187,Montgomery St/Apache
160,36.590460,-89.609864,/Charlotte Ave
160,36.737447,-89.606354,State Hwy Ae
276,36.634628,-89.546576,/Co Rd 636
276,36.452019,-89.918042,/E 4th St
160,36.517834,-89.613882,Main St
216,36.449529,-89.918747,6th St/S Gideon Ave
276,36.428005,-89.698317,/Baker Ave
276,36.866752,-89.574862,Stoneville Way/Delta Pine
276,36.435136,-89.705896,W 12th St
160,36.496131,-89.808373,State Hwy 153
216,36.509823,-89.606510,I- 55
334,36.432121,-89.698309,Baker Ave
185,36.751830,-89.584459,S Railroad St/Steel St
185,36.593662,-89.535306,Edwards Dr
160,36.424465,-89.682093,State Hwy 162
160,36.495757,-89.822525,State Hwy 153
160,36.788721,-89.531989,I- 55/Co Rd 820
185,36.435664,-89.688100,Bandy Rd
185,36.508251,-89.819327,Second St/Porter St
526,36.425365,-89.701444,2nd St
390,36.516142,-89.602213,/I- 55
216,36.584609,-89.536526,Crisler St/Old Kingshighway
216,36.597455,-89.611091,4th St/6th St
185,36.517783,-89.609615,Mitchell St/E Main St
160,36.603269,-89.537266,Shawnee St
160,36.517886,-89.615571,de Mint St
216,36.589163,-89.524062,Hunter
160,36.588124,-89.614839,Waring Ave
185,36.589428,-89.608625,Benton St/8th St
246,36.596145,-89.609996,Mooney St/N 7th St/7th St
246,36.572737,-89.576147,I- 55 Lp
160,36.803667,-89.520185,Falcon Dr/State Hwy Aa
390,36.671520,-89.538189,State Hwy P/I- 55
216,36.700791,-89.537965,I- 55
334,36.569563,-89.599840,Bernice Ave/Co Rd 506
246,36.568389,-89.604344,Sanders St
185,36.584405,-89.534033,Lewis St/Old Kingshighway
216,36.430595,-89.698287,E 7th St/Baker Ave
276,36.594560,-89.523828,/2nd St
185,36.754472,-89.537513,/State Hwy V
160,36.759149,-89.552599,State Hwy 80
216,36.772322,-89.534981,I- 55
334,36.592571,-89.534909,Edwards Dr/Pinnell Ln
185,36.598334,-89.617953,Van Buren St
305,36.570359,-89.578270,I- 55
185,36.553520,-89.809596,US Hwy 62/E Freeman Ave
160,36.844195,-89.697546,Levy St/E Front St
362,36.518896,-89.604176,State Hwy Ee
305,36.490355,-89.626401,1st St/2nd St
160,36.591266,-89.522285,Hunt Rd/Vandenvender Ave
160,36.516593,-89.614099,Pecan St/Toney St
185,36.570731,-89.585902,US Hwy 61
160,36.438907,-89.705304,State Hwy 162/Park Ave
160,36.502959,-89.817525,Co Rd 243
246,36.870313,-89.571368,Pine St
160,36.555339,-89.636887,US Hwy 62
276,36.758742,-89.585142,S Railroad St/Shelby
658,36.861881,-89.582328,Col George E Day Pkwy/Colonel George E Day Pkwy
305,36.593183,-89.537769,St Christopher
185,36.446265,-89.701830,State Hwy F
305,36.458170,-89.917631,E Jefferson St
160,36.758610,-89.587300,/S Calvin St
334,36.430673,-89.704855,W 7th St/Le Sieur Ave
160,36.845234,-89.682670,E Beech St
160,36.422684,-89.897684,Co Rd 280/Co Rd 278
445,36.590487,-89.537714,Saint Francis Ln
216,36.464990,-89.649815,I- 55/Co Rd 320
185,36.431548,-89.681795,I- 55
216,36.439227,-89.690373,Compress Rd/State Hwy 162
445,36.751840,-89.537725,I- 55
185,36.453073,-89.917243,Walker Ave/E 3rd St
160,36.495810,-89.808785,State Hwy 153
160,36.597992,-89.616595,Jackson St/State Hwy U
362,36.431553,-89.704847,Le Sieur Ave/W 8th St
160,36.495917,-89.808437,State Hwy 153
276,36.521524,-89.599597,I- 55
160,36.553475,-89.818119,W Freeman Ave/Front St
246,36.867390,-89.595567,W Murray Ln
334,36.862186,-89.580142,Colonel George E Day Pakway
160,36.421869,-89.668963,Kyle Dr
160,36.597973,-89.601838,State Hwy U/Amanda Dr
334,36.762167,-89.538218,/I- 55
362,36.452182,-89.920456,/W 4th St
246,36.514480,-89.602609,I- 55
305,36.669133,-89.573346,McGee St/2nd St
160,36.595183,-89.615405,Baden St/Main St
276,36.583844,-89.529292,Church St/Water St
160,36.515269,-89.591401,Co Rd 403
305,36.589639,-89.528489,Digges Pl/Powell Ave
216,36.553585,-89.787352,US Hwy 62/
246,36.759190,-89.586307,W Main St/N Dean St/S Dean St
445,36.426839,-89.699376,King Ave
160,36.870807,-89.567659,Cambridge Dr
216,36.862581,-89.577884,/Colonel George E Day Pkwy
185,36.611698,-89.703937,State Hwy D
246,36.435363,-89.695264,E 12th St/Lakeview Dr
445,36.585182,-89.616866,Blades Dr
246,36.436246,-89.689341,/US Hwy 61
246,36.589188,-89.536472,Crisler St
160,36.750533,-89.585180,Casey St
160,36.587954,-89.574566,Co Rd 501/Cr 501
216,36.767782,-89.537490,/I- 55
362,36.583758,-89.531140,Water St/Locust St
185,36.593949,-89.525566,1st St/Tennessee Ave
334,36.518841,-89.601046,I- 55/State Hwy Ee
362,36.592582,-89.614277,Dawson Ave
305,36.605226,-89.534204,Sequoyah Ave/Cherokee Cir
579,36.427477,-89.696984,E 4th St
216,36.759234,-89.542561,State Hwy 80/Love's Industrial Dr
160,36.473756,-89.914911,/State Hwy 153
160,36.440560,-89.686420,US Hwy 61
160,36.516593,-89.608082,Pecan St/E Pecan St/S Davis St
334,36.515378,-89.612611,Orchard St/W Orchard St/Lewis St
276,36.568220,-89.598185,Howard St/US Hwy 61
160,36.517758,-89.607365,/E Main St
390,36.452244,-89.921116,Anderson Ave/W 4th St
160,36.603938,-89.450261,Co Rd 404
658,36.592361,-89.536345,St Christopher/Pinnell Ln
390,36.432462,-89.698445,Baker Ave
216,36.454806,-89.923663,Lunbeck Ave
160,36.470997,-89.644414,Co Rd 309
185,36.597109,-89.538141,I- 55 Lp
216,36.857430,-89.578808,US Hwy 60
160,36.618008,-89.519950,State Hwy U
160,36.428355,-89.706455,W 5th St/Macarthur Ave
185,36.756631,-89.688918,Taft St/Harrison St
362,36.588627,-89.538986,Scott St
160,36.483290,-89.645918,la Font/State Hwy F
305,36.756289,-89.537781,I- 55
216,36.771863,-89.534971,I- 55
362,36.460281,-89.919848,State Hwy 162/Ogden Ave
246,36.518420,-89.612617,Lewis St
216,36.586151,-89.618824,Winston Ave/Baehr Rd
276,36.836109,-89.531978,State Hwy Aa
216,36.862180,-89.576528,Daffodil Dr
160,36.862854,-89.601246,Arapahoe Dr
418,36.591526,-89.613465,4th St/Lewis Ave
160,36.446873,-89.682148,US Hwy 61/Co Rd 314
334,36.431115,-89.701962,N Huffman Ave
390,36.518827,-89.602787,State Hwy Ad/State Hwy Ee
445,36.430656,-89.703469,W 7th St/Meatte Ave
246,36.589971,-89.528444,/Riley St/Digges Pl
276,36.843953,-89.634574,US Hwy 60
185,36.593607,-89.612239,5th St/Phillips Ave
305,36.517801,-89.611807,Main St
445,36.425356,-89.699388,E Main St/Main St/King Ave
160,36.489575,-89.626736,Co Rd 307
216,36.431958,-89.690409,/Foster Ave
160,36.856985,-89.579314,/US Hwy 60
185,36.432416,-89.711056,Mc Crate Ave/W 9th St
305,36.580987,-89.555800,Bloomfield Ln
160,36.842301,-89.703753,E Front St
605,36.588919,-89.525511,Line St
362,36.867490,-89.594745,W Murray Ln/Roth St
185,36.427493,-89.704841,W 4th St/Le Sieur Ave
160,36.863624,-89.570051,/Colonel George E Day Pkwy
160,36.757049,-89.686817,Garfield/Main St
160,36.767591,-89.567230,/US Hwy 61
160,36.729797,-89.561728,/US Hwy 61
216,36.862801,-89.576454,Daffodil Dr/Colonel George E Day Pkwy
276,36.585858,-89.570772,I- 55
160,36.762702,-89.590955,Summit St
472,36.436083,-89.708630,Stafford Dr/Florida Ave/St Anthony Butler Dr
185,36.847595,-89.581037,/US Hwy 61
185,36.588386,-89.608596,Ewing St/8th St
160,36.431617,-89.695963,Barnes Ave/E 8th St
305,36.592255,-89.532516,Saint Matthew Ln/Saint Thomas Ln
160,36.851965,-89.535513,Johnson Dr
160,36.447966,-89.920141,/S Main St
160,36.554087,-89.728444,US Hwy 62
418,36.430691,-89.706443,W 7th St/Macarthur Ave
334,36.756371,-89.537784,/I- 55
552,36.589515,-89.525523,Line St/Byrd Dr
334,36.596052,-89.543122,Saint Elizabeth Ln/Saint Anne Ln
216,36.758969,-89.584462,W Main St
185,36.598362,-89.564442,State Hwy U/I- 55
185,36.844138,-89.631947,US Hwy 60/Pharris Ridge Dr
185,36.760035,-89.519745,/State Hwy Aa
160,36.495815,-89.808605,/State Hwy 153
216,36.868067,-89.547126,/Harlene St/Lynual St
160,36.866924,-89.551349,US Hwy 60
631,36.424795,-89.695445,State Hwy 162/Foster Ave
160,36.520805,-89.609626,/Mitchell St
160,36.762948,-89.588850,/Davis St
160,36.613203,-89.814398,E Main St/Mulberry St
185,36.567271,-89.596544,Franklyn Ave
246,36.425947,-89.706483,Macarthur Ave
246,36.862219,-89.572172,Tulip Trce
334,36.511752,-89.607711,/Cedar St
160,36.570958,-89.957389,Co Rd 524
305,36.430119,-89.704861,Le Sieur Ave
160,36.803809,-89.573025,/US Hwy 61
185,36.584451,-89.535055,Capitol Blvd/Old Kingshighway
160,36.468650,-89.658540,US Hwy 61
160,36.553778,-89.772742,US Hwy 62
246,36.432645,-89.700566,E 9th St/de Lisle Ave
160,36.673672,-89.403428,State Hwy P
160,36.567612,-89.609783,/Southfork Rd/State Hwy D
216,36.554875,-89.586010,/Co Rd 305
185,36.845150,-89.686358,E Beech St/N Benton St
160,36.457566,-89.918269,N Gideon Ave
246,36.428001,-89.704859,Le Sieur Ave
185,36.839663,-89.699145,US Hwy 60
788,36.866538,-89.602140,W Murray Ln
276,36.859055,-89.581447,Brunt
160,36.761857,-89.589536,Cove Dr
246,36.578136,-89.574673,I- 55
160,36.596289,-89.615662,Main St/State Hwy D
185,36.460230,-89.921180,State Hwy 162
216,36.582646,-89.548542,Beverly Dr/Old Kingshighway
160,36.612457,-89.814267,S Railroad St/Dixie St
216,36.438991,-89.701885,N Huffman Ave/State Hwy 162/State Hwy F
160,36.432524,-89.694679,E 9th St
