Estimated daily crossings,Latitude,Longitude,Name
445,37.951529,-91.753535,E 10th St
185,38.033950,-91.525840,Vineyard Outer Rd/Johnson Rd
160,38.078251,-91.541383,/Co Rd 1190
246,37.959607,-91.764790,E 19th St/
216,38.031910,-91.530890,Vineyard Outer Rd
185,37.945193,-91.905303,I- 44
160,37.957853,-91.785284,Fraternity Dr/Fraternity Cir
160,37.958604,-91.767221,/E 18th St
160,37.941460,-91.768572,S Olive St/
185,37.951410,-91.740537,/E 10th St
334,38.000311,-91.616383,N Jefferson St
185,37.922428,-91.766839,Lions Club Dr/S Rolla St
185,37.920750,-91.740360,Palmer Ct/County Ridge Rd/Co Rd 5110
305,37.995393,-91.621590,/S Carson St/Helen St
891,37.952336,-91.774068,W 11th St
160,37.938623,-91.745416,Cheswick Ct
276,37.993655,-91.637852,Aviation Blvd/Old Hwy 66
362,37.947808,-91.768595,E 5th St/N Olive St
185,37.909855,-91.790236,/Pvt Drive 7137
334,37.952302,-91.768658,E 11th St
276,37.949943,-91.769950,E 8th St
160,37.967671,-91.713428,Forest Lake Dr
185,38.011146,-91.612237,Amanda Ave
246,37.982007,-91.706320,Co Rd 2170
246,37.959448,-91.792795,Emily Dr/State Hwy E
185,37.942160,-91.748112,Peachtree Ln/Pine Tree Rd
160,37.949687,-91.738705,Lovers Ln/Audubon Pl
472,37.952293,-91.784991,W 11th St
305,37.945542,-91.891370,/Doolittle Outer Rd
246,38.025938,-91.543074,State Rd Kk/State Hwy U
276,37.945545,-91.779527,/N Walker Ave
445,37.931354,-91.778556,S Bishop Ave/Lanning Ln
246,37.916417,-91.971480,/I- 44
499,38.007198,-91.620018,/N Jefferson St
160,38.027402,-91.540096,State Rd Kk/Piazza Rd
658,37.958568,-91.772415,N Bishop Ave
276,37.955375,-91.752518,Forum Dr/Truman Ave
160,37.919222,-91.749118,/Britt Ln
334,38.015204,-91.584559,I- 44
160,37.901968,-91.824846,State Hwy CC
185,37.942375,-91.766607,S Walnut St/State Hwy 72
334,37.946150,-91.770602,W 3rd St/N Elm St/E 3rd St
185,37.935395,-91.867854,Pool Holler Cave Rd
185,37.953999,-91.761905,E 13th St/Holloway St
185,37.945207,-91.906381,/I- 44
499,37.942126,-91.794344,St John's Pkwy/Martin Spring Dr
160,37.967906,-91.713966,/Foliage Ct
160,37.980251,-91.752302,Tony Berg Rd/
216,37.945248,-91.868773,Doolittle Outer Rd
185,37.920329,-91.773327,Silverleaf Ln
246,37.916371,-91.971513,I- 44
185,37.985681,-91.669421,Skyles Rd
865,37.950753,-91.775125,N State St/W 9th St
160,37.921092,-91.969095,I- 44
305,37.985890,-91.675282,Old Hwy 66
246,37.997481,-91.618456,/N Bourbeuse St
160,37.915096,-91.773435,/Little Oaks Rd
160,37.987494,-91.724789,Highpoint Cir
185,37.990797,-91.638379,W Springfield Rd
305,37.960053,-91.758360,Maxwell St
160,37.914338,-91.904084,State St
160,37.931553,-91.773000,/Lanning Ln
160,37.924353,-91.740298,Line Ave/Barnitz Ave
160,37.911249,-91.974356,Co Rd 7560
276,37.957623,-91.777980,I- 44
216,37.994335,-91.612778,S Jefferson St
160,38.021422,-91.608163,Pvt Drive 1022
246,37.938251,-91.832448,I- 44
246,37.983155,-91.695247,Old Hwy 66
334,37.997403,-91.612586,/S Seymour St
160,37.980177,-91.697987,Pvt Rd 3145
160,37.992508,-91.612757,S Meramec St/S Jefferson St
276,37.957443,-91.763982,/Iowa St/Missouri Ave
276,37.945102,-91.891587,I- 44
631,37.955087,-91.783998,W 14th St/W 12th St
160,37.994659,-91.618267,/S Jackson St
160,37.963840,-91.772397,Vichy Rd
305,37.945901,-91.788383,/Gale Dr
160,37.953576,-91.764016,/Iowa St
160,38.020034,-91.624483,Rd 88
160,37.931438,-91.775771,/Lanning Ln
216,37.975102,-91.752518,I- 44
185,37.946995,-91.803289,Sally Rd
334,37.979985,-91.715431,I- 44
305,37.945264,-91.910423,I- 44
362,37.963233,-91.755114,Allyson Ct
160,38.028604,-91.905651,Co Rd 8440
418,37.948396,-91.767579,E 6th St/N Cedar St
276,37.957601,-91.767764,E 17th St/N Olive St
160,38.022973,-91.681954,State Hwy V/Nease Rd
185,37.986982,-91.667390,Old Hwy 66
216,37.987619,-91.660707,/Dillon Outer Dr
216,37.922358,-91.748332,Hwy O
185,37.967355,-91.713314,Forest Lake Dr
160,37.983010,-91.609191,State Hwy 8
246,37.945467,-91.742530,Pilgrim Pl
185,37.930529,-91.785504,/Cedar Grove Rd
160,37.919760,-91.976341,State Hwy D
160,37.929513,-91.768559,S Rolla St
185,37.938899,-91.755997,/State Hwy 72
305,37.964651,-91.751801,/Forum Dr
390,37.996300,-91.613619,E Hardy St/W Hardy St/S Jefferson St
185,37.993763,-91.612773,E Dillon St/S Jefferson St
246,37.916245,-91.971273,I- 44
185,38.010829,-91.605501,Sidney St
160,37.967508,-91.770684,Pvt 8032
185,37.945637,-91.904863,Doolittle Outer Rd
185,37.905836,-91.991928,I- 44
216,37.960172,-91.709124,Pine Forest Dr
216,37.950611,-91.754045,E 9th St/Angus Valley Dr
1200,37.958067,-91.773486,Vichy Rd/N Bishop Ave
160,37.977446,-91.723172,N Outer Dillon Rd
305,37.985445,-91.674039,Dillon Outer Dr
160,37.951648,-91.837778,Co Rd 19
185,37.957034,-91.790632,/Nagogami Rd
160,37.942490,-91.851903,Martin Spring Outer Rd
246,37.983563,-91.687923,Earnie Rd/Dillon Outer Dr
160,38.037850,-91.525920,Johnson Rd/Co Rd 1000
160,37.992089,-91.590771,State Hwy Dd
216,37.997568,-91.630483,Old Hwy 66
160,37.968915,-91.741969,Schrenk Ct/Old St James Rd
160,37.927033,-91.748285,/Hwy O
185,37.921560,-91.748369,Hwy O
160,37.964959,-91.811826,Orchard Hills Dr
605,37.942710,-91.791855,Martin Spring Dr
160,37.943710,-91.939501,Sugartree Outer Rd
185,37.944561,-91.768576,S Olive St/E 1st St/N Olive St
160,38.006784,-91.774838,US Hwy 63
160,37.976767,-91.747865,/Pr Rd 2007
390,37.950273,-91.788939,I- 44
160,37.993624,-91.628926,Sport Club Dr/S Louise Ave/Bass Rd
246,37.993484,-91.638611,Old Hwy 66
185,37.969977,-91.771461,Brook Dr
185,37.944948,-91.858838,I- 44
185,37.940503,-91.778233,Strobach St
185,37.957328,-91.707016,/Meadowview Ln
160,37.919639,-91.969098,I- 44
160,37.994787,-91.625886,W Springfield Rd/Race St
160,37.913318,-91.768657,145B Rd
334,37.959842,-91.793149,State Hwy E
305,37.952317,-91.770521,W 11th St/N Elm St/E 11th St
216,37.945082,-91.852500,/Co Rd 8140
334,37.943438,-91.882896,/Hwy T
185,37.912277,-91.973461,Co Rd 7560
160,37.991165,-91.618625,/E Johnson St
185,37.992274,-91.615854,E Johnson St
160,37.967556,-91.773772,/Woodcrest Cir/Sunshine Dr
160,37.975217,-91.590709,Deer Run Ln/State Hwy 8
185,38.003629,-91.603741,E James Blvd/Red Bird Rd
276,37.955136,-91.743335,Sherman Ave
216,37.945449,-91.764193,Poe Dr/E 2nd St
216,37.987723,-91.660357,/Dillon Outer Dr
305,37.995325,-91.621952,Helen St/Oak St
276,37.924271,-91.743074,Inverness Ln
631,37.944245,-91.787339,/Fairgrounds Rd
185,37.944906,-91.904979,/Eisenhower St
418,37.943844,-91.792212,/I- 44
160,37.998422,-91.619162,N Bourbeuse St
418,37.948380,-91.766578,N Walnut St/E 6th St
185,37.918838,-91.779275,US Hwy 63/Hartville Rd
631,37.941771,-91.777276,/S Bishop Ave
276,37.965988,-91.765114,Bishop Ave/N Bishop Ave
160,37.849222,-91.797785,/US Hwy 63
276,38.008720,-91.606737,St Dennis St/St Ann Ave
390,37.945047,-91.888845,I- 44
185,37.946497,-91.803287,/Sally Rd
216,37.919133,-91.751733,Ella Ct/Britt Ln
185,37.989613,-91.655221,Old Hwy 66
185,37.948255,-91.744401,Old English Rd/Whitney Ln
246,37.965992,-91.757111,/Old St James Rd/Farrar Dr
216,37.941114,-91.755720,Salem Ave/Elliott Dr
216,37.966017,-91.755466,Old St James Rd
160,38.004237,-91.617123,Pershing
160,38.012152,-91.592840,/Industrial Dr
334,37.963681,-91.752393,Forum Dr
185,37.950610,-91.693141,/State Hwy Bb
185,37.933822,-91.752169,Chestnut Dr/McFarland Dr
246,37.955150,-91.779215,W 14th St/Nagogami Ter
160,37.972270,-91.774553,Brook Dr/Lancelot Dr
276,37.941615,-91.769809,Newman Rd
216,37.988485,-91.660095,Old Hwy 66/Magnin Rd
390,37.964673,-91.754937,Lauren Ct
160,37.950635,-91.756365,E 9th St/Ann Dr
160,37.921315,-91.890717,Co Rd 281/Cook St
305,37.968180,-91.772365,/Three Chimneys Rd
160,37.989029,-91.660111,Magnin Rd
185,38.007184,-91.603700,Courtney St/Red Bird Rd
276,37.951431,-91.783801,Asher St/W 10th St
185,37.961687,-91.843022,Pvt Drive 8243/Pr Dr 8243
160,37.940022,-91.878001,/N Patton St
160,37.964870,-91.768649,Savannah Ct
160,37.957419,-91.759061,Martin St/Missouri Ave
305,37.963153,-91.754036,Allyson Ct/Holt Ave
185,38.050606,-91.658508,Sherwood Ln
246,37.996463,-91.610754,S Wishon St/E Scioto St
160,37.922033,-91.722410,/Co Rd 3160
160,37.942064,-91.768558,S Olive St
185,37.993827,-91.632430,James Dr
160,37.856981,-91.798776,/State Hwy W
160,38.017709,-91.587000,/E Springfield Rd
160,37.956629,-91.766632,N Cedar St/E 16th St
160,37.925328,-91.734249,State Hwy 72
160,37.944545,-91.767557,E 1st St/S Cedar St
160,37.995826,-91.617194,/W Washington St/S Bourbeuse St
185,37.941839,-91.739530,Meadow Ct
185,37.979233,-91.770887,/Rd 35
160,37.960149,-91.782415,White Columns Dr
185,38.003078,-91.606747,Jay St/E James Blvd
160,37.915100,-91.772659,/Little Oaks Rd
160,38.004256,-91.720303,Pinedale Dr/Greenfield Dr
216,37.919937,-91.976627,State Hwy D
160,37.994007,-91.615809,W Scioto St/S Bourbeuse St
160,37.920305,-91.715248,Shawnee Hills Dr
160,37.964816,-91.770917,Savannah Ct/Rd 35
185,37.949022,-91.754410,Grandsir Ave/Highland Dr
579,37.948381,-91.771554,/W 6th St/N Pine St
160,38.034233,-91.646061,N Hwy 68
276,37.945188,-91.743692,Fox Creek Rd/Whitehall Rd
160,37.921191,-91.741484,Palmer Ct
160,37.921676,-91.899026,Main St
216,37.985851,-91.669423,Skyles Rd
216,38.011146,-91.611165,Benjamin Blvd
160,37.835118,-91.796995,Mc Kimmey Rd/US Hwy 63
185,37.935414,-91.748554,State Hwy 72/McFarland Dr
216,37.961953,-91.764547,I- 44
160,37.931858,-91.748033,Hwy O
160,38.003454,-91.628338,N Charles Ave
160,37.867615,-92.018644,Clementine Outer Rd/State Hwy J/Z Hwy
185,37.922484,-91.748326,/Hwy O
216,37.954836,-91.762763,High St/E 14th St
160,37.879964,-91.896606,/State Hwy 2
185,37.973254,-91.758787,/Old Hwy 66
305,37.986026,-91.674223,/Old Hwy 66
185,37.919420,-91.975792,State Hwy D
276,37.904927,-91.760847,/Jenna Ln
246,37.938082,-91.800980,/Blues Lake Pkwy
917,37.947360,-91.776926,Kingshighway
160,37.910788,-91.702179,/State Hwy F
160,37.947206,-91.761440,Cronin Ct
160,37.962065,-91.843616,Pvt Drive 8243/Pr Dr 8243
160,37.962113,-91.757116,/Farrar Dr
216,37.944474,-91.859223,Eisenhower St/Co Rd 7100
185,38.013982,-91.623615,/N Hwy 68
216,37.976776,-91.745391,/Co Rd 2000
216,37.980575,-91.709180,Dillon Outer Dr
362,38.000177,-91.616310,N Jefferson St
445,37.941830,-91.795614,Martin Spring Dr
160,37.970549,-91.708697,Lakeview Cir
185,37.918145,-91.970643,I- 44
160,37.989327,-91.637458,Jana Ln
160,37.942480,-91.872287,Eisenhower St/
160,37.901964,-91.825549,State Hwy CC/
216,37.949744,-91.789162,I- 44
605,37.953161,-91.769529,E 12th St/N Oak St
160,37.944239,-91.760183,/Bulman Dr/Soest Rd
334,37.936241,-91.777483,/S Bishop Ave
246,37.970086,-91.753561,/Young St/Tenbrink Dr
160,37.890983,-91.796331,/Co Rd 7145
813,37.949940,-91.771510,N Pine St/W 8th St
160,37.931560,-91.774100,Lanning Ln
185,37.945405,-91.777360,W 2nd St/N Bishop Ave
185,37.957314,-91.790882,Nagogami Rd
305,38.003553,-91.619396,Pershing/Grover St
160,37.962113,-91.753305,Lajolla Ct/Tory Ave
185,37.987131,-91.669382,Kruse Rd
160,38.022062,-91.580517,/Co Rd 122
246,37.944169,-91.778001,S Spilman Ave/N Spilman Ave/Black St
160,37.942330,-91.941129,I- 44/Sugartree Outer Rd
362,37.963154,-91.754349,Allyson Ct
185,37.979949,-91.720872,Old Hwy 66
246,37.980790,-91.712520,Old Hwy 66
160,37.946401,-91.883595,Doolittle Outer Rd/Hwy T
552,37.932581,-91.778271,/S Bishop Ave
185,37.875141,-92.016548,/I- 44
185,37.994100,-91.637963,Aviation Blvd
185,38.007027,-91.624357,Parker Ln
185,37.986998,-91.650916,/Forrest Grove Rd
246,37.946176,-91.773419,/W 3rd St
185,37.952311,-91.764011,Iowa St/E 11th St
160,37.956541,-91.758139,Heller St/Arkansas Ave
185,37.958954,-91.713713,/Pine Forest Dr
160,37.816521,-91.692267,State Hwy 72
160,38.009972,-91.590942,Industrial Dr
216,38.033743,-91.525888,I- 44
160,37.984810,-91.683165,/Old Hwy 66
185,37.935716,-91.771197,S Rolla St
160,38.017552,-91.580579,Co Rd 122
472,37.947769,-91.774582,W 5th St/Park St
276,37.944307,-91.908484,Outer Rd/Eisenhower St
246,37.953219,-91.780250,Poole Ave/W 12th St
160,38.003271,-91.605685,Celia St/E James Blvd
390,37.995081,-91.631106,/Old Hwy 66
185,37.937396,-91.748015,Scottsvale Dr/Pine Tree Rd
160,37.991446,-91.647994,Pvt Drive 2292/
160,37.903956,-91.722947,/State Hwy 72
185,37.924744,-91.762397,Brady Dr
160,37.957308,-91.753226,Woodlawn Ct
185,37.927694,-91.756946,Cypress Dr/Sycamore Dr
246,37.943082,-91.748107,Dogwood Ln/Pine Tree Rd
631,37.942982,-91.790995,/Martin Spring Dr
160,37.937827,-91.771195,S Rolla St
160,37.957359,-91.752513,Woodlawn Dr/Forum Dr/Woodlawn Ct
185,37.924288,-91.755891,Carriage Ln/Ironhorse Dr
185,37.948186,-91.738726,Lovers Ln/Kensington Pkwy
185,37.994232,-91.617923,W Hardy St/S Jackson St
185,38.013614,-91.623412,N Hwy 68
160,37.936332,-91.761906,Oxford Dr/Southview Dr
185,37.953188,-91.753869,Homelife Plz
390,38.004764,-91.618865,N Jefferson St/I- 44
160,37.954449,-91.745171,Independence Rd
362,37.951425,-91.785396,W 10th St
526,37.943294,-91.789365,/Bridge School Rd/Kingshighway/I- 44 Bus
185,38.007233,-91.606700,St Dennis St/Courtney St
246,37.974481,-91.754725,I- 44
390,37.946388,-91.774599,Park St
160,38.028704,-91.606839,Rd 112
160,37.976370,-91.763497,/Rd 34A
216,37.933120,-91.746040,Donald Dr/Commercial Dr
305,37.948407,-91.768598,E 6th St/N Olive St
305,37.935139,-91.747224,/State Hwy 72
160,37.968576,-91.633223,State Hwy Bb
160,37.976739,-91.587045,/Co Rd 3480
160,37.941493,-91.768836,Newman Rd
160,37.938107,-91.823770,Martin Springs Dr
160,38.006343,-91.608731,Kyle St/St Marcus Ave
445,37.956689,-91.773476,Vichy Rd/W 16th St
276,37.945627,-91.762181,Holloway St/Salem Ave
579,37.960613,-91.766189,N Bishop Ave
390,37.958730,-91.782446,White Columns Dr/International Village Dr/Collegiate Blvd
160,37.921989,-91.898794,Main St
160,37.962845,-91.737440,Thompson Dr/Miles St
185,37.957423,-91.760868,Spencer St/Missouri Ave
185,37.931767,-91.759925,Laurel Dr
160,37.941489,-91.746454,Peachtree Ln/Redbud Ln
185,37.942687,-91.852279,Martin Spring Outer Rd
246,37.949631,-91.741355,Insbrook Dr
334,37.955951,-91.780227,Nagogami Ct
160,37.925564,-91.743413,Inverness Ln/Huntleigh Dr
160,37.962819,-91.736584,Thompson Dr/Davidson St
160,37.981902,-91.721071,Hy Point Blvd/Hy Point Industrial Dr
160,37.924562,-91.780039,Cottonwood Dr/S Bishop Ave
216,37.957869,-91.761164,/E 18th St
160,37.996509,-91.622972,W James Blvd/Oak St
2114,37.955136,-91.773877,W 14th St
185,37.940499,-91.878017,Eisenhower St/N Patton St
445,37.944759,-91.783859,Julienne St/I- 44 Bus
160,37.924702,-91.780010,/S Bishop Ave
185,37.921615,-91.970901,High St
160,37.964596,-91.811988,Orchard Hills Dr/State Hwy Y
185,37.913152,-91.973590,I- 44
276,37.958582,-91.769441,/E 18th St
472,37.957135,-91.776491,Watts Dr
246,37.893352,-92.010767,I- 44
185,37.710166,-91.867785,Old Hwy 63
917,37.944238,-91.785675,I- 44 Bus
216,37.971226,-91.758005,I- 44
216,37.945279,-91.911725,I- 44
160,37.964954,-91.812236,State Hwy Y
334,37.949945,-91.768585,E 8th St/N Olive St
185,37.955380,-91.532821,Maramec Spring Dr
185,37.984075,-91.688677,Old Hwy 66
362,37.943921,-91.792462,/I- 44
334,37.952300,-91.781790,W 11th St/Powell Ave
160,37.913574,-91.768654,/145B Rd
160,38.010691,-91.587288,/E James Blvd
418,37.944240,-91.883186,Hwy T
185,37.941044,-91.803292,Sally Rd
216,37.918141,-91.970035,I- 44
216,37.913407,-91.902095,/Ally Post Office
185,37.969961,-91.742254,Red Oak Dr
160,37.898322,-91.784362,/US Hwy 63
185,37.912662,-91.973156,/Co Rd 7560
526,37.957036,-91.775820,N Bishop Ave
334,38.015242,-91.624438,N Hwy 68/Pvt Drive 1021
160,37.956638,-91.766048,/E 16th St
305,38.014794,-91.624107,N Hwy 68
216,37.966117,-91.757091,/Twitty Dr
160,38.002672,-91.603941,E Springfield Rd/Red Bird Rd
216,38.000830,-91.619118,N Meramec St/
160,37.977731,-91.723639,/I- 44
160,37.935249,-91.755689,Hampton Ct/Halifax Dr
246,37.995110,-91.624271,Clayton St/W Springfield Rd
160,37.946695,-91.787319,Fairgrounds Rd
160,37.947781,-91.760150,E 5th St/Woodland Dr
160,37.918406,-91.970526,I- 44
390,37.937744,-91.777350,S Bishop Ave
160,37.942387,-91.768551,S Olive St/State Hwy 72
160,38.052540,-91.779739,Rosenburg Rd
160,37.962900,-91.770796,Fairburn Dr/Rd 35
362,37.995838,-91.613259,/S Jefferson St
160,37.943810,-91.799962,Yale Ave/Harvard Ave
216,37.944476,-91.859408,Eisenhower St
216,37.998257,-91.629476,N Louise Ave/N Outer Rd
390,38.006124,-91.616630,I- 44
185,37.987296,-91.664342,I- 44
160,37.932125,-91.755942,Cedar Hill Ct/Sycamore Dr
472,37.943760,-91.787352,Fairgrounds Rd/I- 44 Bus
185,37.976772,-91.770935,/Rd 35
160,37.987113,-91.726165,Reagan Dr/
185,37.958570,-91.764361,E 18th St/Sharp Rd
216,37.930905,-91.748663,Winchester Dr/Avon Ct
276,37.940460,-91.777295,Williams Rd/S Bishop Ave/Strobach St
185,38.004971,-91.613574,Home Dr
246,37.955650,-91.764006,Iowa St/Gulf Ave
185,37.944294,-91.937293,/Co Rd 8490
160,37.993849,-91.628937,S Louise Ave
276,37.942414,-91.774127,State Hwy 72/Southbrook Dr
334,37.947756,-91.773596,W 5th St/N Main St
160,37.945544,-91.919532,I- 44
1097,37.956049,-91.771114,/N Pine St
185,37.942844,-91.877870,Schofer St/N Patton St/Rd 7280
160,37.967160,-91.778168,Woodcrest Cir
185,37.978723,-91.718981,/Hy Point Industrial Dr
160,38.004301,-91.613782,/Home Dr
276,37.936107,-91.771745,Christy Dr/Colonial Rd
216,37.995938,-91.622824,/Oak St
334,37.955298,-91.763083,Ozark St
160,37.963624,-91.772386,/Vichy Rd
246,37.946960,-91.769617,E 4th St/N Oak St
185,37.944457,-91.901005,/Eisenhower St
839,37.940272,-91.803240,Martin Spring Outer Rd/Martin Spring Dr
526,37.956653,-91.775498,State St
160,37.962852,-91.737663,/Thompson Dr
160,37.950469,-91.888831,Mount Olive Rd/
216,37.952797,-91.764015,Iowa St
160,37.935507,-91.833998,Martin Spring Outer Rd
160,37.926730,-91.760690,Oak Knoll Rd/Southview Dr
216,37.942892,-91.939407,I- 44
185,37.919985,-91.968877,/Arlington Outer Rd/I- 44
185,38.011114,-91.598925,/Industrial Dr
216,37.999705,-91.620148,Florine St/N Bourbeuse St
160,37.936891,-91.746607,Curtis Dr
160,37.938964,-91.925419,/Outer Rd
160,37.856985,-91.799594,State Hwy W
185,37.867038,-92.022612,I- 44
216,37.954159,-91.780213,Poole Ave/W 13th St
445,37.999376,-91.615875,W James Blvd/N Jefferson St/E James Blvd
526,37.955175,-91.769998,N Elm St/E 14th St
246,37.986714,-91.669383,Old Hwy 66/Kruse Rd
276,38.027118,-91.542177,I- 44
334,37.964517,-91.751852,/Forum Dr
472,37.953172,-91.770539,E 12th St/N Elm St/W 12th St
684,37.955175,-91.770483,W 14th St/N Elm St/E 14th St
305,37.946227,-91.789720,Howard Johnson Dr
160,37.959310,-91.752505,Forum Dr/E 18th St
276,37.952310,-91.769566,N Oak St/E 11th St
839,37.949157,-91.771514,W 7th St/N Pine St
160,37.951012,-91.841698,Co Rd 19/Co Rd 18
185,38.007209,-91.604661,St David St/Courtney St
160,37.951390,-91.738675,Lovers Ln/E 10th St/Stoltz Dr
185,37.943670,-91.765752,Rolla Gardens Dr
216,37.945418,-91.906998,I- 44
216,37.955414,-91.532743,Maramec Spring Dr
216,37.982708,-91.721056,Hy Point Blvd/Center Dr
216,37.954862,-91.766112,Bardsley Rd/E 14th St
390,37.995751,-91.621135,W Springfield Rd/N Carson St
160,37.920381,-91.899115,Main St
216,37.945270,-91.870247,Doolittle Outer Rd/
276,37.872416,-92.017625,/N Outer Rd
418,37.955175,-91.769518,N Oak St/E 14th St
185,38.007166,-91.612250,Walters Ave/St Ann Ave
160,37.987492,-91.724657,/Highpoint Cir
246,38.026591,-91.543484,State Hwy U/I- 44
160,37.970442,-91.708843,Lakeview Cir
216,37.942003,-91.762265,State Hwy 72/Green Acres Dr
185,37.986860,-91.664177,/Dillon Outer Dr
334,37.946259,-91.775595,Beech St
160,37.939236,-91.883858,/Bauman Dr
185,37.978253,-91.740866,/Old Hwy 66
276,37.944753,-91.877816,N Patton St
185,37.943324,-91.853448,/Martin Spring Outer Rd
160,38.009752,-91.601302,/Industrial Dr
160,37.964852,-91.734625,Nolte Ct
276,37.983802,-91.686140,Dillon Outer Dr
246,37.980193,-91.712055,Dillon Outer Dr
160,37.946194,-91.768614,N Olive St/E 3rd St
216,37.976119,-91.748077,Pr Rd 2007
499,37.946280,-91.779282,/I- 44 Bus
160,37.710962,-91.867785,Old Hwy 63
216,37.950292,-91.741343,Insbrook Dr/Wakefield Dr
160,37.912761,-91.741473,Cinnamon Ct
246,37.957604,-91.768869,E 17th St/N Oak St
185,37.963044,-91.761075,Old St James Rd
390,37.943387,-91.798348,Columbia Ave
185,37.955998,-91.743853,Washington Ave/Lincoln Ln
185,37.970073,-91.742523,Red Oak Dr/Oak Forest Dr
216,37.933992,-91.747237,Republic Dr
334,37.935723,-91.772412,Christy Dr/Colonial Rd
216,37.957871,-91.760878,/Spencer St/E 18th St
246,37.992531,-91.642654,Old Hwy 66
216,37.987075,-91.662998,/Dillon Outer Dr
185,37.944581,-91.770579,S Elm St/E 1st St/N Elm St/W 1st St
160,37.960143,-91.690303,/Wilmina Rd
160,37.940621,-91.782889,Strobach St
216,37.997747,-91.616729,N Meramec St/W Eldon St
185,37.934590,-91.752228,Sydney Ct/McFarland Dr
185,37.944626,-91.775210,/State St/W 1st St
160,37.914240,-91.902702,W 2nd St/Main St/E 2nd St
216,38.003492,-91.621662,N Outer Rd
160,37.943222,-91.812437,Co Rd 22
499,37.954447,-91.783866,Duane Ave/W 12th St
185,37.920087,-91.977688,Pvt Drive 9002
160,37.943647,-91.760752,Gene Dr
160,38.017759,-91.586771,/E Springfield Rd
185,37.919447,-91.779579,/US Hwy 63
1020,37.951510,-91.777136,W 10th St/N Bishop Ave
334,37.950094,-91.788088,/W 9th St/Bray Ave
390,37.995331,-91.629627,N Louise Ave/Old Hwy 66/S Louise St
160,37.958589,-91.768331,/E 18th St
160,37.955076,-91.787989,Nagogami Rd/Fraternity Cir
160,37.912681,-91.741474,Cinnamon Ct
160,37.965549,-91.716663,Co Rd 3040
246,37.993356,-91.625206,W Washington St/Elm St
185,37.948263,-91.746565,S Murry Ln/Whitney Ln
334,38.001175,-91.625062,N Outer Rd
216,37.986654,-91.668550,I- 44
160,37.933834,-91.712299,Timberline Dr
1252,37.953378,-91.777095,N Bishop Ave
185,37.967455,-91.770908,Pvt 8032/Rd 35
276,37.942654,-91.845896,I- 44
579,37.940009,-91.777301,/S Bishop Ave
185,37.931510,-91.774807,Lanning Ln
185,38.050884,-91.657775,/N Hwy 68
445,37.946019,-91.774595,Park St/
160,37.945894,-91.777370,N Bishop Ave
160,37.974847,-91.582642,Co Rd 3480
160,37.880941,-92.022466,Becker Rd
276,37.955664,-91.761971,Holloway St/Gulf Ave
276,37.945548,-91.891589,Doolittle Outer Rd
160,37.950028,-91.694718,Summerfield Dr
390,37.952311,-91.765291,E 11th St/Maple St
526,37.952357,-91.775099,N State St/W 11th St
390,37.951526,-91.748011,/E 10th St/McCutchen Dr
160,38.004661,-91.603729,Red Bird Rd
160,37.969942,-91.709523,/Lakeview Cir
246,37.953686,-91.780231,/Poole Ave
185,37.989734,-91.946999,/Sugar Tree Rd
865,37.938100,-91.779756,/George St
216,37.984666,-91.684185,Old Hwy 66
499,37.946574,-91.778605,/I- 44 Bus
1329,37.953255,-91.777097,N Bishop Ave/W 12th St
185,37.944515,-91.775213,State St/
216,37.947773,-91.789987,I- 44
246,37.958689,-91.784779,Fraternity Dr/International Village Dr
185,37.940121,-91.746503,Curtis Dr/Richard Dr/Redbud Ln
216,37.912715,-91.902391,Water St
160,37.967073,-91.773976,Sunshine Dr
160,37.913433,-91.903371,E 1st St/Main St/W 1st St
160,37.773874,-91.853454,Yancy Rd/USFS Rd 1532
185,38.008297,-91.612398,/State Hwy B
185,37.959781,-91.711241,Lakemont Dr/Pine Forest Dr
185,37.958962,-91.713998,/Pine Forest Dr
185,37.960627,-91.709906,Pine Forest Dr/Conifer Cir
185,37.967252,-91.773457,Rd 28
160,37.942646,-91.760091,Frost Dr
160,37.917460,-91.764768,Robyn Leann Dr
160,37.949753,-91.752602,Forum Dr
185,37.967900,-91.756747,Research Dr/Twitty Dr
216,37.944952,-91.859271,I- 44
390,37.962447,-91.765591,/N Bishop Ave
334,37.958588,-91.770002,E 18th St/N Elm St/W 18th St
160,37.955921,-91.753860,/Homelife Plz
2009,37.955179,-91.771480,W 14th St/N Pine St
160,37.957755,-91.553302,State Hwy 8
185,37.993760,-91.611227,E Dillon St
185,37.945188,-91.904858,I- 44
160,37.963964,-91.774935,Valli-Hi Ave/Marlette St
305,37.943089,-91.769572,S Oak St/Phelps Ave
246,37.993935,-91.634981,S Outer Rd
334,38.015321,-91.624235,Pvt Drive 1021
185,37.981065,-91.583636,/Co Rd 127
160,38.017121,-91.580413,I- 44
334,37.996745,-91.613980,/S Jefferson St
160,37.931088,-91.752869,Mimosa Ct/Sycamore Dr
160,37.927283,-91.755194,Eagle Wing
160,37.983770,-91.782211,/Rd 28
684,37.947997,-91.777350,N Bishop Ave
185,37.890138,-92.013808,/N Outer Rd
160,37.909252,-91.774939,/US Hwy 63
246,37.915785,-91.764634,Thomas Dr/Dana Renee Dr
362,38.004305,-91.618655,/N Jefferson St
160,37.946548,-91.859497,Doolittle Outer Rd
216,37.984699,-91.683952,Old Hwy 66
160,37.971103,-91.760118,/Co Rd 39
185,37.995908,-91.629629,/N Louise Ave
185,38.007302,-91.607683,St Richard St/Courtney St
216,37.992544,-91.634275,W Springfield Rd
246,37.945313,-91.865593,Doolittle Outer Rd
185,37.958064,-91.747961,Eastwood Dr/McCutchen Dr
160,37.997466,-91.605830,E Scioto St
362,37.957693,-91.776721,Watts Dr
160,38.012243,-91.595682,I- 44
160,37.834568,-91.796996,US Hwy 63
160,37.988801,-91.637439,Kent Dr/Jana Ln
216,38.025561,-91.544552,State Rd Kk
160,37.980379,-91.744718,Co Rd 2020
160,37.944550,-91.766597,E 1st St/N Walnut St/S Walnut St
246,37.868250,-92.019434,/State Hwy J
246,37.965696,-91.697409,/Country Club Dr
185,37.982294,-91.706323,Co Rd 2170
160,37.949902,-91.706592,Vineyard Dr
276,37.944107,-91.793086,/Old Wire Outer Rd
390,37.995215,-91.630315,Old Hwy 66
160,37.921060,-91.714780,/Shawnee Hills Dr
160,37.919082,-91.748421,/Hwy O
246,37.944757,-91.902901,Eisenhower St/
185,37.941731,-91.752744,Leonard Dr
216,38.003159,-91.619198,Grover St
813,37.951445,-91.766699,/Bb Hwy
160,37.953171,-91.764019,E 12th St/Iowa St
160,37.945927,-91.787337,Gale Dr/Fairgrounds Rd
418,38.007014,-91.620575,Parker Ln
160,37.922188,-91.798372,State Hwy CC/
160,37.959101,-91.736079,/Butler Cir
216,37.992314,-91.635203,W Springfield Rd/Cornick Dr
185,37.940892,-91.746455,Viburnum Ln/Redbud Ln
472,37.957616,-91.769988,E 17th St/W 17th St/N Elm St
160,38.079885,-91.631810,Rd 90
160,37.930149,-91.768832,Lariat Ln/S Rolla St
185,37.972889,-91.770895,Rd 35
246,37.706236,-91.868829,/US Hwy 63
276,37.966883,-91.772552,Roseglade Rd/Three Chimneys Rd
160,38.010519,-91.774483,/Rd 37 A
160,37.955209,-91.698656,William's Pl
160,37.999841,-91.622118,N Jackson St/Evergreen St
185,37.916617,-91.777824,US Hwy 63
160,37.933725,-91.882130,/Lee St
160,37.920535,-91.902263,Sycamore St/Ash
160,37.994450,-91.619958,W Washington St/S Carson St
246,37.951445,-91.743410,E 10th St
246,37.969111,-91.772360,Three Chimneys Rd
160,37.921647,-91.898959,/Main St
334,37.959386,-91.765503,/N Walnut St
160,37.930394,-91.771694,Gregory St
160,37.716180,-91.867419,US Hwy 63
160,37.926694,-91.760333,Oak Knoll Rd/Country Ln
216,37.945294,-91.779510,N Walker Ave
160,37.966827,-91.731755,Fossil Ct
160,38.081254,-91.553369,/Allsup Rd
160,38.010242,-91.626597,Matlock Dr
216,37.983387,-91.693550,Old Hwy 66
185,37.945432,-91.875633,Doolittle Outer Rd
185,37.962088,-91.754029,Holt Ave/Tory Ave
246,38.000436,-91.626207,N Outer Rd
216,37.943702,-91.783293,/Lynwood Dr
160,37.939925,-91.782639,Clemens Ave/Edith Ave
276,37.981050,-91.705799,/Dillon Outer Dr
160,37.901013,-91.782537,US Hwy 63
160,38.028548,-91.638088,/N Hwy 68
276,37.950679,-91.769656,E 9th St
160,37.866955,-92.022763,I- 44
579,37.953182,-91.771491,N Pine St/W 12th St
499,37.945710,-91.778785,/N Spilman Ave
185,37.985083,-91.676765,/Dillon Outer Dr
185,38.036015,-91.784459,Rd 29
246,37.981378,-91.708189,/Old Hwy 66
160,38.002874,-91.617787,/N Jefferson St
185,37.957823,-91.877472,Co Rd 14/Dillon Dr
185,37.944841,-91.867444,/I- 44
185,37.919981,-91.767176,Short St/Ann Lee Dr
160,37.922223,-91.797415,State Hwy CC/
710,37.959365,-91.779675,Collegiate Blvd
160,37.994074,-91.628494,W Springfield Rd
246,37.930584,-91.779380,/Alpi Dr
160,38.010141,-91.627082,Matlock Dr
160,37.950960,-91.738686,/Lovers Ln
334,37.956557,-91.763071,Ozark St/Arkansas Ave
185,37.970282,-91.742821,Red Oak Dr
185,37.921025,-91.971827,Arlington Outer Rd
160,37.904678,-91.898231,/State Hwy 2
160,37.945780,-91.803271,Sally Rd
185,37.937944,-91.750075,Johnson St/Laird Ave
216,38.033200,-91.525870,State Rd Kk/Hwy Kk
160,37.981821,-91.699526,Pvt Rd 3145
160,37.936024,-91.625156,Co Rd 3410/Zion Hill Rd
216,37.944512,-91.863497,Eisenhower St
246,37.952138,-91.738671,/Stoltz Dr
216,37.943083,-91.766610,S Walnut St/Phelps Ave
185,37.955719,-91.781270,/Nagogami Rd
472,37.942827,-91.777274,/S Bishop Ave
246,37.975616,-91.879735,/Ridge Rd
1149,37.953750,-91.777098,/N Bishop Ave
216,37.958379,-91.710477,Pine Lake Dr
160,37.990300,-91.652171,Old Hwy 66
276,38.007124,-91.615635,/State Hwy B
362,37.953620,-91.767037,Bardsley Rd
160,37.932094,-91.783149,/Lanning Ln
160,38.021480,-91.621950,1021/Co Rd 1020
160,37.970051,-91.739097,Oak Forest Dr
216,38.023120,-91.559832,/State Rd Kk
185,37.943980,-91.798889,Yale Ave
185,37.944628,-91.775297,/W 1st St
276,38.014662,-91.624021,N Hwy 68
216,37.921493,-91.779406,/Keeton Rd
246,37.945717,-91.759390,Crabapple Ln
185,37.945404,-91.904860,I- 44
390,37.956696,-91.779855,/I- 44
160,38.007877,-91.736056,Co Rd 2038
160,37.951772,-91.569510,Garret Rd
276,37.929917,-91.778874,S Bishop Ave
276,37.980868,-91.706316,Country Club Rd
246,37.938109,-91.748019,Pine Tree Rd/Waterford Ct
160,37.981919,-91.699538,Dillon Outer Dr/Pvt Rd 3145
185,37.940695,-91.804624,/Old Wire Outer Rd
160,37.947474,-91.760070,Holloway St/Woodland Dr
185,37.923938,-91.766777,S Rolla St/Becca Dr
185,37.940569,-91.759380,Elmwood Dr/State Hwy 72
185,38.051421,-91.658267,Sherwood Ln/E County Line Rd
160,37.963801,-91.748868,/California Dr
246,37.945350,-91.771638,N Pine St/W 2nd St
185,37.995555,-91.628439,Charles Ave/Old Hwy 66
160,37.972948,-91.877289,Pvt 8178
160,37.856997,-91.798232,State Hwy W/Pvt Drive 5204/US Hwy 63
185,37.964164,-91.746172,Dennie Ct/College Hills Dr/Harris Ct
334,37.942418,-91.773110,State Hwy 72/Southbrook Dr
160,37.961125,-91.757123,Tory Ave/Farrar Dr
160,37.992794,-91.612965,/S Meramec St
160,38.009385,-91.618356,/Sidney St
276,37.983527,-91.692527,Old Hwy 66
160,37.945051,-91.868322,I- 44
362,38.006185,-91.616505,/I- 44
160,37.702152,-91.869905,Walnut St
334,37.946975,-91.773585,/W 4th St/N Main St
185,37.918254,-91.969965,I- 44
631,37.956925,-91.785265,Fraternity Dr
160,37.927195,-91.735825,/State Hwy 72
526,37.960856,-91.766019,N Bishop Ave
160,37.945367,-91.857208,Co Rd 8140
160,37.936460,-91.753749,Newcastle Ct/Newcastle Dr/Halifax Dr
160,37.996183,-91.624899,/W James Blvd
160,37.915679,-91.904494,Ally/High St
160,37.996216,-91.624704,W James Blvd/Clayton St
160,37.924953,-91.754505,/Carriage Ln
631,37.957756,-91.770999,N Pine St
216,37.975733,-91.747749,I- 44
160,38.052487,-91.778984,/Rosenburg Rd
418,37.938638,-91.776840,Fort Wyman Rd
185,38.011968,-91.603706,State Hwy B
865,37.944915,-91.784893,Julienne St/Juliene St
276,37.953695,-91.781777,/Powell Ave
216,37.986071,-91.669451,Dillon Outer Dr/Skyles Rd
160,37.944601,-91.738778,Lovers Ln/Ashwood Dr
216,37.964021,-91.770859,Rd 35
160,38.000444,-91.614888,/N Seymour St
160,37.988976,-91.655114,Dillon Outer Dr
160,37.901482,-92.006426,N Outer Rd
160,37.948261,-91.745593,Whitney Ln/Greentree Rd
684,37.955907,-91.769983,N Elm St/W 15th St
160,37.997568,-91.604476,E Scioto St
334,37.941366,-91.797553,/Martin Spring Dr
185,37.965656,-91.746983,Jackling Ct
334,37.985558,-91.674648,I- 44
710,37.951528,-91.753023,E 10th St/Hauck Dr
160,37.895039,-91.783563,Point Bluff Rd/US Hwy 63
246,37.940569,-91.751111,Laird Ave
216,37.944614,-91.902071,Eisenhower St/
579,37.932502,-91.778289,S Bishop Ave/Houston Rd
160,37.827810,-91.861148,Vessie Rd
160,37.931531,-91.770957,Lanning Ln
246,37.954195,-91.752427,Forum Dr
160,37.942109,-91.873376,Eisenhower St
160,37.825403,-91.698221,State Hwy 72
160,37.958305,-91.859017,Roach Church Rd
185,37.702977,-91.864549,Oak St/Locust St
185,37.962096,-91.753889,Tory Ave
552,37.953115,-91.772559,N Rolla St/W 12th St
710,37.949939,-91.772568,N Rolla St/W 8th St
185,37.911592,-91.745941,Ginger Ln
185,37.945722,-91.772618,N Rolla St/
160,37.947684,-91.682160,/Hunters Ridge
185,37.929062,-91.762221,Oak Knoll Rd/Southview Dr
216,37.997175,-91.614319,E Washington St/W Washington St/S Jefferson St
334,37.958596,-91.770874,N Pine St/W 18th St
160,37.976669,-91.720042,Old Saint James Rd
160,37.964111,-91.743323,Barley Ct/Parker Ct/College Hills Dr
1097,37.954180,-91.777726,/W 13th St
160,37.968618,-91.741934,Schrenk Ct
246,37.954827,-91.761889,Holloway St/E 14th St
160,38.011061,-91.706222,/Turner Rd
160,37.985845,-91.612608,S Jefferson St/State Hwy 8
276,37.954131,-91.781773,Powell Ave/W 13th St
499,37.950357,-91.761932,E 9th St/Holloway St
216,37.993325,-91.639301,Old Hwy 66
160,37.973349,-91.770896,/Rd 35
362,37.945601,-91.774634,/Park St
246,38.031941,-91.530321,I- 44
185,37.971038,-91.761196,Rd 34A/Co Rd 39/Bishop Ave/US Hwy 63
160,37.997314,-91.620185,N Jackson St/W James Blvd
160,38.080364,-91.553881,/Allsup Rd
276,37.998643,-91.617447,N Meramec St/W James Blvd
160,37.956282,-91.750219,Pershing Dr/Hillview Dr
390,37.959069,-91.768897,N Oak St
246,37.985686,-91.676779,Old Hwy 66
418,37.953135,-91.765291,E 12th St/Maple St
160,37.967861,-91.773906,Anita Dr
185,38.011831,-91.622472,/N Hwy 68
246,37.914162,-91.745963,Bay Leaf Ln
185,37.921112,-91.780143,US Hwy 63
185,37.908515,-91.984172,I- 44
276,37.945281,-91.891588,I- 44
185,37.875098,-92.016303,/I- 44
276,37.941560,-91.797750,I- 44
526,37.944865,-91.783492,/I- 44 Bus
185,38.051362,-91.658284,Sherwood Ln
160,37.993780,-91.617593,S Jackson St
160,37.864288,-91.806411,Cardinal Rd/Hadley Rd
390,37.945054,-91.890059,I- 44
160,37.960116,-91.708040,/Pine Forest Dr
160,37.977209,-91.747755,Co Rd 2000
185,38.051406,-91.657420,Co Rd 266
160,37.996490,-91.617737,W Springfield Rd/N Bourbeuse St
160,37.959352,-91.753331,/E 18th St
334,37.943746,-91.748104,Pine Tree Rd/Redbud Ln
185,37.945155,-91.758225,Hawthorn Dr
185,37.936191,-91.759095,Oxford Dr
390,37.957802,-91.782614,White Columns Dr
160,37.991980,-91.611241,Orchard St/Cartall St/Boys Town Rd
276,37.947803,-91.769591,E 5th St/N Oak St
216,38.009385,-91.617617,Sidney St
276,37.993869,-91.637902,Aviation Blvd
185,37.958576,-91.768879,E 18th St/N Oak St
246,37.961121,-91.771308,/I- 44
185,37.978548,-91.650961,Grebl Rd/Co Rd 82
246,38.007679,-91.610644,St Marie Ave/St Ann Ave
185,37.953909,-91.746131,/Pershing Pl/Truman Ave
160,37.940616,-91.782696,Strobach St
305,37.935167,-91.747328,State Hwy 72
246,37.958608,-91.766572,E 18th St/N Cedar St
472,37.958764,-91.772004,N Bishop Ave/W 18th St
185,37.941129,-91.752647,Elliott Dr
865,37.940085,-91.802800,Blues Lake Pkwy
305,37.949925,-91.745583,Greentree Rd
185,37.955059,-91.760876,Spencer St/E 14th St
160,37.939920,-91.569708,/State Hwy 68
160,37.944228,-91.752795,Soest Rd
216,38.003429,-91.619002,Pershing/
276,37.963514,-91.752441,/Forum Dr
246,37.994910,-91.624062,Walnut St/Helen St
185,37.958571,-91.877439,Co Rd 14/Pvt Dr 8169
160,38.021499,-91.620391,Deer Park Ln/Co Rd 1023/Co Rd 1020
160,38.024659,-91.633846,N Hwy 68
185,37.870967,-92.017809,/I- 44
246,37.957875,-91.760541,/E 18th St
788,37.953728,-91.775885,Miner Cir
305,37.948317,-91.789221,8th St
246,37.935021,-91.777746,S Bishop Ave/Oaklane Dr
246,37.944617,-91.853964,I- 44
185,37.942841,-91.757319,Holmes Ln/Mark Twain Dr
472,37.996085,-91.611539,S Seymour St/E Scioto St
499,37.957139,-91.775574,/N Bishop Ave
185,37.976616,-91.731120,Old Hwy 66
216,37.981445,-91.702986,Dillon Outer Dr
658,37.953709,-91.775099,N State St/Miner Cir
160,37.912029,-91.763050,Co Rd 5090/Co Rd 142
160,37.955101,-91.780206,W 14th St/Poole Ave
276,37.993528,-91.638426,Old Hwy 66
216,37.944315,-91.741504,Bittersweet Ln/Ashwood Dr
216,37.943743,-91.770562,S Elm St
160,37.914767,-91.903776,State St/W 2nd St
160,37.976777,-91.718231,Rd 44/Old Saint James Rd
160,37.987497,-91.725096,Reagan Dr/Highpoint Cir
160,37.921626,-91.898909,Main St/Oak St
160,37.919372,-91.729227,State Hwy 72
216,37.945000,-91.882514,I- 44
160,37.948310,-91.760134,Great Oaks/Woodland Dr
160,37.971797,-91.735724,Old St James Rd
246,38.010414,-91.621733,Union Ave/N Jefferson St
472,37.948404,-91.774174,Park St/W 6th St
160,37.961693,-91.757118,/Farrar Dr
216,37.941006,-91.760257,State Hwy 72/Frost Dr
185,37.918566,-91.970453,I- 44
160,37.993543,-91.615471,/S Bourbeuse St
185,37.979874,-91.719537,/Hy Point Industrial Dr
418,37.952324,-91.771510,W 11th St/N Pine St
216,37.942902,-91.796019,/Old Wire Outer Rd
160,37.977756,-91.752359,Tony Berg Rd/Co Rd 39/Old Hwy 66
246,37.916379,-91.971171,I- 44
160,37.958082,-91.752505,Eastwood Dr/Forum Dr/Eastwood Ct
445,37.957610,-91.769457,/E 17th St
185,38.003153,-91.620635,N Meramec St/Pershing
185,37.955989,-91.743386,Washington Ave
276,37.940175,-91.751127,Laird Ave/Richard Dr
216,37.991323,-91.563891,Boys Town Rd
185,37.993744,-91.576232,Co Rd 3610/Sbabo Rd
160,37.922432,-91.769052,Lions Club Dr
160,37.971269,-91.736918,Old St James Rd
160,37.969612,-91.739336,Old St James Rd
216,37.961313,-91.773226,/Rd 28
185,37.995349,-91.616845,/S Bourbeuse St
216,38.012287,-91.622705,/N Hwy 68
631,37.948424,-91.775150,N State St/W 6th St/Kingshighway
334,38.009468,-91.607952,/State Hwy B
334,37.985820,-91.674636,I- 44
185,37.999081,-91.617776,/N Meramec St
160,37.991810,-91.631614,Nelson Hart Rd/
216,38.026983,-91.543757,Vineyard Outer Rd/State Hwy U
736,37.960345,-91.766652,/N Cedar St/N Bishop Ave
216,37.982097,-91.698221,Dillon Outer Dr
390,37.957400,-91.785275,/Fraternity Dr
185,37.950261,-91.739920,Greenbriar Dr/Wakefield Dr
579,37.951479,-91.772562,N Rolla St/W 10th St
552,37.948413,-91.774583,Park St/W 6th St
305,37.952164,-91.748011,McCutchen Dr
160,38.014215,-91.589005,I- 44
185,37.992303,-91.605075,Forest Ln/Boys Town Rd
185,37.947777,-91.765426,E 5th St/Salem Ave
160,38.009920,-91.601288,/Industrial Dr
526,38.006983,-91.618870,/State Hwy B
246,38.006626,-91.612288,Walters Ave/St Michael Ave
216,37.963592,-91.773227,Rd 28
631,37.996706,-91.612765,E Hardy St/Parker St
246,37.955100,-91.781764,W 14th St/Powell Ave
216,37.983427,-91.693262,/Old Hwy 66
160,37.939701,-91.742169,Coventry Ln/Belmont Dr
160,37.901120,-91.782355,Christopher Dr/US Hwy 63
160,38.012438,-91.595783,I- 44
216,37.935010,-91.776742,/Oaklane Dr
160,37.906441,-91.685900,/Panther Bluff Rd
160,37.944247,-91.747295,Soest Rd
160,37.979701,-91.698264,/Pvt Rd 3145/Co Rd 3140
216,37.945803,-91.883501,Hwy T
334,37.935523,-91.772662,Christy Dr/Santa Fe Trl
276,37.951469,-91.745318,E 10th St/Independence Rd/Greentree Rd
160,37.886272,-91.887810,Hickory Point Rd
160,37.940427,-91.761259,Pete Ave
1020,37.949165,-91.772548,N Rolla St/W 7th St
276,37.942364,-91.778006,S Spilman Ave/Ridgeview Ave
526,37.952344,-91.772554,N Rolla St/W 11th St
160,37.926922,-91.754113,Brookside Ln
762,37.951484,-91.774098,W 10th St
1929,37.955183,-91.776067,N State St//W 14th St
160,38.010127,-91.608160,/Sidney St
362,37.946976,-91.768595,E 4th St/N Olive St
185,37.987372,-91.664779,Old Hwy 66
305,37.945403,-91.776044,W 2nd St
390,37.943531,-91.777306,/S Bishop Ave
185,37.876193,-92.017332,/N Outer Rd
160,38.004338,-91.610937,St Johns Ave/St Francis Ave
185,38.001245,-91.619440,N Meramec St/Aida St
185,37.972497,-91.773600,Lancelot Dr/Camelot Ct
1097,37.951489,-91.778673,Spring Ave/W 10th St
246,38.026197,-91.544434,I- 44
185,37.925601,-91.766785,Sooter Ln/S Rolla St
445,37.944336,-91.883208,Hwy T/
246,37.945202,-91.866679,Doolittle Outer Rd/
185,37.942393,-91.775808,S Rucker Ave/State Hwy 72
160,37.941937,-91.745602,Coventry Ln
160,37.668338,-91.873184,/US Hwy 63
160,37.945462,-91.879080,Doolittle Outer Rd
160,37.995143,-91.614724,/S Meramec St
276,37.945139,-91.877803,I- 44/Newburg Rd
276,37.951457,-91.744436,/E 10th St
160,37.913102,-91.741484,/Cinnamon Ct
160,37.966018,-91.582544,State Hwy 8
1537,37.952368,-91.777650,W 11th St
276,38.010140,-91.603705,I- 44
684,37.953142,-91.767769,E 12th St/
160,37.962626,-91.576010,/State Hwy 8
216,38.010837,-91.599985,/Industrial Dr
658,37.943419,-91.790683,Kingshighway/Martin Spring Dr
160,37.932205,-91.742593,State Hwy 72
160,37.892521,-91.787909,Pvt Dr 7143
362,37.949174,-91.768577,E 7th St/N Olive St
246,37.940497,-91.778096,S Spilman Ave/Strobach St
160,38.020975,-91.582423,/E Springfield Rd
185,37.990598,-91.650897,Jones Rd/Old Hwy 66
216,37.966475,-91.764745,/Bishop Ave
246,37.915095,-91.771461,Little Oaks Rd/295 Rd
185,37.984597,-91.687854,State Hwy Ra
736,37.981106,-91.720187,Hy Point Industrial Dr
160,37.922785,-91.798864,Cedar Grove Rd
185,37.948649,-91.682385,Hunters Ridge
305,38.007039,-91.614675,I- 44
246,37.924501,-91.743076,Inverness Ln/Overland Dr
160,37.953890,-91.803221,Sally Rd
216,38.018279,-91.580565,/Co Rd 122
305,37.949544,-91.761798,E 7th St
216,37.943798,-91.764213,Poe Dr/Rolla Gardens Dr
160,38.000326,-91.612641,/N Wishon St
305,37.980944,-91.711399,/Old Hwy 66
552,37.956417,-91.785255,Fraternity Dr
185,37.990940,-91.638190,W Springfield Rd/Jill Dr
305,37.956582,-91.782688,/Nagogami Rd
160,38.021547,-91.616182,/Co Rd 1020
216,37.956801,-91.790410,/Nagogami Rd
216,38.023373,-91.559838,/I- 44
185,37.942531,-91.783182,Morrell Ave/Lynwood Dr/Ridgeview Ave
160,37.999948,-91.622088,Evergreen St/Aida St
276,37.945172,-91.855200,/Co Rd 8140
418,37.953224,-91.742368,Timbercreek Rd
160,37.990022,-91.651636,I- 44
185,37.921538,-91.970587,High St
185,37.945157,-91.758974,Crabapple Ln/Hawthorn Dr
160,37.953865,-91.748002,McCutchen Dr/Truman Ave
160,37.977906,-91.718286,/Dillon Outer Dr
160,37.960210,-91.731674,Co Rd 3010/
160,37.870676,-92.017481,Clementine Outer Rd
185,37.944470,-91.858784,/Co Rd 7100
185,37.946773,-91.803288,Sally Rd
246,37.980868,-91.707107,/Dillon Outer Dr
160,37.986976,-91.663547,/Dillon Outer Dr
160,37.907280,-91.992609,N Outer Rd/Pvt Drive 8505
499,37.960260,-91.769633,N Elm St
334,37.960237,-91.793505,/State Hwy E
185,37.980502,-91.706321,Country Club Rd
160,37.977901,-91.718000,Dillon Outer Dr
362,37.985603,-91.677385,/Old Hwy 66
160,37.928470,-91.756943,Pheasant Hill/Sycamore Dr
276,37.995545,-91.633545,Old Hwy 66
276,38.010283,-91.603942,I- 44
185,38.023707,-91.557737,Vineyard Outer Rd
160,38.028701,-91.905719,/Co Rd 8440
160,37.995866,-91.576092,Sbabo Rd
631,37.942813,-91.791458,Martin Spring Dr
216,37.952830,-91.742110,Condo Dr
710,37.939643,-91.777307,S Bishop Ave
185,37.930179,-91.963354,/Sugartree Outer Rd
160,37.967560,-91.773916,Woodcrest Cir
160,37.990374,-91.637498,Terry Ln/Jill Dr
160,38.054071,-91.585519,/State Hwy B
160,37.941777,-91.759151,Elmwood Dr
246,37.891719,-92.012637,Nevins Rd/N Outer Rd
160,37.700418,-91.865563,Walnut St/High St
160,37.969908,-91.762124,Bishop Ave
185,37.944460,-91.857840,Co Rd 7100
160,37.958461,-91.749922,Eastwood Dr/Broadway St
160,37.938911,-91.816423,Martin Springs Dr/Martin Spring Outer Rd
579,37.959614,-91.767181,E 19th St/
160,37.952264,-91.569894,Pvt Drive 3053/Garret Rd
160,37.920901,-91.972370,/Arlington Outer Rd
276,37.947000,-91.750093,/Forum Dr
246,38.008095,-91.609064,St Ann Ave/Kyle St
160,37.993701,-91.628834,Bass Rd
246,37.986546,-91.669386,I- 44
305,37.966175,-91.773225,Rd 28
276,37.950162,-91.752660,Forum Dr
160,37.835113,-91.796731,Mc Kimmey Rd
472,37.964080,-91.765867,/N Bishop Ave
160,37.790212,-91.829376,/Baptist Camp Rd
160,37.817389,-92.002308,USFS Rd 1711
185,37.945403,-91.769617,N Oak St/E 2nd St
185,37.963220,-91.774963,Windsor St/Marlette St
160,37.951161,-91.726177,State Hwy Bb/Cedar Ridge Dr
160,37.994555,-91.710911,/Sands Rd
160,37.942355,-91.779530,S Walker Ave/Ridgeview Ave
160,38.018159,-91.634536,Co Rd 2310/Co Rd 2313
276,37.951444,-91.768542,N Olive St/Bb Hwy
246,37.934929,-91.746663,State Hwy 72
246,37.956978,-91.773479,Vichy Rd/St Patricks Ln
160,37.940080,-91.758371,Summit Ave/State Hwy 72
160,37.936575,-91.797675,Bridge School Rd
579,37.943851,-91.789661,/Howard Johnson Dr
160,37.967684,-91.747917,McCutchen Dr/Old St James Rd
390,37.942315,-91.776475,/S Faulkner Ave
246,37.762501,-91.910968,/State Hwy 2
216,37.946180,-91.769602,N Oak St/E 3rd St
246,37.950753,-91.768612,N Olive St
246,37.868597,-92.019915,/State Hwy J/I- 44
160,37.935567,-91.771200,S Rolla St
526,37.948457,-91.777337,W 6th St/N Bishop Ave
160,37.963867,-91.749722,California Dr/San Fernando Ct
216,38.011113,-91.604416,/Sidney St
185,37.991323,-91.647910,/Old Hwy 66
216,37.979202,-91.719203,Hy Point Industrial Dr/I- 44
362,38.006966,-91.617952,State Hwy B
185,37.986373,-91.667253,/Dillon Outer Dr
788,37.952816,-91.778664,/Spring Ave
185,37.943834,-91.768582,S Olive St/Rhodes Ave
160,37.810080,-91.802119,US Hwy 63
160,38.079139,-91.585765,/State Hwy B
160,37.965159,-91.812399,/State Hwy Y
334,37.935924,-91.772104,Christy Dr/Santa Fe Trl
160,37.951430,-91.787038,W 10th St/Fairgrounds Rd
160,37.958174,-91.706423,Fairway Cir/Co Rd 3110
160,37.968427,-91.709329,Lakeview Cir
185,37.947212,-91.772583,/N Rolla St
160,37.939842,-91.849874,/Martin Spring Outer Rd
160,37.948160,-91.752153,/Forum Dr
246,38.000738,-91.617233,Florine St
185,37.951153,-91.739887,/Greenbriar Dr
418,37.932972,-91.778192,/S Bishop Ave
185,37.943005,-91.763562,Iris Ct
216,37.946794,-91.760384,Woodland Dr
246,37.968295,-91.756535,/Research Dr/Twitty Dr
362,37.945417,-91.774663,Park St/W 2nd St
418,37.946142,-91.774606,Park St
185,38.002093,-91.617337,N Jefferson St/Aida St
185,37.941199,-91.569545,State Hwy 68
499,37.944386,-91.789707,Howard Johnson Dr
185,37.989860,-91.639682,W Springfield Rd/St James Rd
276,37.947906,-91.740409,Greenbriar Dr/Whitney Ln
246,37.955314,-91.764018,Iowa St
246,37.868727,-92.020087,/I- 44
185,37.945446,-91.744982,Whitehall Rd
160,37.707195,-91.867513,/Broadway St
305,38.001672,-91.624324,/N Outer Rd
160,37.946477,-91.859295,Doolittle Outer Rd/Roach Church Rd
472,37.948371,-91.770580,W 6th St/E 6th St/N Elm St
185,38.002784,-91.622737,N Outer Rd
246,38.026843,-91.543660,State Hwy U
390,37.942391,-91.776473,/State Hwy 72/S Faulkner Ave
160,37.926689,-91.779589,S Bishop Ave/Basswood Dr
160,38.079091,-91.585761,State Hwy Ee/State Hwy B
1252,37.950610,-91.777192,/N Bishop Ave
305,37.938830,-91.747194,Canterbury Ct
246,38.031938,-91.529636,I- 44
185,37.958519,-91.764305,E 18th St
185,37.970459,-91.739648,Oak Forest Dr/White Oak Ct
276,37.938388,-91.831731,I- 44
160,37.909687,-91.794037,/Hartville Rd
185,37.991790,-91.632489,Nelson Hart Rd
160,37.992842,-91.612766,S Jefferson St
246,37.940136,-91.748089,Richard Dr/Pine Tree Rd
605,37.951476,-91.779632,W 10th St
160,37.921002,-91.968216,I- 44
216,38.010466,-91.602498,I- 44
160,37.937413,-91.793742,St John's Pkwy/Bridge School Rd
185,38.012154,-91.603687,State Hwy B
305,37.944805,-91.864136,I- 44
246,37.959383,-91.754346,E 18th St
216,37.993098,-91.615141,W Johnson St/S Bourbeuse St
185,37.949245,-91.745608,Highland Dr/Greentree Rd
216,37.986483,-91.666499,/Dillon Outer Dr
160,37.973102,-91.773771,Camelot Ct
160,37.942732,-91.803314,Sally Rd
276,37.958322,-91.776590,I- 44
216,37.957610,-91.767190,E 17th St/
246,37.997054,-91.618148,W Eldon St/N Bourbeuse St
160,37.979820,-91.744866,Old Hwy 66/Co Rd 2020
160,37.864442,-91.795147,/US Hwy 63
185,37.949539,-91.757938,Irene Ln/E 7th St
185,38.009363,-91.622915,/Missouri Ave
216,37.913329,-91.901922,/Water St
160,37.913329,-91.973753,I- 44
552,37.942390,-91.776753,/State Hwy 72
185,38.031203,-91.531459,I- 44
788,37.949940,-91.771562,N Pine St/W 8th St
160,37.913832,-91.903040,Main St/Ally Post Office
334,37.960719,-91.773250,Vichy Rd/I- 44/Rd 28
216,37.955442,-91.532653,Maramec Spring Dr
185,37.942092,-91.746458,Dogwood Ln/Redbud Ln
216,38.023609,-91.559805,/I- 44
305,37.934837,-91.747932,Hwy O
185,38.031827,-91.531102,Vineyard Outer Rd
185,37.922946,-91.736567,Long View Ln/Osage Dr
305,37.956223,-91.782102,Nagogami Rd/I- 44
216,37.941012,-91.802589,/Old Wire Outer Rd
160,37.898108,-91.784379,/US Hwy 63
276,37.946125,-91.771628,W 3rd St/N Pine St
185,37.947255,-91.759572,/Forest Dr
160,37.959082,-91.764049,Sharp Rd
185,37.921499,-91.780216,Keeton Rd/US Hwy 63
334,37.952753,-91.767602,/Bardsley Rd/N Cedar St/N Olive St
185,37.954842,-91.764034,Iowa St/E 14th St
160,37.995603,-91.771623,US Hwy 63
160,37.959321,-91.752903,E 18th St
185,37.941570,-91.843179,I- 44
216,37.955587,-91.747439,Pershing Pl
276,37.964910,-91.751763,Forum Dr
362,37.942989,-91.770561,S Elm St
160,37.949531,-91.758971,Pauline Ln/E 7th St
472,37.956976,-91.775482,State St//St Patricks Ln
160,37.970178,-91.761914,Bishop Ave
968,37.944209,-91.785775,Bryant Dr/I- 44 Bus
216,37.957873,-91.761492,E 18th St
216,37.955681,-91.789345,/Nagogami Rd
362,37.951427,-91.784983,/W 10th St
305,37.992273,-91.640749,S Outer Rd
276,37.996363,-91.632317,Old Hwy 66
246,37.941244,-91.798068,Martin Spring Dr
185,37.939012,-91.749669,Johnson St
276,37.952773,-91.781786,Powell Ave
160,37.957637,-91.765491,E 17th St/N Walnut St
160,37.840921,-91.797791,/US Hwy 63
160,37.890552,-91.796235,Co Rd 7145
445,37.945018,-91.787343,/Fairgrounds Rd
185,38.007102,-91.608754,St Michael Ave/Kyle St
160,38.004878,-91.613805,Home Dr
185,37.990453,-91.638851,W Springfield Rd
246,38.011231,-91.604091,State Hwy B/Sidney St
160,37.700432,-91.865753,Walnut St/
160,37.977897,-91.718095,Dillon Outer Dr
160,37.717902,-91.866116,/US Hwy 63
276,38.009624,-91.607351,/State Hwy B
390,37.951890,-91.748011,McCutchen Dr
160,37.944530,-91.932465,I- 44
445,37.950837,-91.788721,I- 44
160,37.940297,-91.756149,King Dr
160,37.994556,-91.710956,Sands Rd
160,37.967664,-91.747968,McCutchen Dr/Old St James Rd
418,37.945435,-91.908715,I- 44
246,37.992291,-91.643686,Old Hwy 66/Co Rd 2292
305,37.995048,-91.631303,Old Hwy 66
160,37.967110,-91.731223,Fossil Ct/Limestone Ln
160,37.943723,-91.812459,Co Rd 22
305,37.935301,-91.772846,Christy Dr
185,37.959695,-91.757178,/Farrar Dr
185,37.920363,-91.773815,/Silverleaf Ln/Timberlane Ct
185,37.946100,-91.803278,Sally Rd
762,37.953146,-91.768121,E 12th St/N Lakeview Dr
216,38.003268,-91.618062,N Jefferson St
813,37.957583,-91.772442,N Rolla St
160,37.880500,-92.015045,I- 44
813,37.959580,-91.767761,/E 19th St/N Olive St
160,37.944243,-91.760706,/Salem Ave
216,37.924457,-91.743749,Overland Dr
445,38.006290,-91.616771,I- 44
390,37.952304,-91.780216,W 11th St/Poole Ave
160,37.937268,-91.771183,/S Rolla St
246,37.991499,-91.647132,Old Hwy 66
160,37.997834,-91.612910,E Washington St/S Seymour St
160,37.927720,-91.779359,/S Bishop Ave/Kent Ln
160,37.931853,-91.763261,/Lachateau Ct
160,37.949244,-91.751934,Highland Dr
160,38.054334,-91.585516,/State Hwy B
160,37.933306,-91.747970,Hwy O
362,37.930600,-91.778722,/S Bishop Ave
334,37.999876,-91.616147,N Jefferson St
305,37.991017,-91.614673,James Ln
334,37.950609,-91.767603,N Cedar St/Bulldog Run
160,37.921720,-91.899130,/Main St
160,37.969300,-91.740068,Old St James Rd
276,37.935337,-91.748089,State Hwy 72
160,37.708973,-91.867792,/Old Hwy 63
216,37.933775,-91.744854,/State Hwy 72/Bahr-Line Trl
185,37.981827,-91.720940,Hy Point Industrial Dr
160,37.950945,-91.706508,Co Rd 3110/State Hwy Bb/Vineyard Dr
762,37.953737,-91.776118,Miner Cir
216,37.994239,-91.612777,W Johnson St/S Jefferson St
160,37.933699,-91.747148,Donald Dr/Republic Dr
362,37.950756,-91.767602,N Cedar St
216,37.979444,-91.719094,I- 44
160,37.930828,-91.961092,/Sugartree Outer Rd
276,37.980979,-91.706313,Country Club Rd/Dillon Outer Dr
185,37.942664,-91.748110,/Pine Tree Rd
185,37.990448,-91.635864,Jana Ln
552,37.956598,-91.769414,/E 16th St
160,37.931564,-91.773345,Jimmy St/Lanning Ln
185,37.957421,-91.759926,Leroy St/Missouri Ave
305,37.945409,-91.775374,W 2nd St
362,37.954985,-91.785523,/I- 44
160,37.967915,-91.773763,Anita Dr/Rd 28
246,37.962502,-91.754872,Carol St
185,37.940303,-91.756694,King Dr/Gano Dr
160,37.942383,-91.803304,Sally Rd/Columbia Ave
185,37.984541,-91.648299,St James Rd
185,37.954265,-91.788078,Fraternity Cir
160,37.962867,-91.738642,Stoltz Dr/Thompson Dr
216,37.762112,-91.910218,State Hwy 2/Co Rd 227
160,37.947440,-91.771612,W 5th St/N Pine St
305,37.953216,-91.781782,Powell Ave/W 12th St
246,38.010762,-91.621914,N Jefferson St
160,37.947005,-91.761167,4th St
276,37.965551,-91.770917,/Rd 35
160,37.967983,-91.709577,Forest Lake Dr
185,38.003222,-91.613049,St Francis Ave/Home Dr
216,37.944952,-91.859338,I- 44
160,37.971338,-91.736764,Old St James Rd
160,37.938970,-91.774876,Pecan Grove/Fort Wyman Rd/Crestview Dr
160,38.007025,-91.623480,Parker Ln/N Washington Ave
160,37.987187,-91.663718,I- 44
160,37.931703,-91.754933,Chestnut Dr/Sycamore Dr
390,37.961341,-91.766548,I- 44
276,37.945600,-91.773613,N Main St
160,37.877030,-92.019506,/Pvt Drive 8548
160,37.944170,-91.775782,N Rucker Ave/S Rucker Ave/Black St
736,37.947090,-91.777379,Kingshighway/N Bishop Ave/I- 44 Bus
160,37.983231,-91.687931,Earnie Rd
216,37.969980,-91.752857,Young St
246,38.009901,-91.603672,Red Bird Rd
246,37.945840,-91.900360,/State Hwy C
160,37.963338,-91.761018,/Old St James Rd
813,37.947752,-91.777357,/N Bishop Ave
276,37.958617,-91.766072,/E 18th St
160,37.920678,-91.971978,/Arlington Outer Rd
185,37.959958,-91.757169,Farrar Dr
160,38.001310,-91.609283,E Eldon St/Mueller St
276,37.938532,-91.755071,/State Hwy 72
160,37.919888,-91.774837,Ramsey Place Rd
160,37.946740,-91.806356,Meadow Ln
216,38.025687,-91.544047,State Rd Kk
2596,37.955177,-91.772663,W 14th St
160,37.967510,-91.747971,McCutchen Dr
185,37.953996,-91.764013,E 13th St/Iowa St
160,38.007205,-91.632554,Parker Ln
160,37.941499,-91.877910,/N Patton St
216,38.011231,-91.622159,N Hwy 68/N Jefferson St
160,37.960488,-91.762201,/Old St James Rd
246,37.986828,-91.668538,Old Hwy 66
472,37.996952,-91.612247,E Hardy St/S Seymour St
216,37.945812,-91.784924,Julienne St
160,37.841184,-91.797905,/US Hwy 63
160,38.004536,-91.610575,St Francis Ave
185,38.051416,-91.658026,N Hwy 68/E County Line Rd/Co Rd 266
160,38.002724,-91.605492,Celia St
160,37.953159,-91.762812,E 12th St/High St
160,37.937381,-91.746040,/Scottsvale Dr
160,37.960486,-91.706390,/Co Rd 3110
390,37.942173,-91.794145,Martin Spring Dr
160,38.004310,-91.777021,/Rd 34A
185,37.935621,-91.867957,Pool Holler Cave Rd
216,37.977351,-91.763693,Rd 34A/Pvt Dr 8016
813,37.960009,-91.772353,Tower Rd
185,37.922408,-91.779124,/Lions Club Dr
362,37.938116,-91.753451,Newcastle Dr/State Hwy 72
160,38.034339,-91.646175,N Hwy 68
276,37.968612,-91.772363,Three Chimneys Rd
160,38.003131,-91.606472,E Eldon St/E James Blvd
185,38.005455,-91.612304,Walters Ave
216,37.941093,-91.766017,/Green Acres Dr
160,38.006900,-91.603703,Industrial Dr/Red Bird Rd
305,37.945463,-91.775800,Park St/
160,37.957603,-91.878497,Dillon Dr
160,37.922055,-91.723709,/Co Rd 3160
305,37.963270,-91.762524,I- 44
160,37.944573,-91.931095,/I- 44
160,37.960897,-91.762055,Old St James Rd/Maxwell St
305,37.945406,-91.775213,State St/W 2nd St
216,37.940901,-91.803292,Sally Rd/Old Wire Outer Rd
160,37.980502,-91.709695,/Dillon Outer Dr
160,37.939810,-91.818420,/Old Wire Outer Rd
246,37.938209,-91.801157,Blues Lake Pkwy
1537,37.953255,-91.777738,W 12th St
658,37.948402,-91.772543,N Rolla St/W 6th St
216,37.945184,-91.882515,I- 44
216,37.995575,-91.624453,Clayton St
160,37.947601,-91.759865,Holloway St
246,37.944534,-91.866484,Eisenhower St/
185,37.959943,-91.782627,Regal Pl
216,37.950356,-91.758286,E 9th St/Murry Ln
390,38.004949,-91.618950,N Jefferson St/I- 44
185,37.955766,-91.781345,Nagogami Rd
160,37.935895,-91.750055,State Hwy 72/McFarland Dr
276,37.994328,-91.634275,S Outer Rd
160,37.963279,-91.752476,/Forum Dr
362,37.944256,-91.748724,/Soest Rd
160,38.016909,-91.580266,I- 44
216,37.990586,-91.638664,W Springfield Rd
160,38.031423,-91.531597,I- 44
185,37.945371,-91.772638,N Rolla St/W 2nd St
160,38.034280,-91.646111,N Hwy 68
160,38.011941,-91.675962,/Parker Ln
160,38.012820,-91.622980,N Hwy 68
160,37.984208,-91.636433,State Hwy Bb
160,38.027545,-91.559567,Co Rd 1110/Co Rd 1000
1046,37.955146,-91.777094,W 14th St/N Bishop Ave
185,37.977993,-91.763798,/Rd 34A
160,37.996217,-91.618978,W Springfield Rd
762,37.953144,-91.767978,E 12th St
246,37.945557,-91.783953,Julienne St
160,37.954463,-91.789411,Hyer Ct/Vista Dr
185,37.994895,-91.632085,Old Hwy 66
216,37.952554,-91.741159,Condo Dr
160,37.708874,-91.867793,Old Hwy 63
246,37.958628,-91.765522,N Walnut St/E 18th St
994,37.959878,-91.768927,N Oak St/N Bishop Ave
813,37.951441,-91.765517,Bb Hwy
658,37.956590,-91.770517,/W 16th St
246,38.007283,-91.615256,/State Hwy B
216,38.023843,-91.559738,/Vineyard Outer Rd/Co Rd 1110
631,37.956592,-91.769993,N Elm St/W 16th St/E 16th St
160,37.939457,-91.749482,Nancy Ln/Johnson St
305,37.981231,-91.706315,I- 44
246,37.941941,-91.797150,/I- 44
160,37.913780,-91.766146,Co Rd 145/Co Rd 5070/Co Rd 142
658,37.954183,-91.770521,E 13th St/N Elm St/W 13th St
246,37.951445,-91.768751,Bb Hwy
185,37.933728,-91.759914,Winchester Dr/Norwich Dr
160,37.967549,-91.708994,/Forest Lake Dr
185,37.949778,-91.757551,Murry Ln
160,37.935768,-91.749875,State Hwy 72
276,37.948357,-91.761919,E 6th St/Holloway St
305,37.938003,-91.753106,State Hwy 72/Salem Ave
160,37.950857,-91.739896,/Greenbriar Dr
334,37.951461,-91.770519,N Elm St/W 10th St/Bb Hwy
160,37.922037,-91.722637,Co Rd 3160
216,37.921814,-91.780260,US Hwy 63
185,37.978284,-91.763845,/Rd 34A
276,37.944951,-91.838324,/Co Rd 18
160,37.990123,-91.612769,Olga St/S Jefferson St
160,37.933709,-91.766615,Victoria Ln
276,37.942477,-91.845932,I- 44
185,37.930344,-91.887075,Truman St
445,37.950681,-91.770542,E 9th St/W 9th St/N Elm St
160,37.935602,-91.749509,/State Hwy 72
579,37.952295,-91.785346,W 11th St
445,37.945541,-91.781182,/I- 44 Bus
736,37.939326,-91.777315,S Bishop Ave
216,37.991000,-91.612761,James Ln/S Jefferson St
160,37.945395,-91.768603,N Olive St/E 2nd St
160,37.910832,-91.703664,/State Hwy F
334,38.015745,-91.624853,N Hwy 68
185,38.011074,-91.604568,Sidney St
334,37.959631,-91.770011,N Elm St/N Bishop Ave
185,38.009909,-91.774839,Rd 37 A
334,37.946196,-91.773636,W 3rd St/N Main St
185,37.992302,-91.605149,Kathryn Dr/Boys Town Rd
445,37.949150,-91.770579,/N Elm St/E 7th St
362,37.951415,-91.761963,E 10th St/Holloway St/Bb Hwy
160,37.939193,-91.772572,Fort Wyman Rd
185,37.941527,-91.766019,Green Acres Dr
917,37.938413,-91.778162,/George St
160,37.966265,-91.777432,Woodcrest Cir/Alpha St
185,37.987218,-91.665718,/Old Hwy 66
160,37.961282,-91.731666,Co Rd 3010
185,37.977674,-91.725199,Co Rd 2070/Old Hwy 66
160,37.962118,-91.752483,Forum Dr/Tory Ave
185,38.003471,-91.604568,E James Blvd
216,37.994890,-91.616479,S Bourbeuse St/W Hardy St
1355,37.952368,-91.777117,W 11th St/N Bishop Ave
160,37.939668,-91.810012,/Martin Springs Dr
276,37.946981,-91.774595,Park St/W 4th St
160,37.938083,-91.829866,I- 44
552,37.944946,-91.783210,/I- 44 Bus
160,37.943525,-91.762795,Rolla Gardens Dr
160,38.022984,-91.682517,State Hwy V
160,37.940464,-91.775859,Williams Rd/S Rucker Ave
160,37.981836,-91.700142,Dillon Outer Dr
160,37.942874,-91.873723,/Rd 7280
160,37.910960,-91.710242,/State Hwy F
160,37.982701,-91.706327,/Turner Rd
160,37.990175,-91.652026,I- 44
246,38.011120,-91.603759,Red Bird Rd
185,37.942856,-91.877052,Affolter St/Rd 7280
160,37.913731,-91.901607,/Water St
552,37.938551,-91.777332,George St/S Bishop Ave/Fort Wyman Rd
216,37.873057,-92.016567,Clementine Outer Rd/
418,37.946982,-91.775578,W 4th St/Beech St
160,37.948002,-91.738729,Lovers Ln
185,37.930405,-91.886976,/Truman St
526,37.953981,-91.767963,N Lakeview Dr
684,37.952367,-91.778692,Spring Ave/W 11th St
276,37.959264,-91.782426,/White Columns Dr
185,37.990709,-91.650896,Jones Rd
185,38.007030,-91.625149,Parker Ln
185,37.948556,-91.760310,Great Oaks/E 6th St
246,37.957862,-91.764231,Bardsley Rd/
762,37.946978,-91.776812,W 4th St
362,37.955646,-91.785239,Nagogami Rd/Fraternity Dr
160,37.956752,-91.764852,Bardsley Rd/Arkansas Ave
276,37.940958,-91.799457,/Martin Spring Dr
160,37.950437,-91.623566,State Hwy Bb
276,38.008975,-91.605743,St Gregory St/St Ann Ave
160,37.977128,-91.747752,Pr Rd 2007
160,38.021645,-91.581831,/E Springfield Rd
160,37.946939,-91.771609,W 4th St/N Pine St
160,38.021418,-91.630877,/N Hwy 68
185,37.951100,-91.789496,Vista Dr
160,38.000153,-91.620497,/N Bourbeuse St
160,37.841410,-91.798002,/US Hwy 63
160,37.987581,-91.724655,Highpoint Cir
160,37.993949,-91.628964,W Springfield Rd/S Louise Ave
160,37.992106,-91.591760,/State Hwy Dd
445,37.945600,-91.780997,/I- 44 Bus
216,37.956616,-91.767745,E 16th St/N Olive St
305,37.953603,-91.765295,/Maple St
216,37.941730,-91.752866,Leonard Dr
160,37.972997,-91.703539,/Co Rd 3100
160,37.946775,-91.787317,Fairgrounds Rd
160,37.962190,-91.757115,/Farrar Dr
160,37.940179,-91.881038,Eisenhower St/Hwy T/Truman St
246,37.997361,-91.630017,I- 44
276,38.004384,-91.620601,N Outer Rd
891,37.947479,-91.776723,/Kingshighway
418,37.960555,-91.779542,Collegiate Blvd
185,37.945505,-91.913715,/I- 44
216,37.948257,-91.744772,Whitney Ln
160,38.023242,-91.767328,Rd 37/Co Rd 2130
160,37.951076,-91.718502,State Hwy Bb
185,37.939184,-91.773354,Shady Acres Ct/Fort Wyman Rd
185,37.991058,-91.611269,Orchard St/E Charles St
185,37.983362,-91.687928,Earnie Rd
216,37.966866,-91.773302,Roseglade Rd/Rd 28
216,37.925925,-91.747063,Overland Dr/Huntleigh Dr
216,37.987243,-91.662154,/Dillon Outer Dr
216,37.946437,-91.760470,Woodland Dr/Great Oaks Dr
160,37.992154,-91.618666,E Johnson St
160,37.994552,-91.625567,Helen St/Elm St
185,37.960867,-91.760966,Maxwell St
334,37.951509,-91.747229,E 10th St
160,38.014035,-91.599134,Friendship School Rd/Old Springfield Rdoold Friendship School Rd
160,37.942441,-91.939627,Arlingtonouter Rd/Outer Rd W
160,37.943843,-91.767563,Rhodes Ave/S Cedar St
160,37.961281,-91.755585,Tory Ave
160,37.910804,-91.702715,/State Hwy F
160,37.997327,-91.616404,N Meramec St/
185,37.932028,-91.749842,Devonshire Ln/Stratford Ln
160,37.940797,-91.877146,Eisenhower St/
185,37.967637,-91.705162,Country Oak Estates Dr
160,37.939208,-91.821594,I- 44
160,38.027998,-91.530906,Co Rd 3644
185,38.009305,-91.603674,St Ann Ave/Red Bird Rd
499,37.946601,-91.777384,W 4th St/N Bishop Ave
499,37.996031,-91.611648,E Scioto St
185,37.954636,-91.761893,/Holloway St
216,37.977497,-91.763719,/Rd 34A
160,37.987500,-91.726200,/Highpoint Cir
160,37.913784,-91.901720,/E 2nd St
605,37.950740,-91.773568,W 9th St/N Main St
334,38.015439,-91.624593,N Hwy 68
160,37.957619,-91.766635,E 17th St/N Cedar St
185,37.912404,-91.902612,Water St
216,37.970636,-91.761544,/Bishop Ave
185,37.993788,-91.629620,W Springfield Rd/S Louise St
160,37.971070,-91.761242,/Rd 34A
552,37.955141,-91.777927,/W 14th St
246,37.938555,-91.752499,Keeney Ct
160,37.959553,-91.763771,E 19th St/Sharp Rd
246,37.992281,-91.615151,E Johnson St
160,37.958738,-91.782148,Collegiate Blvd
276,37.945558,-91.891966,/Doolittle Outer Rd
185,37.942570,-91.940414,I- 44
362,37.994408,-91.631229,Anthony Ave
160,37.873392,-92.016457,/Clementine Outer Rd
362,37.955219,-91.768863,N Oak St/E 14th St
362,37.945438,-91.783858,Julienne St
246,38.010609,-91.606338,Sidney St
160,37.947762,-91.693621,/Summerfield Dr
185,38.000381,-91.618769,N Meramec St/Florine St
684,37.941933,-91.777276,/S Bishop Ave
185,37.970180,-91.741647,/Red Oak Dr
185,37.942147,-91.762629,Rolla Gardens Dr/State Hwy 72
185,37.970611,-91.732355,Pvt Drive 3031
160,37.994821,-91.723818,Sands Rd
185,38.013917,-91.623577,/N Hwy 68
246,37.959425,-91.792774,State Hwy E
160,38.026257,-91.575517,/Co Rd 1000
160,37.696034,-91.884927,/Co Rd 6140
160,37.938057,-91.828469,I- 44
160,37.958686,-91.746093,Independence Rd/Liberty Dr
160,37.993335,-91.617221,W Scioto St/S Jackson St
736,37.954168,-91.771491,/N Pine St/W 13th St
216,37.980612,-91.708921,Dillon Outer Dr
185,37.702186,-91.864563,/Locust St/Elm St
160,37.939038,-91.849474,Pvt Dv 7106
362,37.945415,-91.774566,Park St/W 2nd St
160,37.935129,-91.780969,Adrian Ave/Oaklane Dr
552,37.932179,-91.778365,S Bishop Ave
160,37.942364,-91.764824,Rose Ct/State Hwy 72
160,37.867051,-92.022988,I- 44
160,37.989253,-91.611233,Orchard St/Anna St
579,37.950718,-91.772549,N Rolla St/W 9th St
160,37.996268,-91.624389,/W James Blvd
305,37.941767,-91.770565,S Elm St/Newman Rd
160,37.977586,-91.752561,Co Rd 2030/Co Rd 39
185,37.989787,-91.650871,Forrest Grove Rd
246,37.949148,-91.761903,Holloway St/E 7th St
216,37.956311,-91.706432,Oak Hill Dr/Co Rd 3110
305,37.945416,-91.775800,/W 2nd St/N Rucker Ave
160,38.051783,-91.805536,/Maries Rd 530
917,37.952326,-91.773559,W 11th St/N Main St
276,37.938514,-91.755009,King Dr/State Hwy 72
684,37.950684,-91.771532,N Pine St/W 9th St
160,37.966987,-91.703688,Country Oak Estates Dr/Country Club Dr
216,37.950207,-91.764039,Iowa St
185,37.940314,-91.808507,/Old Wire Outer Rd
216,37.925913,-91.746975,Huntleigh Dr
185,38.021381,-91.580512,Co Rd 122
445,38.006235,-91.616877,I- 44
160,37.964529,-91.774925,Ventoura/Marlette St
160,37.967185,-91.776442,/Woodcrest Cir
185,38.001489,-91.617032,/N Jefferson St
160,37.938295,-91.823784,I- 44
160,38.005246,-91.610049,St Francis Cir
185,37.941128,-91.752846,Elliott Dr
160,37.943785,-91.760261,Gene Dr/Salem Ave
216,37.991288,-91.564173,Boys Town Rd
185,37.943059,-91.799765,Harvard Ave/Columbia Ave
246,37.938863,-91.748018,Canterbury Ct/Pine Tree Rd
185,37.937761,-91.752639,State Hwy 72
160,37.969044,-91.741289,Old St James Rd
185,37.951427,-91.742039,/E 10th St
185,38.010357,-91.622925,Union Ave
185,37.945036,-91.867221,I- 44
362,37.942394,-91.769798,State Hwy 72
246,37.945141,-91.878074,/I- 44
160,37.944320,-91.867565,Eisenhower St
160,37.968056,-91.709657,Lakeview Cir/Forest Lake Dr
160,37.925993,-91.734803,State Hwy 72
246,37.981633,-91.706315,Old Hwy 66/Co Rd 2170
246,37.994793,-91.634762,Old Hwy 66
605,37.947762,-91.775605,W 5th St/Beech St
246,38.031701,-91.529509,State Rd Kk
246,37.957453,-91.764451,Bardsley Rd/Missouri Ave
185,37.967140,-91.713237,Forest Lake Dr
185,37.998217,-91.613198,N Seymour St/S Seymour St/E Springfield Rd
305,37.985363,-91.674679,Dillon Outer Dr
472,37.942372,-91.777768,/Ridgeview Ave
160,37.960532,-91.756889,/Lian Ct
418,37.995163,-91.630617,/Old Hwy 66
160,37.994531,-91.709813,/Sands Rd
160,37.957541,-91.791075,/Nagogami Rd
160,37.938233,-91.773363,Shady Acres Ct
276,37.941725,-91.796057,/Martin Spring Dr
216,37.947783,-91.762940,E 5th St/Orchard Dr
276,37.952302,-91.767601,E 11th St/N Cedar St
160,37.980066,-91.724916,/Co Rd 2070
160,37.916202,-91.777539,US Hwy 63
185,37.946340,-91.761439,Cronin Ct
160,37.977335,-91.718255,S Outer Dillon Rd
418,37.958882,-91.772809,Tower Rd/W 18th St
160,37.971322,-91.761573,Rd 34A
185,38.025696,-91.546294,Vineyard Outer Rd
160,37.940196,-91.879709,/Eisenhower St
160,38.007130,-91.632205,Parker Ln
160,37.997785,-91.620548,/N Jackson St
160,38.017050,-91.580583,I- 44
526,37.943645,-91.789661,/Howard Johnson Dr
160,37.955668,-91.757235,Gulf Ave/Farrar Dr
305,37.985970,-91.674661,Old Hwy 66
160,37.989002,-91.655001,Dillon Outer Dr
246,37.919124,-91.750887,Kaddison Ct/Britt Ln
276,37.949162,-91.769602,E 7th St
216,37.941484,-91.761221,/Southview Dr/State Hwy 72
631,37.940745,-91.800621,/Martin Spring Dr
160,37.946058,-91.787336,Fairgrounds Rd
160,37.975124,-91.755394,/Co Rd 2000
684,37.953145,-91.775104,/N State St
185,37.944613,-91.739787,Ashwood Dr/Oaktree Ln
216,37.963831,-91.769084,Fairburn Dr
185,37.945498,-91.852790,Co Rd 8140
246,37.946549,-91.759037,Great Oaks Dr
216,37.977368,-91.726971,Old Hwy 66
160,37.920788,-91.966004,Arlington Outer Rd/Outer Rd W
246,37.945620,-91.903566,Doolittle Outer Rd
1355,37.955905,-91.771111,N Pine St/W 15th St
160,37.958749,-91.781744,Collegiate Blvd
160,37.906974,-91.693061,/State Hwy F
246,38.003637,-91.618236,Pershing
160,37.947470,-91.787293,Fairgrounds Rd
185,37.992989,-91.632491,W Springfield Rd
185,37.951403,-91.739880,E 10th St/Greenbriar Dr
185,37.970279,-91.741788,Red Oak Dr/Oak Forest Dr
631,37.940334,-91.802861,Blues Lake Pkwy/Martin Spring Dr
216,37.948263,-91.747855,Whitney Ln
246,37.946996,-91.767601,E 4th St/N Cedar St
185,37.936801,-91.748012,Pine Tree Rd
160,37.994676,-91.614366,W Scioto St/S Meramec St
160,37.896069,-91.715844,/Pvt Dr 13800
185,37.977114,-91.770927,Rd 35
160,37.981760,-91.699520,Pvt Rd 3145
276,38.028960,-91.536264,State Rd Kk
160,37.977173,-91.718236,/Rd 44/Rd 47
334,37.993038,-91.640496,Walters Dr/Old Hwy 66
216,37.957964,-91.763640,/E 18th St
160,37.993587,-91.619298,S Carson St/W Hardy St
917,37.944452,-91.784924,/Juliene St/I- 44 Bus
605,37.960656,-91.766151,/N Bishop Ave
160,37.942915,-91.886560,Schofer St
160,37.939644,-91.820122,/Old Wire Outer Rd
362,37.959115,-91.755492,/E 18th St
185,37.951466,-91.756365,Ann Dr/E 10th St
160,37.900915,-91.782707,Pvt Drive 7136/US Hwy 63
185,37.917148,-91.765797,/Chelsea Ln/Robyn Leann Dr
216,37.957714,-91.749915,Woodlawn Dr/Broadway St
185,38.003912,-91.629524,N Louise Ave
160,37.963871,-91.749387,California Dr
160,37.975063,-91.590634,/State Hwy 8
160,37.930673,-91.748095,Hwy O
185,38.013332,-91.623258,/N Hwy 68
185,37.972947,-91.770895,/Rd 35
305,37.942414,-91.772268,S Rolla St/State Hwy 72
160,37.710829,-91.867783,/Old Hwy 63
160,37.981484,-91.724717,Co Rd 2070
160,37.925917,-91.748317,Huntleigh Dr/Hwy O
552,37.957121,-91.775618,N Bishop Ave
185,37.958234,-91.764032,Bardsley Rd/E 18th St
185,37.971107,-91.770893,Rd 35
160,37.953463,-91.836583,Co Rd 19
160,37.942881,-91.803318,Sally Rd
839,37.940247,-91.803392,/Martin Spring Outer Rd
160,37.995559,-91.617793,/W Washington St
160,37.953328,-91.745226,Independence Rd/Pershing Pl
362,37.956944,-91.779772,/I- 44
216,37.980375,-91.716951,Old Hwy 66
185,37.921888,-91.741453,Palmer St
185,37.967976,-91.757673,Research Dr
246,37.957310,-91.706433,Co Rd 3110/Oak Meadow Dr/Meadowview Ln
160,37.942863,-91.872643,/Rd 7280
160,37.967752,-91.970698,Pvt Dr 8507
526,37.954590,-91.778610,/Spring Ave
418,37.980757,-91.719746,Old Hwy 66
160,37.966058,-91.753501,Old St James Rd/Tenbrink Dr
160,37.980357,-91.699176,Prvt Drive 3145
305,37.968187,-91.771729,/Land End Rd
216,37.991994,-91.611951,Cartall St
185,37.996795,-91.621487,W James Blvd/N Carson St
160,37.993500,-91.616873,/W Scioto St
185,37.942352,-91.778790,/Ridgeview Ave
276,37.913297,-91.745930,Southwood Dr/Ginger Ln
185,37.938551,-91.830487,Co Rd 18/Old Wire Outer Rd
216,38.006652,-91.611280,St Johns Ave/St Michael Ave
216,38.031532,-91.529928,State Rd Kk/
246,37.915096,-91.771302,/Little Oaks Rd
160,37.987499,-91.726430,Highpoint Cir
216,37.922193,-91.780304,/US Hwy 63
160,37.937787,-91.722120,/Larson Ln
160,38.010542,-91.706210,/Turner Rd
185,37.956560,-91.761966,Holloway St/Arkansas Ave
579,37.954172,-91.769524,E 13th St/N Oak St
160,37.943846,-91.766613,Rhodes Ave/S Walnut St
185,37.955435,-91.789076,Nagogami Rd/Vista Dr
246,37.871643,-92.017239,Clementine Outer Rd/
246,38.011337,-91.603980,Red Bird Rd/State Hwy B
362,37.951423,-91.786139,/W 10th St
185,37.919888,-91.773831,Timberline Ct
276,37.944190,-91.777326,S Bishop Ave/N Bishop Ave/Black St
276,37.984983,-91.677482,Dillon Outer Dr
185,37.971267,-91.770893,/Rd 35
246,37.924765,-91.766793,Shady Ln/S Rolla St/Brady Dr
160,37.947942,-91.682186,/Hunters Ridge
185,38.011022,-91.604764,/Sidney St
160,37.874102,-92.016252,Clementine Outer Rd/
185,37.940034,-91.809053,I- 44
216,37.956827,-91.783054,White Columns Dr/Nagogami Rd
160,37.979426,-91.725005,/Co Rd 2070
160,37.977598,-91.723239,N Outer Dillon Rd
160,37.969056,-91.741227,/Old St James Rd
216,37.952615,-91.741974,Condo Dr
362,37.952291,-91.782873,W 11th St/Joyce Ave
185,37.938550,-91.537295,Pvt Drive 3614
216,37.920423,-91.977412,/State Hwy D
160,38.021166,-91.582293,/E Springfield Rd
160,37.947026,-91.787308,Fairgrounds Rd
216,37.944369,-91.741362,Ashwood Dr
305,37.948402,-91.769589,E 6th St/N Oak St
185,37.940408,-91.812380,Co Rd 22
160,37.947614,-91.751143,Forum Dr
736,37.942095,-91.777275,S Bishop Ave
185,37.966037,-91.754106,Old St James Rd
246,37.940945,-91.748117,Viburnum Ln/Pine Tree Rd
160,37.991456,-91.639184,Lola Ln
160,37.964131,-91.744197,College Hills Dr/Faust Ct
334,37.945919,-91.789718,Howard Johnson Dr
216,37.954000,-91.762769,E 13th St/High St
185,37.947776,-91.765351,E 5th St/Maple St
246,37.956782,-91.706432,Co Rd 3110
160,37.982498,-91.706325,Turner Rd
185,37.971425,-91.770893,Rd 35
160,37.951228,-91.738679,Lovers Ln
160,38.026108,-91.575883,Flaim Rd/Co Rd 1000
160,37.986718,-91.899480,/Co Rd 210
499,37.943701,-91.787558,/I- 44 Bus
246,38.026377,-91.543314,State Hwy U/I- 44
160,37.961791,-91.782408,Meriweather Ct/White Columns Dr
276,37.916556,-91.764670,Thomas Dr/Traci Dawn Dr
160,37.945050,-91.868215,I- 44
185,37.951424,-91.741816,/Condo Dr/E 10th St
160,37.937050,-91.753487,Newcastle Dr
334,37.985144,-91.680810,/Old Hwy 66
160,37.974160,-91.590165,State Hwy 8/Pvt Dr 3484
185,38.001888,-91.617873,/Aida St
216,37.954008,-91.765299,E 13th St/Maple St
160,37.939481,-91.821608,Old Wire Outer Rd
390,37.935471,-91.777648,/S Bishop Ave
246,37.974789,-91.753195,I- 44
160,37.817670,-91.904895,USFS Rd 1587
160,37.989798,-91.636838,Jill Dr/Jana Ln
160,37.992434,-91.769598,US Hwy 63
246,38.027505,-91.541232,I- 44
276,37.876069,-92.015835,/Clementine Outer Rd
160,37.912260,-91.741428,Cinnamon Ct
246,37.962048,-91.754196,Tory Ave
160,37.947008,-91.761443,4th St/Cronin Ct
160,37.971551,-91.773267,Camelot Ct
216,37.901995,-91.648585,/State Hwy F
185,37.998113,-91.613120,S Seymour St
390,37.995241,-91.630161,/Old Hwy 66
216,37.945290,-91.777986,W 2nd St/N Spilman Ave
160,37.954400,-91.765278,/Maple St
246,37.954903,-91.752495,Forum Dr/Hauck Dr
160,37.836857,-91.796935,/US Hwy 63
160,37.945241,-91.868308,Doolittle Outer Rd
160,37.990433,-91.612766,S Jefferson St/Danny Dr
276,37.968265,-91.772365,Three Chimneys Rd
160,38.009967,-91.775196,US Hwy 63
216,37.916637,-91.765806,/Chelsea Ln/Traci Dawn Dr
185,38.009383,-91.621166,N Jefferson St/Missouri Ave/Sidney St
216,37.912951,-91.902389,E 1st St
334,37.980203,-91.715589,/I- 44
390,38.004389,-91.618693,N Jefferson St
246,37.984204,-91.687856,State Hwy Ra/Old Hwy 66
160,37.696006,-91.885151,/Co Rd 6140
216,37.943771,-91.769590,S Oak St
552,37.964337,-91.756386,Holt Ave
305,37.949169,-91.767591,E 7th St/N Cedar St
160,37.751898,-91.859324,Lucas Rd
160,38.026772,-91.575883,Flaim Rd
185,37.980526,-91.706321,Country Club Rd/
185,37.916502,-91.777745,US Hwy 63
305,38.011312,-91.598183,/Industrial Dr
160,37.944201,-91.757278,Holmes Ln/Soest Rd
246,37.976746,-91.744798,Co Rd 2000
160,38.001835,-91.609441,/Mueller St
276,37.945395,-91.773614,W 2nd St/N Main St
160,37.913838,-91.901836,E 2nd St
160,37.952590,-91.569045,Pvt Drive 3053
160,38.010357,-91.655909,Parker Ln
185,37.990793,-91.650895,Pvt Drive 2292/Jones Rd
185,37.920661,-91.767192,Short St/Ann Lee Dr
276,37.955676,-91.763075,Ozark St/Gulf Ave
185,37.957886,-91.759745,/E 18th St
246,37.997069,-91.629603,N Louise Ave
246,37.983295,-91.694220,Old Hwy 66
185,37.999807,-91.559390,Pvt Drive 3625
185,37.942907,-91.852685,/Martin Spring Outer Rd
160,37.944579,-91.765422,E 1st St
246,37.982709,-91.720915,Center Dr
160,37.953441,-91.748009,McCutchen Dr/Truman Ave
390,37.959603,-91.765504,E 19th St/N Walnut St
305,38.024740,-91.548628,/Vineyard Outer Rd
160,37.968373,-91.632693,State Hwy Bb
185,37.946945,-91.770592,W 4th St/E 4th St/N Elm St
160,37.949014,-91.711996,Rd 41/Pvt Drive 3071
445,37.947802,-91.767595,E 5th St/N Cedar St
246,37.953385,-91.784140,Joyce Ave
160,37.966308,-91.730557,Limestone Ln
276,37.942404,-91.771123,State Hwy 72
185,37.997999,-91.618829,W James Blvd/N Bourbeuse St
185,37.992951,-91.603802,Holly Ln
526,37.959615,-91.766612,E 19th St/N Cedar St
160,37.940289,-91.878886,/Eisenhower St
160,37.987955,-91.642385,/St James Rd
684,37.947926,-91.775976,W 5th St/Kingshighway
185,37.943581,-91.936557,Outer Rd/Co Rd 8490/I- 44
276,37.945366,-91.900375,/I- 44
334,37.949716,-91.761901,Holloway St
246,37.945671,-91.877784,Newburg Rd
160,37.994796,-91.612784,S Jefferson St/W Church St
160,38.003345,-91.605267,E James Blvd
160,37.915095,-91.773786,Little Oaks Rd
362,37.941029,-91.778070,/S Spilman Ave
418,37.943212,-91.776481,/S Faulkner Ave
185,37.946635,-91.761948,Holloway St/Orchard Dr
216,37.943848,-91.769592,Rhodes Ave/S Oak St
160,37.955676,-91.758153,Heller St/Gulf Ave
160,37.977847,-91.739709,Old Hwy 66/Co Rd 2020
445,37.949937,-91.773581,W 8th St/N Main St
160,37.963492,-91.772394,Vichy Rd
246,37.956567,-91.764011,Iowa St/Arkansas Ave
160,37.918259,-91.974507,State Hwy D
305,38.009244,-91.604716,St David St/St Ann Ave
246,37.871712,-92.017709,/I- 44
160,37.889885,-91.563663,/State Hwy 68
160,37.940529,-91.778820,/Strobach St
246,37.965265,-91.770917,Rd 35
160,37.945797,-91.886744,Mount Olive Rd
276,37.944371,-91.855656,Co Rd 7100
1174,37.954607,-91.777101,/N Bishop Ave
185,37.940249,-91.812367,Co Rd 22/Old Wire Outer Rd
246,37.980884,-91.711839,/Old Hwy 66
216,37.984579,-91.680368,Dillon Outer Dr
276,37.944960,-91.877810,N Patton St/Newburg Rd/I- 44
334,37.942932,-91.770561,S Elm St
160,37.902748,-91.779495,/US Hwy 63
185,37.770123,-91.935826,/Stevenson Rd
334,37.960678,-91.765535,N Walnut St
160,37.943531,-91.801322,Yale Ave
160,37.989214,-91.655077,I- 44
246,37.961096,-91.769942,I- 44
246,37.983283,-91.694309,Old Hwy 66
216,37.944768,-91.859213,I- 44
216,37.993788,-91.613693,S Meramec St/W Johnson St
160,37.971491,-91.588909,State Hwy 8
160,37.965968,-91.712890,/Forest Lake Dr
160,37.913398,-91.741470,/Curry Ct
362,37.959066,-91.770006,N Elm St
246,37.944834,-91.866930,I- 44
160,37.976791,-91.718078,/Old Saint James Rd
160,37.960852,-91.731672,/Co Rd 3010
160,38.011814,-91.706242,Corral Dr/Turner Rd
216,37.936964,-91.771176,/S Rolla St
334,37.942419,-91.772856,State Hwy 72/Stephendale Ct
445,37.945097,-91.787342,/Fairgrounds Rd
160,37.957423,-91.761961,Holloway St/Missouri Ave
160,38.009128,-91.777156,/Rd 34
160,37.920711,-91.766872,S Rolla St/Ann Lee Dr
185,37.920669,-91.971284,High St
185,37.943500,-91.771643,S Pine St
276,37.957426,-91.777976,I- 44
160,37.955057,-91.759980,Leroy St/E 14th St
160,37.977205,-91.747728,/Pr Rd 2007/Co Rd 2000
160,37.961506,-91.757119,/Farrar Dr
160,37.947869,-91.757517,Irene Ln
305,37.948332,-91.789749,I- 44
160,37.816482,-91.782561,/Rhea Church Rd
185,38.002779,-91.619008,Grover St/W Marcella St
185,37.930591,-91.785752,Cedar Grove Rd
160,38.021509,-91.617239,/Co Rd 1020
160,37.937396,-91.746565,Curtis Dr/Scottsvale Dr
160,37.911024,-91.714848,/State Hwy F
390,37.954847,-91.785279,/I- 44
160,37.968171,-91.970420,/Pvt Dr 8507
185,37.947493,-91.758452,Forest Dr
390,37.937264,-91.777361,/S Bishop Ave
579,37.959371,-91.770726,N Pine St/N Bishop Ave
216,37.908983,-91.982431,/I- 44
362,38.008089,-91.620481,/N Jefferson St
185,37.944582,-91.764221,Nippert Dr/Poe Dr
160,37.912035,-91.976435,/State Hwy D
160,37.824188,-91.798664,Rhea Church Rd/US Hwy 63
334,37.994082,-91.631433,James Dr/Anthony Ave
160,37.954688,-91.741503,Timbercreek Rd
160,37.964090,-91.811656,/State Hwy Y
160,37.965245,-91.743313,/Parker Ct
160,37.978212,-91.723409,Old Hwy 66
246,38.028191,-91.540208,Vineyard Outer Rd
185,37.954394,-91.764022,/Iowa St
334,37.931345,-91.779369,/Lanning Ln
160,37.948639,-91.752453,/Forum Dr
160,37.950938,-91.706102,State Hwy Bb
160,37.960567,-91.690296,Wilmina Rd
246,37.940151,-91.748408,/Richard Dr
185,37.963647,-91.747987,California Dr/McCutchen Dr
160,37.908332,-91.774648,/US Hwy 63
390,38.004985,-91.618967,N Jefferson St
216,37.940297,-91.809110,/Old Wire Outer Rd
216,37.942381,-91.767568,S Cedar St/State Hwy 72
334,37.943277,-91.748106,Pine Tree Rd
1123,37.950784,-91.777180,W 9th St/N Bishop Ave
246,37.961102,-91.770845,I- 44
305,37.942966,-91.772380,S Rolla St
185,37.961636,-91.769318,200 Vienna Rd
216,37.912891,-91.902266,E 1st St/Water St
710,37.957627,-91.771011,W 17th St/N Pine St
246,37.983822,-91.685980,Dillon Outer Dr
390,38.008448,-91.607754,St Richard St/St Ann Ave
216,37.951683,-91.783810,/Asher St
185,37.948075,-91.741363,Dover Dr/Whitney Ln
1020,37.960088,-91.767788,N Olive St/N Bishop Ave
185,37.958982,-91.713282,Pine Forest Dr
185,37.930082,-91.786527,/Cedar Ter
276,37.965952,-91.765142,/N Bishop Ave
160,37.942852,-91.882562,Hwy T/Schofer St
216,37.923942,-91.762366,Becca Dr
246,37.951531,-91.754084,E 10th St/Angus Valley Dr
160,37.990333,-91.690856,Clearwater Dr
160,37.991581,-91.643822,/S Outer Rd
305,37.945375,-91.770592,N Elm St/W 2nd St/E 2nd St
445,37.943261,-91.777292,S Bishop Ave
185,37.944209,-91.776491,N Faulkner Ave/S Faulkner Ave/Black St
1174,37.950003,-91.777232,W 8th St/N Bishop Ave
216,37.935332,-91.746523,Curtis Dr
185,37.955480,-91.747937,Hillview Dr/McCutchen Dr
526,37.958873,-91.773358,Vichy Rd/W 18th St
334,38.015454,-91.584585,I- 44
185,37.960641,-91.756459,/Megan Ct
246,37.979388,-91.719289,Hy Point Industrial Dr/I- 44
276,37.966907,-91.771717,Roseglade Rd/Land End Rd
276,37.944320,-91.855434,/Co Rd 7100
160,37.936085,-91.747971,Pine Tree Rd
160,37.935404,-91.834082,/Martin Spring Outer Rd
185,37.989973,-91.650571,S Outer Rd
246,37.935046,-91.778347,/Oaklane Dr
160,38.002995,-91.603752,Red Bird Rd
160,37.983308,-91.689671,Dillon Outer Dr
160,37.912551,-91.741477,Cinnamon Ct
216,37.945534,-91.838381,/Co Rd 18
390,37.950219,-91.788622,W 9th St
305,37.940621,-91.803269,I- 44
160,37.985503,-91.687848,State Hwy Ra
216,37.963544,-91.757116,Farrar Dr
246,38.025887,-91.544525,I- 44
160,37.967175,-91.777409,Woodcrest Cir/Alpha St
246,37.994744,-91.634847,Old Hwy 66
216,38.001663,-91.618419,Grover St/Aida St
160,37.965632,-91.746074,Harris Ct
160,37.971111,-91.742528,/Red Oak Dr
160,37.933337,-91.744216,/State Hwy 72
160,37.976597,-91.721586,Old Saint James Rd
160,38.021133,-91.630627,/N Hwy 68
160,37.710519,-91.867783,/Old Hwy 63
185,37.957767,-91.706430,/Co Rd 3110
160,37.834412,-91.796997,Pvt Drive 7244/US Hwy 63
160,37.942994,-91.884925,Schofer St
334,37.954589,-91.781769,Powell Ave
185,37.932298,-91.754202,Chestnut Dr/Laurel Dr
788,37.949219,-91.777294,W 7th St/N Bishop Ave
185,37.944577,-91.761040,Woodland Dr/Salem Ave
276,37.944239,-91.750227,/Soest Rd
160,37.946186,-91.742476,October Pl
160,37.945048,-91.772649,N Rolla St/
334,37.993280,-91.640512,Walters Dr
160,37.960313,-91.757157,/Farrar Dr
246,37.948373,-91.764072,Iowa St/E 6th St
246,37.947622,-91.790052,I- 44
216,37.945380,-91.776479,N Faulkner Ave/W 2nd St
160,37.967551,-91.773597,/Rd 28
160,37.951441,-91.743122,/E 10th St
246,37.986411,-91.668569,I- 44
605,37.953141,-91.767468,E 12th St/Bardsley Rd
246,37.953446,-91.749929,/Truman Ave
246,38.002972,-91.621581,I- 44
276,37.993477,-91.640511,Walters Dr
305,37.943020,-91.772391,S Rolla St
185,37.974493,-91.758441,/Co Rd 2040
185,37.977737,-91.770912,Rd 35
160,38.028714,-91.607520,/Rd 112
216,37.963970,-91.770855,Fairburn Dr/Rd 35
185,37.908002,-91.987237,/I- 44
390,37.951424,-91.762813,Bb Hwy/High St
185,37.942858,-91.876921,Rd 7280
185,38.009383,-91.616678,/Sidney St
334,37.945254,-91.888585,I- 44
160,37.958863,-91.775884,I- 44
1355,37.955175,-91.771093,W 14th St/N Pine St
160,37.943676,-91.838343,Co Rd 18/Pvt Dr 8165
160,37.977005,-91.724757,N Outer Dillon Rd
216,37.949175,-91.764077,Iowa St/E 7th St
185,38.010986,-91.604900,Sidney St
246,37.945043,-91.888182,/I- 44
276,37.971210,-91.753185,/Tenbrink Dr
305,37.939736,-91.806231,Martin Springs Dr
160,37.996137,-91.629630,N Louise Ave
631,37.951440,-91.765298,Maple St/Bb Hwy
160,37.942591,-91.939959,/I- 44
216,37.943062,-91.939611,/I- 44
246,37.974909,-91.752515,I- 44
185,37.919826,-91.968978,I- 44
160,37.919034,-91.728939,State Hwy 72
246,38.003024,-91.618463,/W Marcella St
552,37.956599,-91.772477,N Rolla St/W 16th St
160,37.927547,-91.760144,Country Ln
216,37.984025,-91.686009,I- 44
160,37.930885,-91.748124,Winchester Dr
246,37.943113,-91.783886,Lynwood Dr/Matlock
305,37.949542,-91.761892,Holloway St/E 7th St
160,37.940084,-91.743071,Coventry Ln/Whitecliff St
160,38.031591,-91.531706,/Vineyard Outer Rd
160,37.902037,-91.648745,/State Hwy F
246,37.947217,-91.790486,/I- 44
418,37.946058,-91.779779,N Walker Ave/I- 44 Bus
160,37.910538,-91.978935,State Hwy D
160,37.992434,-91.634718,W Springfield Rd
185,37.867709,-92.022973,Powellville Outer Rd
160,37.974948,-91.755708,/Old Hwy 66/Co Rd 2000
160,37.967906,-91.747033,Old St James Rd
160,37.999894,-91.618397,/N Meramec St
160,37.936863,-91.753487,Newcastle Dr
185,37.970379,-91.742355,Red Oak Dr/Oak Forest Dr
276,37.951436,-91.764033,Iowa St/Bb Hwy
185,37.989883,-91.650886,S Outer Rd/Forrest Grove Rd
246,37.982884,-91.692527,Dillon Outer Dr
216,38.000483,-91.617750,Grover St/Florine St
160,37.967617,-91.768251,Pvt 8032
185,37.948398,-91.765344,E 6th St/Maple St
276,37.957602,-91.768317,E 17th St
390,38.004974,-91.618911,I- 44
276,37.968878,-91.771735,Land End Rd
160,37.860644,-91.922241,US Hwy Forest Srvc Rd 1592
160,38.035896,-91.647820,N Hwy 68
276,37.939603,-91.757419,Sheron Ave/State Hwy 72
334,37.951448,-91.769590,/N Oak St/Bb Hwy
526,37.957622,-91.770545,W 17th St/
185,38.001904,-91.619974,N Meramec St
334,37.951446,-91.769054,Bb Hwy
246,37.908776,-91.983990,I- 44
216,37.948265,-91.747537,Burgher Dr/Whitney Ln
418,37.954321,-91.784101,/Duane Ave
552,38.007463,-91.620161,N Jefferson St
185,37.921267,-91.971046,High St
160,37.854015,-91.798270,US Hwy 63
246,37.992723,-91.625005,Elm St
185,37.918408,-91.969870,I- 44
160,37.919992,-91.766876,S Rolla St/Ann Lee Dr
160,37.959979,-91.763535,Sharp Rd
418,37.998849,-91.615575,/N Jefferson St
684,37.940422,-91.803252,I- 44
160,37.960108,-91.707122,Pine Needle Cr/Pine Forest Dr
160,37.908409,-91.984613,/I- 44
160,37.905433,-91.654672,/State Hwy F
160,37.968644,-91.708265,/Arbor Cir
160,38.053604,-91.585524,/State Hwy B
160,37.977339,-91.718606,S Outer Dillon Rd
276,37.993742,-91.637515,Old Hwy 66
160,37.922192,-91.798873,/Mc Dowell Ln/Cedar Grove Rd
276,37.992853,-91.635401,Cornick Dr/Lola Ln
185,37.918280,-91.970582,I- 44
160,37.947013,-91.761944,4th St/Holloway St
418,37.956603,-91.768866,N Oak St/E 16th St
160,37.956517,-91.757221,/Arkansas Ave/Farrar Dr
246,37.952258,-91.738671,/Stoltz Dr
216,37.959834,-91.782564,Regal Pl
160,38.035044,-91.784484,/Rd 29
445,37.951474,-91.771530,N Pine St/W 10th St
418,37.945239,-91.908685,I- 44
160,37.947127,-91.803290,Sally Rd/Meadow Ln
185,37.961063,-91.794250,/State Hwy E
185,38.005502,-91.611277,St Johns Ave
605,37.953013,-91.767610,/Bardsley Rd
185,37.702977,-91.865564,Oak St/High St
185,37.921189,-91.780163,US Hwy 63
276,38.010678,-91.604490,Red Bird Rd
246,37.992010,-91.612743,Cartall St/S Jefferson St
160,37.948269,-91.743407,Whitney Ln/Fox Creek Rd
185,37.990308,-91.639054,W Springfield Rd
185,37.969095,-91.706412,Rd 44/Co Rd 3110
579,37.949191,-91.775168,N State St/W 7th St
160,37.943858,-91.738775,Lovers Ln/Co Rd 3000/Soest Rd
445,37.949922,-91.767369,Bulldog Run
160,37.986028,-91.612637,S Jefferson St
216,37.944125,-91.741346,Bittersweet Ln
246,37.945607,-91.902095,Doolittle Outer Rd
160,37.988430,-91.725315,/State Hwy V
246,37.945192,-91.883383,Hwy T/I- 44
185,37.999551,-91.618134,N Meramec St/Opal St
334,37.953370,-91.784274,Duane Ave
160,37.919173,-91.766880,S Rolla St/Ann Lee Dr
276,37.938096,-91.747187,Waterford Ct
762,37.953704,-91.778628,Spring Ave
216,38.033457,-91.525889,I- 44
631,37.945282,-91.782061,/I- 44 Bus
160,37.953126,-91.735750,/Wellington Dr
160,37.984181,-91.683259,/Dillon Outer Dr
160,37.974520,-91.828009,State Hwy Y
160,38.000010,-91.614549,N Seymour St/E James Blvd
788,37.953255,-91.778636,Spring Ave/W 12th St
160,37.961778,-91.781617,Meriweather Ct/Meriweather Rd
160,37.930884,-91.748091,Winchester Dr/Hwy O
1174,37.954185,-91.777102,W 13th St/N Bishop Ave
185,37.943814,-91.764805,Rolla Gardens Dr
160,37.899988,-91.707742,Co Rd 148
185,37.920853,-91.971657,Arlington Outer Rd
160,37.751724,-91.859253,/Lucas Rd
160,37.970139,-91.739913,White Oak Ct
185,37.946157,-91.772594,N Rolla St/W 3rd St
185,37.943063,-91.768550,S Olive St/Phelps Ave
216,37.951448,-91.743676,E 10th St
160,37.923010,-91.898630,Main St
418,37.945251,-91.890313,I- 44
276,38.014382,-91.623852,/N Hwy 68
185,37.981893,-91.704402,Old Hwy 66
160,37.998666,-91.613553,/N Seymour St
276,37.951860,-91.767599,/N Cedar St
160,37.971395,-91.736637,Old St James Rd
185,38.003218,-91.618028,W Marcella St/N Jefferson St
160,37.938928,-91.816309,/Martin Springs Dr/Martin Spring Outer Rd
216,37.992781,-91.643616,Co Rd 2292
160,37.940606,-91.782112,Strobach St/Edith Ave
246,37.944237,-91.895848,Schofer St/Bradley St
390,37.956822,-91.779444,I- 44
160,37.975033,-91.593718,Deer Run Ln/
216,37.979257,-91.719010,I- 44
246,37.951511,-91.788435,I- 44
216,37.956083,-91.781851,Nagogami Rd/I- 44
216,37.954848,-91.765255,Maple St/E 14th St
185,37.920937,-91.971166,High St
499,37.946394,-91.779026,N Spilman Ave/I- 44 Bus
160,37.964153,-91.745166,Clayton Ct/College Hills Dr/Hubbard Ct
246,37.949168,-91.766565,N Walnut St/E 7th St
276,38.010752,-91.604615,Red Bird Rd/State Hwy B
185,37.920005,-91.969764,/Arlington Outer Rd/I- 44
185,37.940504,-91.812388,Co Rd 22
658,37.964133,-91.755249,Holt Ave/Lauren Ct
185,37.936505,-91.750791,/Johnson St/State Hwy 72
185,37.920943,-91.766870,S Rolla St
305,37.951436,-91.764245,Bb Hwy
160,37.949256,-91.746515,Highland Dr/S Murry Ln
160,37.944499,-91.901303,Eisenhower St/
160,37.990915,-91.631453,Co Rd 3390
305,38.014168,-91.588395,I- 44
865,37.960206,-91.767202,/N Bishop Ave
246,37.993422,-91.624919,W Washington St
160,37.949248,-91.752531,Highland Dr/Forum Dr
185,37.953100,-91.736429,Wellington Dr
305,37.944522,-91.864223,Eisenhower St/Grant St
216,37.957878,-91.761946,Holloway St/E 18th St
216,37.952749,-91.780232,/Poole Ave
185,37.980746,-91.718648,Center Dr/Old Hwy 66
185,37.966420,-91.712992,/Forest Lake Dr
160,37.960295,-91.763364,/Sharp Rd
160,37.921720,-91.899207,Main St
276,37.943587,-91.776485,/S Faulkner Ave
185,37.702190,-91.865553,High St/Elm St
499,37.956811,-91.776336,N Bishop Ave/Watts Dr
246,37.987387,-91.661543,/Dillon Outer Dr
246,37.986188,-91.668598,Dillon Outer Dr
246,37.947779,-91.761925,Holloway St/E 5th St
160,37.933726,-91.757836,Winchester Dr/Oxford Dr
160,37.989441,-91.655158,I- 44
160,37.931458,-91.775438,Lanning Ln
160,37.972843,-91.777266,Eagleson Dr/Rd 28
160,37.937034,-91.761847,Southview Dr
246,37.971333,-91.753180,/Tenbrink Dr
839,37.951527,-91.752377,E 10th St/Forum Dr
216,38.006062,-91.611266,St Johns Ave/St Marcus Ave
160,37.892278,-91.782676,/US Hwy 63
246,37.945403,-91.904579,/I- 44
160,37.928731,-91.693210,Co Rd 3200/Rd 139
185,37.957305,-91.747983,Woodlawn Dr/McCutchen Dr
160,37.994257,-91.620812,Pinto St/W Washington St
276,37.956648,-91.782787,/Nagogami Rd
185,38.000773,-91.617926,Grover St/Florine St
160,37.931809,-91.782849,Lanning Ln
160,37.956623,-91.767179,/E 16th St
160,37.917871,-91.750886,Casey Ln/Kaddison Ct
276,37.951449,-91.767598,N Cedar St/Bb Hwy
246,37.974268,-91.877044,Co Rd 14/
160,37.941392,-91.803294,Sally Rd/
185,37.941434,-91.843240,I- 44
185,37.942952,-91.881980,/Schofer St
160,37.956600,-91.660358,/Grebl Rd
418,37.949176,-91.774161,Park St/W 7th St
160,37.975196,-91.755438,/Co Rd 39/Co Rd 2040
160,37.947756,-91.718852,Edmondson Hills Dr
276,37.959406,-91.782421,White Columns Dr
216,37.992695,-91.633665,W Springfield Rd/Marion Dr
160,37.943641,-91.854027,/Co Rd 7100/Martin Spring Outer Rd
160,37.955920,-91.753685,Homelife Plz
276,37.945342,-91.873277,Doolittle Outer Rd/
246,37.993298,-91.613331,S Meramec St/Rhoda St
472,38.007012,-91.620280,Parker Ln
185,37.957423,-91.761172,/Missouri Ave
216,37.944490,-91.877824,N Patton St
246,37.993556,-91.630427,W Springfield Rd
160,37.996369,-91.623789,/W James Blvd
216,37.952437,-91.741848,Condo Dr
185,38.011045,-91.604678,Mitejo Cir/Sidney St
160,37.977328,-91.748463,Co Rd 2005/Co Rd 2000
445,37.950924,-91.788930,I- 44
710,37.942388,-91.777275,S Bishop Ave/Ridgeview Ave/State Hwy 72
216,37.942410,-91.774755,/State Hwy 72
160,37.945725,-91.886688,Doolittle Outer Rd/Mount Olive Rd
246,38.012604,-91.611726,Amanda Ave/Benjamin Blvd
305,37.961535,-91.765685,I- 44/N Bishop Ave
160,37.893087,-91.787910,Pvt Dr 7143/Point Bluff Rd
813,37.947564,-91.777363,/N Bishop Ave
160,37.953426,-91.836729,Co Rd 19
185,38.011698,-91.596636,/Industrial Dr
246,37.964044,-91.761798,/I- 44
160,37.942860,-91.939961,/I- 44
334,37.997983,-91.614967,/N Jefferson St
1304,37.952840,-91.777106,/N Bishop Ave
472,37.963685,-91.754040,/Holt Ave
185,37.947259,-91.759705,Forest Dr/Woodland Dr
185,37.940473,-91.776522,Williams Rd/S Faulkner Ave
160,37.880538,-92.014722,Clementine Outer Rd
216,37.950067,-91.787220,W 9th St/Fairgrounds Rd
160,37.938971,-91.823837,I- 44
185,37.942336,-91.763608,Iris Ct/State Hwy 72
160,37.931548,-91.748048,Hwy O
276,37.945157,-91.900379,/I- 44
216,37.934083,-91.745303,Commercial Dr/State Hwy 72
185,37.939936,-91.832689,Co Rd 18
160,37.994433,-91.616122,S Bourbeuse St
185,37.982576,-91.699494,Old Hwy 66
246,37.966063,-91.760543,I- 44
185,37.944906,-91.904855,Eisenhower St
526,37.963690,-91.765800,N Bishop Ave
160,38.009385,-91.618591,/Sidney St
246,37.996224,-91.621303,/N Carson St
160,38.006918,-91.610299,St Marie Ave/St Michael Ave
185,37.939379,-91.751141,Nancy Ln/Laird Ave
216,37.958005,-91.763729,Old St James Rd/E 18th St
160,37.940565,-91.756664,Gano Dr
362,37.940473,-91.802077,Martin Spring Dr
185,37.989245,-91.612778,Anna St/S Jefferson St
185,37.958403,-91.764182,E 18th St
246,37.941156,-91.760551,/State Hwy 72
160,37.934734,-91.834620,/Martin Spring Outer Rd
160,37.959332,-91.753048,E 18th St
160,37.965393,-91.710125,Co Rd 3040
305,37.992315,-91.614551,S Bourbeuse St
160,37.972561,-91.697493,St James Rd
160,37.910979,-91.711995,State Hwy F/Pvt Drive 4005
160,37.915098,-91.773043,/Little Oaks Rd
246,37.931155,-91.749880,Winchester Dr/Devonshire Ln
160,38.009198,-91.776527,/Rd 34
305,37.965826,-91.773220,/Rd 28
788,37.951491,-91.775110,N State St/W 10th St
246,37.993329,-91.631267,W Springfield Rd/Anthony Ave
185,37.995312,-91.616814,S Bourbeuse St
216,38.020610,-91.572108,I- 44
418,37.947790,-91.766589,N Walnut St/E 5th St
216,37.841300,-91.663194,Co Rd 161
216,37.999298,-91.619824,/N Bourbeuse St
160,38.014589,-91.580552,/Co Rd 3610
160,37.947789,-91.764113,Iowa St/E 5th St
160,38.022730,-91.552013,/State Rd Kk
334,37.956160,-91.779208,Nagogami Ter
185,37.942637,-91.940322,I- 44
216,37.944150,-91.854984,Co Rd 7100
246,37.997464,-91.630248,I- 44
445,37.951071,-91.788297,W 10th St
160,37.913340,-91.741475,Curry Ct/Southwood Dr/Cinnamon Ct
160,37.992272,-91.603921,Boys Town Rd
160,37.919057,-91.749000,Britt Ln
216,37.984425,-91.686066,Old Hwy 66
160,37.989680,-91.638498,Terry Ln
216,37.944953,-91.859431,I- 44
185,37.939735,-91.746528,Sherwood Dr/Curtis Dr
185,37.989703,-91.612773,S Jefferson St
185,37.924304,-91.756803,Carriage Ln/Countryside Dr
160,38.007052,-91.631855,Parker Ln
216,37.945291,-91.913678,I- 44
216,37.959613,-91.764457,E 19th St
334,37.995808,-91.632355,I- 44
160,37.938718,-91.883874,/Bauman Dr
472,37.949926,-91.767578,E 8th St/N Cedar St/Bulldog Run
160,37.988565,-91.602084,Kathryn Dr/Trevor Ln
160,37.992091,-91.590875,/State Hwy Dd
185,37.991268,-91.635967,Terry Ln
185,37.946626,-91.772594,N Rolla St/
246,37.992730,-91.625174,Elm St
246,37.998180,-91.617068,N Meramec St/
185,38.000971,-91.616758,Florine St/N Jefferson St/St Francis Ave
216,37.992267,-91.635394,Nelson Hart Rd/W Springfield Rd
185,37.930763,-91.786444,Cedar Ter/Cedar Grove Rd
631,37.949172,-91.773577,W 7th St/N Main St
160,37.835271,-91.796986,US Hwy 63
185,37.961235,-91.711614,/Lakemont Dr
185,37.940697,-91.759648,Pete Ave/State Hwy 72
185,38.009057,-91.620986,N Jefferson St
160,37.995136,-91.618607,W Washington St/S Jackson St
160,37.965221,-91.735012,Nolte Ct
362,37.942400,-91.770564,S Elm St/State Hwy 72
160,37.752265,-91.859426,Lucas Rd
276,37.961884,-91.754607,Carol St/Tory Ave
579,37.953168,-91.770175,E 12th St
160,37.967762,-91.709278,Arbor Cir/Forest Lake Dr
216,37.984099,-91.683858,/Dillon Outer Dr
160,37.895233,-91.783634,/US Hwy 63
160,37.880603,-91.795341,Southwind Cir/Beaver Manor Dr
185,37.944765,-91.858839,I- 44
305,37.948857,-91.769586,N Oak St
246,37.983091,-91.695724,/Old Hwy 66
160,37.952846,-91.748010,McCutchen Dr
160,37.982248,-91.687933,Earnie Rd
276,37.975609,-91.878653,Ridge Rd
160,37.751800,-91.859284,/Lucas Rd
185,37.957366,-91.710943,Meadowview Ln
160,37.917266,-91.778259,/US Hwy 63
246,37.945048,-91.775800,N Rucker Ave
185,37.942704,-91.940692,I- 44/Sugartree Outer Rd
160,37.939181,-91.816618,I- 44
160,37.990324,-91.724669,/State Hwy V
276,37.935288,-91.747885,Hwy O/Pine Tree Rd/State Hwy 72
526,37.945428,-91.781551,/I- 44 Bus
216,37.943757,-91.936751,Co Rd 8490/I- 44
216,37.945380,-91.744475,Old English Rd/Whitehall Rd
160,37.942996,-91.885188,Schofer St
216,37.978219,-91.720932,/N Outer Dillon Rd
305,37.945914,-91.789400,Gale Dr
160,37.945364,-91.767570,N Cedar St/E 2nd St
1123,37.959997,-91.768275,N Bishop Ave
185,37.940534,-91.779546,/S Walker Ave/Strobach St
216,38.010992,-91.604343,State Hwy B
185,37.995373,-91.612913,W Scioto St/S Jefferson St/E Scioto St
246,37.979867,-91.714534,/Dillon Outer Dr
579,37.951467,-91.780174,Poole Ave/W 10th St
185,37.702452,-91.864561,/Locust St
160,37.949332,-91.694745,/Summerfield Dr
160,37.988559,-91.794027,/Corinth Rd
160,37.924808,-91.757024,Countryside Dr
160,38.022088,-91.581342,/E Springfield Rd
160,37.964201,-91.748002,McCutchen Dr/College Hills Dr
160,37.890909,-91.796315,/Co Rd 7145
216,37.991451,-91.564386,/Pvt Drive 3625
160,37.936683,-91.753333,Newcastle Ct
160,37.984906,-91.682480,/Old Hwy 66
160,37.966806,-91.703665,Country Club Dr
160,37.965358,-91.708895,Co Rd 3040/Wildwood Ln
160,37.944525,-91.937515,Co Rd 8490
160,37.918372,-91.766894,S Rolla St
246,37.964038,-91.770064,Fairburn Dr
185,37.944263,-91.748102,Forum Dr/Pine Tree Rd/Soest Rd
216,37.955987,-91.789667,Nagogami Rd
216,38.003607,-91.618275,N Jefferson St
160,37.964196,-91.747780,College Hills Dr
216,37.915100,-91.770384,/Little Oaks Rd
185,37.886031,-92.013439,/Clementine Outer Rd
552,38.006833,-91.619820,Parker Ln/N Jefferson St/State Hwy B
362,37.942393,-91.769596,S Oak St/State Hwy 72
185,37.934138,-91.777950,S Bishop Ave
216,37.941070,-91.755671,Salem Ave
160,37.971497,-91.736408,Old St James Rd
216,37.924427,-91.743181,Inverness Ln/Barnitz Ave
160,37.967992,-91.713543,Forest Lake Dr/Foliage Ct
160,37.942165,-91.757343,Holmes Ln/Salem Ave
160,37.971636,-91.761640,Rd 34A
160,37.959952,-91.752501,Forum Dr
362,37.964451,-91.751882,Forum Dr
246,37.945208,-91.856217,Co Rd 8140
216,37.963877,-91.773231,Valli-Hi Ave/Rd 28
160,37.980665,-91.752223,Tony Berg Rd/
305,38.007008,-91.615979,/State Hwy B
185,37.957327,-91.706912,Meadowview Ln
445,37.949943,-91.770186,/E 8th St/W 8th St
160,37.918046,-91.750159,Casey Ln
160,37.930607,-91.748096,Hwy O
472,37.943096,-91.777284,/S Bishop Ave
579,37.949151,-91.770710,/W 7th St
605,37.932406,-91.778312,S Bishop Ave
185,37.888530,-92.014231,/N Outer Rd
552,37.954123,-91.775120,N State St/
246,37.939246,-91.756696,Gano Dr/State Hwy 72
185,38.027586,-91.560167,Co Rd 1000
185,37.942681,-91.938621,Outer Rd W
160,37.880316,-91.794757,Beaver Manor Dr/US Hwy 63/Beaver Creek Rd
526,37.943291,-91.789673,Howard Johnson Dr/Kingshighway
362,37.945521,-91.890599,Doolittle Outer Rd
305,37.941460,-91.797161,/Martin Spring Dr
160,37.927818,-91.739794,Osage Dr/
185,37.867166,-92.022771,/I- 44
216,37.997546,-91.614609,W Springfield Rd/N Jefferson St/S Jefferson St/E Springfield Rd
684,37.954175,-91.770998,/W 13th St
246,37.981494,-91.706315,I- 44
362,37.955142,-91.778596,W 14th St/Spring Ave
246,37.985731,-91.676453,Old Hwy 66
185,38.008820,-91.620855,W Home Ave/N Jefferson St
305,37.952284,-91.783811,W 11th St/Asher St
160,37.974889,-91.827839,/State Hwy Y
362,37.958760,-91.780527,Collegiate Blvd
160,37.996250,-91.622905,/Oak St
160,37.999865,-91.612297,N Wishon St/E Eldon St
160,37.947778,-91.770582,W 5th St/E 5th St/N Elm St
160,37.918390,-91.749515,Casey Ln/Britt Ln
276,37.929229,-91.779035,/S Bishop Ave
305,37.954014,-91.766733,Bardsley Rd/E 13th St
160,37.705152,-91.868787,/US Hwy 63
216,37.931369,-91.777278,Lanning Ln
185,37.959609,-91.764012,E 19th St/
160,37.700487,-91.866599,Walnut St/Broadway St
246,38.023732,-91.549120,/State Rd Kk
160,37.967811,-91.709346,/Forest Lake Dr
160,37.992068,-91.589515,/State Hwy Dd
160,37.947407,-91.759062,Forest Dr
246,37.947759,-91.772566,W 5th St/N Rolla St
160,37.957252,-91.704842,/Oak Meadow Dr
684,37.950734,-91.774113,Park St/W 9th St
526,38.006703,-91.620123,/Parker Ln
276,37.945453,-91.877792,Doolittle Outer Rd/Newburg Rd
160,38.007051,-91.632012,Parker Ln/Matlock Dr
185,37.907776,-91.987133,/I- 44
362,38.004907,-91.618646,I- 44
305,37.953421,-91.784272,Duane Ave
185,37.953458,-91.748978,Scenic Dr/Truman Ave
185,37.944637,-91.775800,N Rucker Ave
276,37.936055,-91.776823,Oak Lane Dr
185,37.951369,-91.568792,Garret Rd/State Hwy 68
160,37.702168,-91.868615,US Hwy 63
185,37.992087,-91.590599,/State Hwy Dd
160,37.968816,-91.741957,Schrenk Ct
160,37.951437,-91.742842,E 10th St
276,37.945616,-91.903043,Doolittle Outer Rd
216,37.948808,-91.741366,Dover Dr
276,37.949981,-91.789321,I- 44
