Estimated daily crossings,Latitude,Longitude,Name
160,30.844567,-89.511856,Bill Watson Ball Park
160,30.566120,-89.681478,Boley Bypass Rd
216,30.764591,-89.521209,I- 59/Juniper Grove Rd
246,30.520348,-89.691058,Weems St
246,30.525688,-89.666083,Clarenda St/N Howard Ave
160,30.523191,-89.693322,Snyder Ln
865,30.845239,-89.541631,Fake 3 US Hwy 11/US Hwy 11
185,30.651260,-89.793542,Dumas Wise Rd
185,30.511778,-89.650687,Campers Cove/Scotch Pine Ln
185,30.546476,-89.672524,Poplar St/N McGeehee Ln
160,30.583996,-89.661250,US Hwy 11
160,30.729214,-89.341355,Silver Run Rd
160,30.573410,-89.666918,Upper Richarson Rd/Sanford & Son Rd/Richardson-Ozona Rd/Pullens Rd
160,30.852409,-89.558446,Beach Rd/Henrietta Ln
246,30.823938,-89.520873,Azalea St/Mimosa St
185,30.492880,-89.670790,Rhonda Ln/Robert Rd
185,30.572574,-89.663402,Julieanne Dr
1511,30.531645,-89.687933,Kirkwood St/5th Ave
216,30.545745,-89.663439,Millswood Rd/Parkwood Cir
185,30.530067,-89.672127,Cypress Ln/Palm St
445,30.522651,-89.680696,Harris St/US Hwy 11
160,30.833625,-89.548792,State Hwy 26/Rodeo St
160,30.725262,-89.773749,State Hwy 43/Oscar Smith Rd
160,30.583148,-89.643864,Pointe Clear Dr
445,30.832536,-89.531261,S Shivers St/Rawls St
736,30.510925,-89.691136,Kingsway Dr/Brookdale Dr
160,30.839858,-89.526952,S McGehee St
185,30.845935,-89.534270,N Barnett St/E Larkin I Smith Dr
160,30.516877,-89.562774,State Hwy 43
160,30.886335,-89.562853,Waguespack Ln
216,30.855120,-89.537756,W Ida Ave/N Columbia St
216,30.718285,-89.554736,I- 59/Savannah Millard Rd
499,30.529665,-89.686476,S Magnolia St/Goodyear Blvd
390,30.514212,-89.692984,Pinewood Dr/Betsy Dr
246,30.672830,-89.764457,State Hwy 43/Tassin Ln
185,30.525669,-89.629621,Ceasar Rd
334,30.847927,-89.496405,State Hwy 26/I- 59
445,30.532509,-89.677420,Doby Ave/Stevenson St
160,30.827724,-89.563140,Cary Kirkland Rd
185,30.713224,-89.601788,US Hwy 11
216,30.533214,-89.747001,Candace Ln
418,30.519405,-89.690635,Jarrell St/Burley St
160,30.489585,-89.699612,Margaret St/Marsha St
472,30.621257,-89.653447,Picayune St/US Hwy 11
736,30.546057,-89.670487,State Hwy 43
605,30.526568,-89.668257,N Blanks Ave/Baylous St
1200,30.547454,-89.668661,Stemwood Dr/US Hwy 11
160,30.986375,-89.551894,Hunting Club Rd/Ott Stanford Rd
160,30.753059,-89.371098,Lake St/North Ave
362,30.471961,-89.690369,Lois Ln
160,30.568470,-89.722430,State Hwy 43
160,30.829657,-89.593983,Peters Rd/Cornell Ln
160,30.536658,-89.593186,Amigo Ln
185,30.539428,-89.695231,River Rd/Gray Oak Dr
2168,30.845202,-89.543907,Old Stadium Rd
276,30.838643,-89.545041,Small Fruit Dr/Research Dr
185,30.542443,-89.634115,Leo Miller Rd/Sycamore Rd
246,30.539547,-89.651974,I- 59
160,30.671747,-89.365813,Barth Rd
499,30.846820,-89.541225,/Frontage Rd
1149,30.531196,-89.686924,Laurel St/5th Ave
160,30.518530,-89.721922,D Bales Rd/Koch Rd
246,30.628973,-89.652505,Hundley Rd/White Chapel Rd
160,30.773879,-89.581082,E T Poole Rd/US Hwy 11
160,30.619985,-89.615996,Lumpkin Rd/Crazy Tree Dr
276,30.561392,-89.650709,Fairway Dr/E Lakeshore Dr/Glenbrook Ct
390,30.540163,-89.670372,Cayten St/Maple Ave
334,31.003284,-89.417312,/I- 59
160,30.541244,-89.694450,River Rd
334,30.543157,-89.656229,/State Hwy 43
160,30.632376,-89.546313,Bradley Rd/Bouie Rd
185,30.617495,-89.650624,Anchor Lake Rd
605,30.515353,-89.696150,Sally Dr/Jackson Landing Rd
276,30.527325,-89.684083,Church St
160,30.899823,-89.636892,Horse Stomp Rd/Fords Creek Rd
185,30.517693,-89.708266,Monica Ln/Central Ave
216,30.648714,-89.646833,Mandi Ln
276,30.554162,-89.680683,Richardson Rd
160,30.656418,-89.609314,McNeill Steephollow Rd/Eliza Dr
305,30.823566,-89.518589,Pecan St/Spruce St
160,30.780076,-89.471156,Chisolm Trl/Restertown Rd
499,30.834631,-89.532818,W McClendon St/S St Charles St
276,30.517683,-89.689377,Davis St/Jackson Landing Rd
160,30.808109,-89.511329,S Main St
185,30.512791,-89.671051,Lakewood Dr/Camilla Cove
472,30.534680,-89.697827,Goodyear Blvd/N Beech St
246,30.554239,-89.597977,Curry Dr
246,30.519509,-89.644449,State Hwy 43/Messa Rd
185,30.520384,-89.598640,Salem Rd/Old Kiln Rd
276,30.529880,-89.675465,Roberson Ln
160,30.519726,-89.622147,Brentwood Dr/Smallwood Dr
160,30.925056,-89.465267,Pappy's Pl
216,30.750005,-89.567925,Max Lewis Ct/Dupont-Harts Chapel Rd
334,30.846812,-89.543173,W Bell St/Vo-Tec Rd
276,30.540557,-89.653354,Holly Ct
185,30.574872,-89.645051,Woodlark Cir/Grandview Ln
160,30.912643,-89.461118,Ansteorra Way/Queen's Hwy
160,30.500794,-89.718861,Davis Dawsey Rd/Jackson Landing Rd
160,30.833465,-89.551663,State Hwy 26
865,30.527297,-89.681776,Rester St/Williams Ave
160,30.642648,-89.696813,Homestead Dr
160,30.809833,-89.493264,Pipe Rd/Progress Rd
160,30.566748,-89.636557,/I- 59
185,30.553850,-89.701238,Kendrick Ln/Browning Cir
334,30.526819,-89.684231,Church St/W Canal St
1226,30.842674,-89.544047,Old Hwy 26/W North St/S High St
160,30.578718,-89.607678,Richard Johnson Rd/Rayburn Rd
160,30.924317,-89.458275,Hillsdale Gumpond Rd/I- 59/Orvisburg Rd
160,30.536583,-89.683278,N Magnolia St
579,30.544091,-89.647092,George Mitchell Rd
160,30.545336,-89.672427,Vaughn St/N McGeehee Ln
160,30.617707,-89.649278,Tom Seal Rd/Anchor Lake Rd
305,30.517000,-89.691343,Martin Luther King Jr Blvd/Jackson Landing Rd
185,30.585574,-89.661731,Old Hwy 11/Ivy St/US Hwy 11
1798,30.845762,-89.543984,Prcc Rd/Old Stadium Dr
160,30.472347,-89.687892,George St/2nd Ave
246,30.547992,-89.646870,I- 59
216,30.519555,-89.600403,Old Kiln Rd
160,30.565588,-89.575708,Windy Hills Dr W/Windy Hills Dr E/Ridgeway Dr
160,30.552774,-89.571713,Hunter Trce/Pointer Trl
160,30.938594,-89.449341,Holiday Dr/Stevens Dr
276,30.833297,-89.523345,Pete Jackson Dr
445,30.527492,-89.668265,Washington St/N Blanks Ave
185,30.470513,-89.688410,/US Hwy 11
216,30.542082,-89.667194,Laird St/N Grady Ave
160,30.602851,-89.661119,Rain Tree Dr
185,30.546755,-89.644785,Oak Hill Ln/George Mitchell Rd
1433,30.517762,-89.667565,Memorial Blvd/S Blanks Ave
160,30.600138,-89.664247,Ridgeland Dr
160,30.628537,-89.674763,Holcomb Carroll Rd/Oakmont Dr
276,30.534864,-89.690079,Holly St/3rd Ave
160,30.504284,-89.711566,Luther Davis Rd/Varnado Ln
362,30.531629,-89.677406,US Hwy 11
185,30.524203,-89.676909,Tate St
246,30.526817,-89.675150,E Third St/N Gray Ave
526,30.842902,-89.529287,Todd St
526,30.840944,-89.535586,W Erlanger St/S Julia St
185,30.524096,-89.675708,Tate St
160,30.559338,-89.662132,Country Club Rd
185,30.542103,-89.669580,Laird St/Posey St
160,30.647945,-89.653636,Lawrence Kennedy Rd
160,30.715497,-89.555443,/I- 59
216,30.571013,-89.775417,McSween Rd/Walkiah Bluff Rd
185,30.522464,-89.579220,Broadway Cir/Gledhill Way
160,30.924494,-89.465118,Pappy's Pl/Hillsdale Rd
552,30.828318,-89.524056,School Bus Cir/S Main St
276,30.528662,-89.691613,Manning St
216,30.824371,-89.519778,Sweet Gum St/Sweetgum St
216,30.535481,-89.696511,River Rd/5th Ave
605,30.561821,-89.664205,Lakeshore Dr
216,30.548988,-89.652984,Woods Rd/Sunrise Dr
185,30.563027,-89.640277,E Lake Shore Dr/Pine Barr Rd
418,30.520717,-89.688320,Taylor St
160,30.545649,-89.597016,Ambassador Dr/Ceasar Rd
305,30.527123,-89.685850,Loper St/W Canal St
160,30.520287,-89.647398,E Canal St/Jeff Wheat Rd
160,30.644580,-89.580603,Piney Rd/Harold Lee Rd
160,30.535125,-89.681406,Kety Dr/N Boley Dr
185,30.534072,-89.703256,James Thomas St/Cousin St
216,30.815310,-89.509921,I- 59
185,30.829480,-89.555280,Red Oak Ln
216,30.640491,-89.590113,I- 59
216,30.510429,-89.693045,Ausborn Rd
305,30.536534,-89.697825,W 4th Ave/N Beech St
160,30.621680,-89.745888,Quail Ct
160,30.923984,-89.450733,George Bilbo Rd/Hemlock Dr
185,30.640104,-89.646392,Papp's Cir/
160,30.553473,-89.646958,Rhett Dr
160,30.576020,-89.677483,Sherlock Rd
246,30.600540,-89.618708,W Union Rd/I- 59
362,30.831028,-89.524884,Career Center Cir
185,30.543023,-89.672450,W Sycamore Rd/S McGeehee Ln
579,30.517186,-89.682144,Memorial Blvd/US Hwy 11
216,30.513935,-89.671680,Lakewood Dr/Alpine Rd/Elm St
160,30.575202,-89.648000,Clear Ridge
276,30.543817,-89.660364,Ridgewood Ln/Crestwood Dr
390,30.837011,-89.528548,E Michigan St
185,30.601727,-89.546705,Crooked Ln
185,30.824532,-89.518598,Azalea St/Spruce St
276,30.533036,-89.693700,Goodyear Blvd/Forest St
216,30.617524,-89.650440,Anchor Lake Rd/W Union Rd
160,30.833537,-89.520946,Heatherland Dr/Jacobs Rd
362,30.519457,-89.671012,Joseph Ave
472,30.527436,-89.687497,W Canal St/S Magnolia St
160,30.840589,-89.525847,Roy St/Raine St
185,30.535815,-89.689575,Grice Ave
943,30.838272,-89.530830,Hope St/Village Cir
246,30.611783,-89.643411,Carolyn Cove/W Union Rd
185,30.623808,-89.628513,King Rd/Anchor Lake Rd
160,30.578129,-89.607669,/Rayburn Rd
362,30.519753,-89.696113,Sherd St
276,30.472365,-89.689835,2nd Ave/US Hwy 11
305,30.834299,-89.526985,S Mc Gehee St
185,30.750003,-89.561277,Ellis Hart Rd/Dupont-Harts Chapel Rd
276,30.510436,-89.710046,Victoria Dr/Hickman Ave
276,30.512959,-89.689905,Martin Luther King Jr Blvd/Merrydale Dr
216,30.524747,-89.666065,E Canal St/S Howard Ave/N Howard Ave
684,30.533027,-89.688438,W 4th Ave/N Juniper St
185,30.528133,-89.677030,4th St/N Haugh Ave/E Fourth St
160,30.576948,-89.646320,Hideaway Ln/Montrose Dr
160,30.522234,-89.676199,S Gray Ave
216,30.617700,-89.662086,Church St/Whitehead Ln
246,30.515332,-89.676006,Telly Rd
160,30.622838,-89.554582,Choctaw Dr
334,30.484631,-89.674525,I- 59
276,30.533506,-89.692132,Glenwood St/5th Ave
472,30.830748,-89.526153,School Bus Cir/S Main St
160,30.845770,-89.537706,W Larkin I Smith Dr/N Columbia St
334,30.624792,-89.718910,Rock Ranch Rd/Lodie Ln
160,30.652191,-89.583823,E Boley Rd/Lige Lee Rd
185,30.829735,-89.548788,Bilbo Hill Dr
160,30.843722,-89.511790,State Hwy 26/Bill Watson Ball Park
216,30.839873,-89.534395,S Main St/W Church St
185,30.514227,-89.676077,Proctor St/Cedar Grove Ave
185,30.525851,-89.629221,Ceasar Rd
160,30.597381,-89.547686,Mac Ln/Bouie Rd/Ronnie Dossett Rd
246,30.521201,-89.686050,Rosa St
160,30.840477,-89.574443,Birch Blvd/White Sand Rd
185,30.540629,-89.691620,Crestview Ln/Twisted Oak Dr
2009,30.844717,-89.546317,River Rd/Prcc Bus Barn Dr
160,30.569200,-89.725616,State Hwy 43/Ladner Ln
334,31.003413,-89.417742,/I- 59
684,30.530180,-89.677630,6th St/N Curran Ave
552,30.559136,-89.665101,Siebenkittel Cir/US Hwy 11
216,30.533695,-89.681397,Kety Dr
160,30.525495,-89.683412,Stephens St/S Quince St
160,30.516882,-89.563678,State Hwy 43
160,30.473623,-89.690845,Joe Fleming Rd/Dick Kennedy Rd/US Hwy 11
445,30.556963,-89.665630,Haydon Dr
216,30.513415,-89.670458,Camilla Cove
160,30.636666,-89.647856,US Hwy 11
472,30.531089,-89.694868,7th Ave/Forest St
334,30.844454,-89.536506,W South St/Yates Moody St
334,30.543741,-89.660235,Crestwood Dr
1071,30.843726,-89.548819,/Faculty Row
362,30.543029,-89.662553,Read Rd/State Hwy 43
160,30.516557,-89.685124,Hunt St
185,30.492651,-89.689938,Section Line Rd
1433,30.546090,-89.670111,State Hwy 43
334,30.926063,-89.456810,/I- 59
160,30.558933,-89.644301,Birdie Cir/Cooper Rd
185,30.478859,-89.696023,Lamar Hardy Rd/1st St
390,30.522067,-89.692849,Boler St
160,30.574322,-89.663266,Hanna Dr
305,30.518572,-89.678662,S Haugh Ave/Smith St
160,30.668760,-89.634503,Coleman Rd
160,30.539469,-89.692752,Gray Oak Dr
246,30.818934,-89.518603,Buck Kirkland Rd
160,30.630550,-89.607784,Galleon Way/Treasure Pt
185,30.656814,-89.582131,McNeill Steephollow Rd/I- 59
216,30.640776,-89.589984,I- 59
160,30.597691,-89.773379,Cumming Ln
216,30.836993,-89.528036,E Michigan St/State Hwy 26
185,30.937607,-89.450792,I- 59
246,30.867677,-89.493013,I- 59
276,30.517622,-89.683695,S Main St
246,30.526999,-89.698763,Palestine Rd/Union School Rd
216,30.531415,-89.614685,Woodridge Ln
160,30.723853,-89.595873,Sones Chapel Rd/Savannah Millard Rd/US Hwy 11
185,30.569452,-89.664547,Althea Dr
185,30.618103,-89.654780,Washington St/US Hwy 11
160,30.591221,-89.753890,State Hwy 43
305,30.971323,-89.433611,I- 59
185,30.662674,-89.549692,McNeill Steephollow Rd
246,30.519332,-89.685058,W Jarrell St/Hunt St
160,30.633596,-89.653298,Ford-Ashe Cir/White Chapel Rd
160,30.673012,-89.704044,Henleyfield McNeill Rd/Harry Sones Rd
185,30.945971,-89.446979,I- 59
305,30.526390,-89.685583,Mill St
160,30.517334,-89.625887,Brentwood Dr/Rosewood Dr
994,30.842499,-89.544992,Old Hwy 26/W North St/Horticulture Rd
246,30.520592,-89.665011,S Loftin St
160,30.588238,-89.662058,US Hwy 11/Elmer Jackson Rd
160,30.602813,-89.654154,Family Ln
160,30.515762,-89.605347,Hackberry Cir
185,30.848950,-89.538747,N Jackson St/W Hyde St
362,30.545318,-89.670772,Vaughn St
684,30.827608,-89.523539,S Main St/Industrial Dr
185,30.843755,-89.511701,State Hwy 26
276,30.847411,-89.526833,Todd Cir
185,30.573998,-89.667091,Upper Richarson Rd
160,30.666035,-89.396699,Garland Ladner Rd
160,30.477844,-89.695224,1st St/Andrew Seal Rd
160,30.530405,-89.707820,Palestine Rd
305,30.474752,-89.682650,I- 59
185,30.800416,-89.653177,State Hwy 26/Grady Lewis Rd
185,30.526561,-89.666101,Baylous St/N Howard Ave
160,30.536786,-89.713937,Plaisted Dr
160,30.870188,-89.576128,Wesley Dr/Oak Hill Rd
499,30.838750,-89.542567,Old US Hwy 11/US Hwy 11
185,30.814281,-89.560965,Robert Reid Rd/Garrett and McGill Dr/US Hwy 11
276,30.843872,-89.534693,S Dauphine St/E Willie St
390,30.834525,-89.527295,S Mc Gehee St/E Dove St
160,30.758665,-89.583076,Dupont-Harts Chapel Rd
276,30.837147,-89.546196,Horticulture Rd/Rabbiteye Dr
185,30.544798,-89.662414,Crestwood Dr
160,30.823693,-89.531563,Innerspace N/N Storage Rd
185,30.519351,-89.687082,Jarrell St/Southside St
160,30.676796,-89.719504,Henleyfield McNeill Rd/E Twin Oaks Ln
305,30.479045,-89.678810,I- 59
362,30.579628,-89.638889,W Lakeshore Dr/Surrey Cir
445,30.523804,-89.660541,E Canal St/I- 59
160,30.570589,-89.731251,State Hwy 43/Harold Stockstill Rd
160,30.840553,-89.574492,Birch Blvd/White Sand Rd
1563,30.526162,-89.680992,W Canal St/S Main St/N Main St
160,30.616016,-89.651470,Adams St/Railroad St
160,30.883306,-89.563120,Jones Rd/Dunn Rd
185,30.643245,-89.646477,Oddessa Dr/Nature's Path
472,30.527530,-89.687931,W Canal St/Rowland St
160,30.735820,-89.591264,US Hwy 11
362,30.542960,-89.648059,/Sycamore Rd
185,30.564857,-89.641697,E Lake Shore Dr/Fairwood Cir
160,30.570107,-89.701786,Timberlane Rd
160,30.789529,-89.765642,State Hwy 26
216,30.476925,-89.692702,US Hwy 11/Emmett Meitzler Rd
185,30.529929,-89.691385,Teague St
418,30.515042,-89.693643,Sally Dr/Betsy Dr
160,30.590050,-89.681201,Barnett Rd/Will Thompson Rd
185,30.527526,-89.673869,N Green Ave/E Fourth St
160,30.823311,-89.583834,Willa Rd/Old Hwy 26 W
160,30.855174,-89.535658,W Ida Ave/N Main St
334,30.844227,-89.527313,Barber St
216,30.518622,-89.625883,Brentwood Dr/Smallwood Dr
216,30.548925,-89.660657,Hummingbird Ln
605,30.542995,-89.654410,Audubon Dr/State Hwy 43
160,30.535127,-89.683272,Magnolia Ln/N Magnolia St
185,30.535228,-89.685612,Stovall Ave
216,30.489344,-89.689738,US Hwy 11
185,30.750117,-89.567947,Max Lewis Ct
305,30.473671,-89.684159,I- 59
160,30.566672,-89.652851,W Lakeshore Dr/Big Pine Ln
216,30.513923,-89.675677,Cedar Grove Ave
445,30.831842,-89.527220,S Main St/Stinger St
185,30.671585,-89.700751,Leona Cooper Rd
1746,30.835777,-89.531080,State Hwy 26/S Main St
246,30.834094,-89.541493,State Hwy 26
185,30.524619,-89.661952,Wheat Ave
185,30.548028,-89.651929,Fishhook Ln
216,30.515575,-89.708279,Central Ave
305,30.468249,-89.689597,/I- 59
160,30.717632,-89.539207,Savannah Millard Rd
185,30.546536,-89.671810,State Hwy 43
160,30.480072,-89.688638,Hunt Rd/Shorty Burgess Rd
160,30.534148,-89.747562,Bogie Ln
160,30.932107,-89.453585,I- 59
1459,30.517589,-89.667473,Memorial Blvd/E Jerusalem Ave/S Blanks Ave
160,30.912565,-89.458260,Shire St/Queen's Hwy
276,30.543124,-89.650027,Sycamore Rd/State Hwy 43/I- 59
185,30.560655,-89.548325,Monk Mitchell Rd/F Z Goss Rd
185,30.843095,-89.538370,W Willie St
526,30.844316,-89.535567,E North St
305,30.842149,-89.532027,Old Hwy 26/S Jordan St
160,30.501317,-89.711614,Moody Dr/Luther Davis Rd
185,30.597836,-89.659860,Cedar Hill Ln/US Hwy 11
185,30.568324,-89.637300,Edgewood Dr/Edgewood Cir
276,30.846773,-89.543943,Wildcat Dr/W Bell St/Old Stadium Dr
216,30.626599,-89.675446,Cee Dee Ln/Holcomb Carroll Rd
160,30.868515,-89.527438,Charles Keller Rd
185,30.820248,-89.512462,Turkey Ln/Meadow Hill Dr
362,30.527515,-89.682903,Williams Ave/N Quince St
160,30.829566,-89.555718,N Highlands Dr
185,30.653496,-89.605670,Hubert Spiers Rd/Harlan Spiers Rd
160,30.596037,-89.608602,Agent Ln
334,30.526596,-89.669774,Baylous St/Fannie Ave
1537,30.526108,-89.680904,W Canal St/S Main St
246,30.537038,-89.688837,Idlewild Ln
185,30.493458,-89.671821,I- 59
185,30.564921,-89.640204,Sherwood Dr/E Lake Shore Dr
160,30.924583,-89.454922,Hemlock Dr
216,30.834676,-89.522065,E Starkey St/Anna St
276,30.921980,-89.459706,/I- 59
472,30.527824,-89.670292,5th St/N Buren Ave
276,30.564731,-89.701558,Cheetah Ln/Panther Cir
185,30.647744,-89.648942,N Apple South Dr
216,30.805394,-89.625329,Agriculture Dr
160,30.619183,-89.766767,State Hwy 43/Lazy Oak Ln
160,30.546230,-89.596569,Salem Rd/Ceasar Rd
160,30.673598,-89.701326,Mike Cooper Rd/Guy Penton Rd
185,30.517472,-89.649380,Stafford Rd
390,30.520818,-89.661817,/I- 59
185,30.620436,-89.603278,I- 59
160,30.495460,-89.713927,Luther Davis Rd/Jackson Landing Rd
160,30.846443,-89.524124,Old Hwy 26
160,30.666262,-89.764454,State Hwy 43
472,30.507279,-89.682532,S Haugh Ave
216,30.563298,-89.701958,Liberty Rd/Panther Cir
334,30.819459,-89.518156,Russ Cir
499,30.516763,-89.694913,Nutter Dr
390,30.532487,-89.695387,6th Ave/Cottonwood St
839,30.516613,-89.677727,Memorial Blvd/Telly Rd
305,30.542988,-89.651303,/State Hwy 43
246,30.548112,-89.656041,Hillsdale Rd
276,30.540174,-89.668246,Gilcrease Ave/Cayten St
185,30.510774,-89.704158,Doyle Ave/Jackson Landing Rd
418,30.525702,-89.674347,N Green Ave/E Second St
246,30.523387,-89.673567,Cecile St/S Monroe Ave
276,30.843391,-89.536950,W Willie St/S Strahan St
160,30.672441,-89.364596,Gilligan Rd/Barth Rd
160,30.735847,-89.587630,Langnecker Rd
160,30.513410,-89.625853,Longwood Dr/Stanton Dr
185,30.578730,-89.660764,US Hwy 11
246,30.818859,-89.518606,Buck Kirkland Rd/Houston Rd
160,30.825992,-89.524392,W Dove St/Quail St
246,30.511356,-89.712013,Shirley Dr/Laura Dr
185,30.561080,-89.639688,I- 59
390,30.523726,-89.660240,E Canal St/I- 59
362,30.836104,-89.546209,Horticulture Rd
160,30.469879,-89.687951,I- 59/US Hwy 11
305,30.462952,-89.694832,I- 59
362,30.533175,-89.686212,3rd Ave/Stadium Ln
216,30.471545,-89.687702,George St
216,30.528743,-89.687032,6th Ave/S Magnolia St
160,30.540681,-89.601199,Dillard Dr
160,30.823682,-89.532102,Innerspace N
160,30.835286,-89.561868,Mo Hunter Ln
362,30.531169,-89.689548,N Juniper St/Goodyear Blvd
185,30.830198,-89.523752,School Bus Cir
334,30.602725,-89.617517,/I- 59
362,30.543042,-89.670357,E Sycamore Rd/W Sycamore Rd/US Hwy 11
246,30.669384,-89.641636,Joe Smith Rd/Sones Chapel Rd
160,30.565938,-89.653818,W Lakeshore Dr/Brookhollow Dr
160,30.505431,-89.711999,Jackson Landing Rd
160,30.553651,-89.592386,Walnut Grove Ln/Ceasar Rd
185,30.846598,-89.535212,Morris Ln
185,30.530205,-89.613514,Woodridge Ln
160,30.851764,-89.535515,W Lamar Ave/N Main St
185,30.527754,-89.700737,Palestine Rd/Airport Rd
160,30.635371,-89.592916,Baucum Rd
418,30.518270,-89.688314,Bruce St
216,30.569817,-89.641078,Peninsula Dr
160,30.489538,-89.697410,Margaret St
185,30.523351,-89.634701,Ceasar Rd/J & J Dr
160,30.527228,-89.677264,N Haugh Ave/E Third St/E 3rd St
160,30.717630,-89.540613,Savannah Millard Rd
160,30.820584,-89.515752,Hodnett Ln
276,30.532605,-89.677943,Cross St/Stevenson St
185,30.638422,-89.655249,K T Ln
246,30.842738,-89.536806,S Strahan St/W Pearl St
185,30.550567,-89.681435,Sam Stockstill Rd/State Hwy 43
472,30.845758,-89.539870,W Larkin I Smith Dr/N Haynes St
334,30.842091,-89.496439,I- 59
160,30.806427,-89.475795,Progress Rd/Quarter Horse Ln
216,30.514819,-89.675328,Telly Rd/Proctor St
276,30.997996,-89.420487,/I- 59
305,30.833541,-89.522064,Anna St/Jacobs Rd/Jacobs Ave
160,30.814241,-89.493185,Pipe Rd/Barn Rd
160,30.807462,-89.564988,US Hwy 11
185,30.664273,-89.578732,I- 59
216,30.528141,-89.686102,Norwood St/Williams Ave
246,30.540180,-89.667217,N Grady Ave/Cayten St
305,30.572111,-89.662206,Julieanne Dr/US Hwy 11
160,30.957377,-89.440730,/I- 59
305,30.569855,-89.648328,Hide A Way Ln/Hide-A-Way Ln
246,30.833533,-89.523121,Jacobs Ave
246,30.520335,-89.677725,Arbor Gate Cir
305,30.529834,-89.683892,Oak St/5th Ave
216,30.570959,-89.676541,Boley Bypass Rd
216,30.514880,-89.675408,Telly Rd/Proctor St
246,30.534167,-89.680471,S Boley Dr/N Main St
160,30.555273,-89.691668,State Hwy 43
552,30.570718,-89.662503,Pullens Rd/US Hwy 11
160,30.818769,-89.592539,State Hwy 26
579,30.520385,-89.680812,Seal St/S Harvey Ave
160,30.515330,-89.667446,Alpine Rd
246,30.824425,-89.519035,Azalea St
1929,30.546683,-89.668965,Acorn Ln/US Hwy 11
305,30.833519,-89.525352,Jacobs Ave/Stinger St
185,30.695602,-89.692663,Larow Dr/la Row Dr/Deerfield
160,30.699761,-89.425834,McNeill McHenry Rd/Luther Ladner Rd
552,30.529785,-89.686435,Goodyear Blvd
160,30.623825,-89.643033,Silver Dove Ln/Stone Hollow Trce
160,30.558757,-89.579379,Magnolia Dr/Cypress Dr
185,30.660138,-89.637202,Ben Gill Rd
160,30.474853,-89.696083,Doug Holcomb
160,30.533043,-89.691083,Holly St/5th Ave
160,30.637720,-89.654100,Holcomb Carroll Rd/White Chapel Rd
390,30.518327,-89.683801,Bruce St/S Main St
216,30.562123,-89.648755,Marina Ct/E Lake Shore Dr
185,30.550085,-89.594675,Leo Eaves Rd
160,30.935288,-89.451014,Banks Dr/Music St
160,30.543726,-89.641254,Green Tree Dr
216,30.859732,-89.547713,Swallow Fork
710,30.838278,-89.529520,Hope St/Village Cir
216,30.569508,-89.665083,Petit Ln/Althea Dr
185,30.851713,-89.552034,Beach Rd/Duval Cir
246,30.560458,-89.640027,I- 59
160,30.597498,-89.616097,Doan Hill Ln/W Union Rd
246,30.543121,-89.649651,Sycamore Rd/I- 59
276,30.532945,-89.696399,6th Ave/Dale St
305,30.471512,-89.685882,I- 59
160,30.670197,-89.636089,US Hwy 11
160,30.912795,-89.463812,Queen's Hwy
160,30.519413,-89.724970,Saucer Dr/Huppo Rd
276,30.556556,-89.642700,I- 59
160,30.845670,-89.535674,E Larkin I Smith Dr/N Main St
160,30.827554,-89.576654,State Hwy 26/Peters Rd
305,30.855065,-89.540246,W Ida Ave/US Hwy 11
246,30.841744,-89.548954,Old Hwy 26
185,30.505369,-89.712718,Wood Oaks Ct/Wood Oaks Dr
246,30.523218,-89.670528,Kendra Ln/South Virginia Ave
305,30.866399,-89.544796,Spring Hill Rd
160,30.558012,-89.645450,Fairway Dr/Country Club Dr
185,30.496890,-89.687576,Parillo Ln/US Hwy 11
185,30.572102,-89.737572,State Hwy 43/Pauline Ln
160,30.512672,-89.689102,Martin Luther King Jr Blvd
185,30.855317,-89.548885,Holliday Dr
499,30.510542,-89.691199,Kingsway Dr
246,30.584280,-89.649444,N Hill Dr
160,30.852875,-89.404485,Gumpond Beall Rd
1046,30.843110,-89.541755,Frontage Rd/E Hwy 11 Frontage Rd/Old Hwy 26
246,30.972487,-89.433479,I- 59
246,30.510240,-89.713588,Shirley Dr/Victoria Dr
160,30.538566,-89.670900,Peach St/Moon Meadow Mh Park
552,30.846834,-89.541589,US Hwy 11
216,30.581727,-89.649501,Shadow Wood Dr
305,30.527022,-89.685322,W Canal St/Oak St
305,30.517939,-89.689011,Bruce St/Davis St
160,30.877132,-89.406530,Gumpond Beall Rd/Larry Smith Rd
334,30.507363,-89.713610,Shirley Dr/Hickman Ave
185,30.842175,-89.527451,Travis Jordan Cir/Todd St
185,30.937688,-89.451224,I- 59
390,30.501575,-89.669140,I- 59
579,30.841256,-89.534176,E Erlanger St/Railroad St
499,30.518299,-89.682281,Bruce St
160,30.567364,-89.576650,Lost Cove
362,30.532999,-89.685811,Laurel St/3rd Ave
160,30.644661,-89.643890,N Apple South Dr/S Apple South Dr/The Boulevard
246,30.547804,-89.585994,Seminole Dr
185,30.524430,-89.677938,Tate St/S Haugh Ave
305,30.522244,-89.674734,Mitchell St
185,30.624112,-89.651826,Fire Truck Entrance
160,30.975447,-89.709725,State Hwy 43/Ard Rd
160,30.524839,-89.574008,Lovell Johnson Rd/Old Kiln Rd
160,30.533782,-89.551254,Old Kiln Rd
160,30.650696,-89.640472,Mandi Ln/US Hwy 11
185,30.500228,-89.669243,I- 59
418,30.518565,-89.679760,Smith St/S Curran Ave
216,30.563256,-89.659801,Lakeshore Dr
1304,30.845937,-89.542066,W Broad St
216,30.547066,-89.666529,Stemwood Dr
216,30.840688,-89.533620,E Magnolia St
216,30.524737,-89.665066,N Loftin St/E Canal St/S Loftin St
160,30.563836,-89.698136,Antoinette Dr/Inside Rd
160,30.566970,-89.653864,Brookhollow Dr
160,30.481315,-89.697144,Prestige Cir
160,30.579893,-89.632413,E Sunnybrook Rd/Cragmont Rd
160,30.773861,-89.577977,E T Poole Rd
246,30.517915,-89.690660,Burley St
160,30.546275,-89.672447,Lisa Ann Lee St/N McGeehee Ln
160,30.465381,-89.684430,State Hwy 607
160,30.536380,-89.696218,River Rd/W 4th Ave
334,30.918670,-89.460955,Barbara Ln
246,30.842880,-89.536097,S Julia St/W Pearl St
160,30.591532,-89.753919,State Hwy 43
276,30.510957,-89.684726,Martin Luther King Jr Blvd
160,30.582808,-89.630432,E Sunnybrook Rd/Driftwood Rd
160,30.550952,-89.684566,Wilma Stockstill Rd
362,30.527482,-89.685191,Oak St
390,30.519853,-89.696121,Sherd St
246,30.523437,-89.659136,E Canal St
917,30.518335,-89.667820,S Blanks Ave
276,30.547514,-89.657013,Highland Dr
276,30.479120,-89.678281,I- 59
185,30.517266,-89.696597,Herrin Dr
160,30.568389,-89.638000,Edgewood Cir
526,30.557014,-89.645397,Timberwood Ln
160,30.557436,-89.653972,Twin Oak Ct
658,30.561823,-89.664521,Lakeshore Dr/US Hwy 11
185,30.625999,-89.598735,I- 59
499,30.519511,-89.680790,Culpepper St/S Harvey Ave
185,30.542134,-89.673497,Cary Ln
160,30.849934,-89.575806,Birch Blvd
185,30.838799,-89.533716,S Main St
246,30.593048,-89.661052,US Hwy 11
160,30.645436,-89.631825,/Cane Bend Dr
216,30.566653,-89.639577,Sherwood Dr/Greenbriar Ln
246,30.547060,-89.657047,Highland Dr/Stemwood Dr
160,30.576927,-89.708376,Liberty Rd/Billy Glenn Ln
216,30.833440,-89.560812,State Hwy 26
276,30.831761,-89.523808,Sports St
445,30.525598,-89.678838,E Canal St/N Curran Ave/S Curran Ave
160,30.671323,-89.702229,Rock Ranch Rd/Henleyfield McNeill Rd
246,30.510777,-89.684023,Meadowgreen Blvd/Martin Luther King Jr Blvd/US Hwy 11
160,30.579660,-89.632580,E Sunnybrook Rd
185,30.705514,-89.737329,Terry Schubert Rd
246,30.832203,-89.514010,Virginia Dr
276,30.524857,-89.674530,N Green Ave/S Green Ave/E Canal St
891,30.530580,-89.688540,Kirkwood St/Goodyear Blvd
185,30.826818,-89.586665,Peters Rd
160,30.575341,-89.578606,W Union Rd/Oakpine Dr
160,30.609267,-89.661080,Burgetown Rd/Dusty Rose Ln
216,30.840853,-89.518653,State Hwy 26/Saw Rd
276,30.479243,-89.678618,I- 59
160,30.840830,-89.592639,Henry Rd/Bonner Rd/White Sand Rd
160,30.664808,-89.642111,6th Ave/Cemetery Rd
943,30.842101,-89.542084,W Clark St/Fake 2 US Hwy 11/US Hwy 11
185,30.529531,-89.691973,York St/Dozier St
216,30.573482,-89.646423,Hideaway Ln/Grandview Ln
943,30.834540,-89.528556,E Dove St
185,30.857783,-89.349372,Jessica Lynn Dr
499,30.830892,-89.526278,Career Center Cir/S Main St
216,30.669398,-89.641735,Joe Smith Rd
334,30.509382,-89.665787,Ridge Rd/el Patch Pkwy
185,30.837996,-89.545026,Research Dr
185,30.540556,-89.654341,Audubon Dr/Holly Ct
160,30.590278,-89.623748,I- 59
445,30.513595,-89.664855,/I- 59
185,30.581544,-89.544690,F Z Goss Rd/Jim Pearson Rd
305,30.665314,-89.636535,R & R Dr/McNeill Steephollow Rd
160,30.834249,-89.576572,Mary Smith Rd
579,30.846820,-89.541791,Frontage Rd/W Bell St
631,30.521252,-89.689395,Rosa St/Davis St
1304,30.843031,-89.542143,Fake 4 US Hwy 11/Old Hwy 26/US Hwy 11
160,30.496300,-89.695868,Gilbert Ln/Section Line Rd
160,30.664062,-89.635807,Ridge Hollow Rd
246,30.764598,-89.521735,Juniper Grove Rd/I- 59
526,30.521182,-89.681070,Whitfield St/US Hwy 11
276,30.542988,-89.650101,Sycamore Rd/State Hwy 43/I- 59
160,30.678825,-89.662662,Northside Dr
160,30.488178,-89.705008,Royal St/Crimson Ln
160,30.701690,-89.648518,Sones Chapel Rd
185,30.550676,-89.681638,State Hwy 43/Alex Pl
362,30.844923,-89.526282,S Woodard St
160,30.569516,-89.661584,Quail Hollow
445,30.843699,-89.535483,W Willie St/Old Hwy 26/E Willie St
160,30.648905,-89.701450,Homestead Dr/Virgil Lewis Rd E
160,30.505555,-89.676367,Pemberton Pl/Longstreet Ln
418,30.844148,-89.536436,S Julia St/Old Hwy 26/Yates Moody St
160,30.495551,-89.695991,Gilbert Ln/Oliver Davis Rd
160,30.506356,-89.677696,Hood Pt
472,30.529536,-89.679260,W 5th St/N Harvey Ave
160,30.841529,-89.524922,S Woodard St/Todd St
3280,30.843785,-89.543957,River Rd
552,30.520517,-89.696558,Nixon St
579,30.518117,-89.679761,Telly Rd/S Curran Ave
185,30.521191,-89.685276,Rosa St/Baker St
1226,30.525951,-89.680577,W Canal St
160,30.545360,-89.673612,Vaughn St
216,30.818976,-89.515820,Hodnett Ln
185,30.511322,-89.648536,Linda Ln
334,30.519411,-89.691538,Jarrell St
305,30.614562,-89.652773,Harrison St/Smith St
216,30.526758,-89.691974,Palestine Rd/Dozier St
160,30.627494,-89.597505,/I- 59
305,30.988694,-89.425223,I- 59
160,30.573468,-89.718235,Yellowbird Ln
362,30.474001,-89.683824,I- 59
216,30.549424,-89.661731,Shady Side Ln
160,30.746794,-89.526058,I- 59
390,30.526925,-89.684790,W Canal St/Herman St
185,30.579931,-89.646305,Hideaway Ln/Hilltop Dr
216,30.742813,-89.558649,Ellis Hart Rd
246,30.519289,-89.683965,W Jarrell St
246,30.829840,-89.497705,Bennie Lumpkin Rd/I- 59
305,30.541337,-89.653826,Chateau Cove
362,30.614091,-89.662869,Jewel Raine Rd/Whitehead Ln
185,30.851693,-89.550785,Beach Rd
246,30.522025,-89.693693,Touquet St
185,30.846047,-89.533614,E Larkin I Smith Dr
185,30.575006,-89.645376,Woodlark Cir
788,30.831847,-89.526433,Pjhs Cir/Stinger St
216,30.529862,-89.671107,Palm St/N Jackson Ave
160,30.694513,-89.763327,State Hwy 43
160,30.784197,-89.529561,R W Smith Rd/Dupont-Harts Chapel Rd
160,30.512427,-89.649725,Easy St
160,30.625493,-89.617574,Pelican Ln/Hillcrest Ln
390,30.573326,-89.648713,N Hill Dr/Hunters Pt
160,30.507617,-89.710570,Douglas St/Rogers St
445,30.541144,-89.671558,Carter St/Circle Dr
160,30.552574,-89.705178,Westchester Dr/Tenneyson Cove
276,30.472217,-89.685632,/I- 59
305,30.478862,-89.678533,I- 59
185,30.547000,-89.663426,Millswood Rd/Stemwood Dr
362,30.826030,-89.522456,W Dove St/S Main St/Maple St
185,30.615582,-89.620044,Openwood Dr W
246,30.792795,-89.530720,Dupont-Harts Chapel Rd
160,30.851853,-89.556811,Beach Rd/Ridgewood Ln
185,30.827004,-89.551549,US Hwy 11
246,30.824233,-89.519753,Cedar St/Azalea St
160,30.575613,-89.775213,McSween Rd
160,30.790044,-89.816129,State Hwy 26
246,30.561236,-89.644358,Southgate Ln/Woodlawn Dr/Michelle Rd
1046,30.845559,-89.545815,River Rd/President's Cir
362,30.848173,-89.541595,/Frontage Rd/Wildcat Dr
185,30.637762,-89.656235,Holcomb Carroll Rd/Paper Shell Rd
246,30.531080,-89.692286,6th Ave/Holly St
160,30.492061,-89.670875,Rhonda Ln
185,30.527949,-89.675995,E Fourth St/N Steele Ave
160,30.565289,-89.792190,Oak Point Rd
185,30.849819,-89.498957,Checkerboard Dr
160,30.515955,-89.605207,Hackberry Cir
185,30.617732,-89.663028,Church St
160,30.753795,-89.574257,Bice Rd
160,30.624752,-89.624422,Palmer Ln/Belly Acres Ln
185,30.546228,-89.656056,Berry Ln/Hillsdale Rd
185,30.573000,-89.660809,Quail Hollow
216,30.574018,-89.745663,/Walkiah Bluff Rd/State Hwy 43
276,30.520169,-89.674897,Arbor Gate Cir
246,30.840737,-89.532950,E Magnolia St
160,30.532076,-89.681372,Pine St
216,30.562433,-89.650702,Glenbrook Ct
160,30.644189,-89.610859,Oak Hill Dr
216,30.503853,-89.714310,Jackson Landing Rd
305,30.517591,-89.656702,Merrill Rd/Memorial Blvd
160,30.645186,-89.594568,Baucum Rd
246,30.827494,-89.550790,US Hwy 11
185,30.837156,-89.545111,Rabbiteye Dr
390,30.519958,-89.696333,Bender St/S Beech St
216,30.503212,-89.700598,Williamsburg Rd
246,30.570191,-89.665074,Petit Ln
334,30.543690,-89.664436,State Hwy 43
216,30.844560,-89.509695,State Hwy 26
185,30.480864,-89.687426,Carey Meitzler Rd/Shorty Burgess Rd
160,30.511027,-89.708223,Charlotte Dr/Charlotte Cir
216,30.574134,-89.664600,Julieanne Dr
185,30.572621,-89.637941,Mariner Cir/E Lake Shore Dr
334,30.520502,-89.697145,Nixon St/Bogan Cir
160,30.537146,-89.706929,Blackwell Ln
160,30.561403,-89.649399,Fairway Dr/E Lake Shore Dr
160,30.551789,-89.646694,Scarlet Dr
246,30.531303,-89.678818,W 7th St/N Harvey Ave
216,30.522060,-89.673980,Mitchell St/S Monroe Ave
160,30.948067,-89.687297,State Hwy 43/Ashe Rd
185,30.614922,-89.650534,Old Hwy 11/Harrison St
160,30.579790,-89.715271,Falcon Dr
160,30.552423,-89.579816,Timaquana Dr/Taos Ln
160,30.542500,-89.628769,Horseshoe Ln/Stegall Rd
334,30.561232,-89.644955,Woodlawn Dr
160,30.573492,-89.744009,Naquin Ln
160,30.857628,-89.340896,State Hwy 26
160,30.546437,-89.671537,State Hwy 43/Lisa Ann Lee St
160,30.510950,-89.671761,Corinth St/Cedar Grove Ave
185,30.574217,-89.667446,Pea Ridge Rd/Upper Richarson Rd/Ozona Rd
185,30.623789,-89.608373,Cutlass Ln/Anchor Lake Rd
160,30.837171,-89.544026,S High St/W Michigan St
185,30.672076,-89.701398,Leona Cooper Rd/Guy Penton Rd
160,30.758782,-89.583277,Dupont-Harts Chapel Rd/US Hwy 11
185,30.924253,-89.457928,Hillsdale Gumpond Rd/I- 59
160,30.596015,-89.775161,Pine Grove Rd/Fox Trail Rd
305,30.624648,-89.718878,Lodie Ln
216,30.577883,-89.648768,Wedgewood Dr/N Hill Dr
160,30.869747,-89.575140,Smith & Peters Rd/Oak Hill Rd
160,30.715592,-89.738878,Old Ness Plantation Rd
160,30.857195,-89.347583,State Hwy 26/Sammy Jo Rd
1746,30.517562,-89.660114,Memorial Blvd/Ridge Rd
160,30.516184,-89.632142,State Hwy 43/Old Woods Rd
160,30.826377,-89.556812,Lake Michael Ln
185,30.517889,-89.655552,Memorial Blvd/State Hwy 43
160,30.575606,-89.597200,Sycamore Rd/W Union Rd
185,30.823303,-89.531571,N Storage Rd
552,30.543140,-89.652653,State Hwy 43/Cooper Rd
216,30.581189,-89.634304,E Lakeshore Dr/W Lakeshore Dr/Nutbush Dr
216,30.585980,-89.645787,S Winward Way
334,30.548953,-89.651944,Fishhook Ln/Woods Rd
246,30.828527,-89.522652,Barlow Ln
160,30.837122,-89.488832,American Sand and Gravel Rd/American Sand & Gravel Rd
160,30.598891,-89.652519,Old Hwy 11/Bryson Ln
160,30.474168,-89.691278,US Hwy 11
216,30.525702,-89.664284,Clarenda St
216,30.912381,-89.456097,Pelican Pl/Queen's Hwy
305,30.520413,-89.697849,Nixon St/S Beech St
185,30.827937,-89.560822,Oak Ridge Ln
160,30.647497,-89.635737,Chinaberry Cir/Red Bay Dr
160,30.555130,-89.647042,The Woods Rd
579,30.520288,-89.681298,Telly Rd/US Hwy 11
216,30.508532,-89.711566,Dixie Dr/Hickman Ave
160,30.549319,-89.642507,Windy Acres Rd/George Mitchell Rd
552,30.844441,-89.535647,W South St/N Main St
160,30.610390,-89.650709,Camellia Rd/Old Hwy 11
216,30.520019,-89.672121,Phillip St/Bales Ave
160,30.511673,-89.709030,Charlotte Dr/Hickman Ave
185,30.546018,-89.588738,Moeller Rd/Apache Dr
160,30.868423,-89.527232,Charles Keller Rd/Charles Kellar Rd
185,30.591650,-89.690176,Will Thompson Rd/Liberty Rd/American Way
246,30.547231,-89.648139,Wildwood Dr/Cooper Rd
185,30.837157,-89.545052,Rabbiteye Dr
185,30.802685,-89.567815,Cowart Holliday Rd/US Hwy 11
710,30.842046,-89.542478,W Clark St/W Hwy 11 Frontage Rd
160,30.546472,-89.596412,Ceasar Rd
185,30.581533,-89.645156,Summit Dr
216,30.526692,-89.687039,Mill St/Jenkins St
276,30.516963,-89.691459,Martin Luther King Jr Blvd/Jackson Landing Rd
334,30.531529,-89.693312,6th Ave/Glenwood St
276,30.833383,-89.544005,Waste Water Treatment Plant/US Hwy 11
160,30.837105,-89.540095,W Michigan St
160,30.572439,-89.744249,Naquin Ln
160,30.522172,-89.626703,Oak Ln/Rolling Oaks Dr
160,30.849118,-89.455534,State Hwy 26/A & L Dr
994,30.842445,-89.545285,W North St
246,30.833431,-89.555273,State Hwy 26
185,30.504754,-89.676383,Deason Dr/Longstreet Ln
216,30.700300,-89.562940,I- 59
246,30.862676,-89.495447,I- 59
1304,30.517517,-89.671701,Memorial Blvd
246,30.529584,-89.705652,Palestine Rd/Greenview Dr
160,30.846748,-89.574463,Birch Blvd/Magnolia Ln
185,30.506900,-89.714675,Union School Rd/Twin Oaks Ln
185,30.649136,-89.639049,Secretariart Dr
334,30.912459,-89.454940,Pelican Pl/King's Hwy
185,30.797610,-89.667561,Nursery Ln/State Hwy 26
160,30.786647,-89.634805,Grady Lewis Rd/Osborn Moody Rd
160,30.541277,-89.601980,Ceasar Rd/Dillard Dr
185,30.827304,-89.531341,S Shivers St/Garrett and McGill Dr
362,30.524744,-89.668257,N Blanks Ave/E Canal St
185,30.964047,-89.437333,I- 59
160,30.665940,-89.640132,Henleyfield McNeill Rd
246,30.531651,-89.682800,3rd Ave/Oak St
160,30.757915,-89.583617,Stump Rd/US Hwy 11
185,31.000340,-89.414683,State Hwy 13
276,30.548811,-89.647268,Woods Rd/Cooper Rd
185,30.858907,-89.546610,W Moody St
246,30.852765,-89.496364,I- 59
305,30.843045,-89.535301,Old Hwy 26/W Pearl St/E Pearl St
160,30.581567,-89.552974,Orchard Ln/W Union Rd
246,30.521610,-89.652321,E Canal St
1381,30.842397,-89.545543,W North St/Old Hwy 26/W Gate
160,30.841660,-89.477470,Troy Dedeaux Rd
185,30.844804,-89.532712,E North St/Hughs St
305,30.818464,-89.517751,S Main St
160,30.618749,-89.654533,Byrd Rd/US Hwy 11
185,30.522870,-89.672443,S Columbia Ave
160,30.952535,-89.510041,US Hwy 11
160,30.650962,-89.627354,Cherry Bark Dr
445,30.545074,-89.667776,State Hwy 43
334,30.518910,-89.687644,Southside St
246,30.997848,-89.420054,/I- 59
160,30.619559,-89.638842,Dove Ridge Dr/Anchor Lake Rd
305,30.542104,-89.654413,Audubon Dr/Lafayette Ln
605,30.561591,-89.664574,US Hwy 11
160,30.723633,-89.594787,Savannah Millard Rd
246,30.561347,-89.705716,State Hwy 43/Manberg Dr
445,30.679132,-89.652702,Jaci Ln
276,30.550390,-89.646345,Cooper Rd
160,30.849893,-89.576112,Birch Blvd
160,30.786592,-89.577503,Jimmy Reyer Rd/US Hwy 11
276,30.841133,-89.496450,I- 59
246,30.527177,-89.671450,4th St/N Jackson Ave
185,30.569923,-89.637254,Edgewood Dr/E Lake Shore Dr
216,30.845768,-89.538780,W Larkin I Smith Dr/N Jackson St/S Jackson St
160,30.534075,-89.685693,2nd Ave/Stadium Ln
526,30.528405,-89.680363,N Main St/5th Ave
160,30.555041,-89.596661,Audubon Pl
185,30.528448,-89.673602,N Green Ave/E Fifth St
579,30.558764,-89.665184,Division St/US Hwy 11
160,30.718840,-89.557434,Boggy Branch Rd/Savannah Millard Rd
160,30.501594,-89.711612,Moody Dr/Luther Davis Rd
160,30.624025,-89.643028,Geronimo Ln/Stone Hollow Trce
160,30.750219,-89.523862,/I- 59
276,30.620004,-89.653991,US Hwy 11/Pearson Hill Rd
160,30.610213,-89.615405,/Lumpkin Rd
246,30.841694,-89.549211,Old Hwy 26/Hillman Rd
1123,30.845229,-89.546201,River Rd/Technology Loop
185,30.499776,-89.686829,US Hwy 11
185,30.844823,-89.531334,N Hughes St/E North St
185,30.629971,-89.652670,Justin Rd/White Chapel Rd
185,30.562264,-89.559823,Monk Mitchell Rd
185,30.538121,-89.666080,Stockstill St/Adcox Rd
362,30.834523,-89.527435,E Dove St/McGehee St
160,30.656964,-89.583706,/McNeill Steephollow Rd
418,30.525684,-89.668256,N Blanks Ave/Clarenda St
710,30.520578,-89.696133,Quarter St/Sherd St
216,30.669411,-89.641716,7th Ave/Sones Chapel Rd
185,30.522578,-89.693672,Touquet St
160,30.554653,-89.590469,Shelton Pearson Rd
160,30.582439,-89.648419,N Hill Dr/Shadow Wood Dr
276,30.543196,-89.663740,State Hwy 43/Daniels Rd
160,30.534798,-89.681412,Boley Ave/Kety Dr
160,30.512044,-89.702488,Abbott St
334,30.669255,-89.641022,6th Ave/Sones Chapel Rd
160,30.592742,-89.575730,Johnny Johnson Rd
216,30.559817,-89.644315,Millbrook Pkwy/Cooper Rd
216,30.529854,-89.681383,E 4th Ave/N Quince St
362,30.543236,-89.663249,State Hwy 43
216,30.559839,-89.645415,Millbrook Pkwy/Carleen Ct
246,30.475687,-89.692568,River Rd/US Hwy 11
160,30.647708,-89.634974,/Fox Pen Dr
276,30.530294,-89.684901,5th Ave/Norwood St
160,30.532583,-89.692686,Glenwood St/Goodyear Blvd
160,30.646568,-89.635850,Chinaberry Cir
185,30.827985,-89.575983,State Hwy 26/Beverly Hills Dr
305,30.543053,-89.669552,E Sycamore Rd/Posey St
362,30.543110,-89.648296,/Sycamore Rd
390,30.813575,-89.511492,/I- 59
216,30.476643,-89.693302,Jackson Landing Rd
276,30.538543,-89.669947,Peach St/Moon Meadow Mh Park
276,30.523334,-89.679368,Mitchell St/S Curran Ave
160,30.912489,-89.459903,Prince Pkwy/Queen's Hwy
865,30.837658,-89.530825,Upstart St/Village Cir
276,30.510863,-89.684280,Martin Luther King Jr Blvd
185,30.855325,-89.550603,Holliday Dr
185,30.513847,-89.676453,Proctor St
160,30.857265,-89.347564,D Ln/Sammy Jo Rd
305,30.841142,-89.496086,I- 59
160,30.813191,-89.508309,Dew Berry Ln
445,30.513598,-89.664395,Ridge Rd
216,30.600765,-89.619152,/W Union Rd
185,30.485730,-89.691466,Shelby Ln/J J Holcomb Rd
160,30.656944,-89.585689,Felicia Ln/McNeill Steephollow Rd/Rayford Burge Rd
334,30.518323,-89.689310,Davis St
160,30.558927,-89.680729,Rio Ln/Patterson Ln
160,30.589931,-89.753743,State Hwy 43
160,30.602328,-89.556843,Robert Dossett Rd/Ceasar Rd
160,30.655685,-89.647303,Copling Ln/Ruston Rd
185,30.808340,-89.511994,Wallace Rd
160,30.548918,-89.579771,Timaquana Dr/Miami Ln
276,30.852758,-89.496034,I- 59
246,30.972318,-89.433103,I- 59
160,30.535306,-89.683171,Boley Ave/N Magnolia St
1485,30.527069,-89.680305,Goodyear Blvd
276,30.523428,-89.682525,S Main St
160,30.823001,-89.522971,Long Leaf Ln/Lake Dr
185,30.844880,-89.532896,E North St
658,30.525474,-89.673258,E Second St/N Monroe Ave
390,30.826028,-89.522163,Mimosa St/Maple St
1226,30.845228,-89.542019,Frontage Rd/College Dr
246,30.670177,-89.640799,S Reba Dr/Cindy Dr/N Reba Dr
334,30.982505,-89.427872,I- 59
160,30.612124,-89.644502,Cybil Pl
216,30.839126,-89.537389,W Church St
216,30.610422,-89.656744,Burgetown Rd/Camellia Rd/US Hwy 11
160,30.482647,-89.695500,Jasmine Dr/Iris Dr
160,30.787750,-89.802672,State Hwy 26/Waterpark Rd
334,30.517959,-89.695809,Herrin Dr
185,30.668559,-89.757018,Tierro Lago Dr
305,31.002975,-89.417946,I- 59
216,30.505359,-89.713986,Oaks Ct/Wood Oaks Dr
216,30.536918,-89.669662,Carroll St/Maple Ave
216,30.532709,-89.678464,N Harvey Ave/Stevenson St
390,30.521364,-89.697133,Rosa St/Bogan Cir
160,30.541782,-89.674397,Downs St/Farrell St
362,30.845138,-89.535023,N Dauphine St/E Smith St
160,30.543048,-89.667179,N Grady Ave/E Sycamore Rd
276,30.890532,-89.479076,I- 59
445,30.545239,-89.667777,State Hwy 43
160,30.845289,-89.534307,E Smith St/Howard Ct
362,30.844721,-89.526118,S Woodard St/Barber St
390,30.841917,-89.534065,Martin Luther King Jr Dr/S Dauphine St/Railroad St/Old Hwy 26
160,30.533837,-89.748107,Chance Ln/Candace Ln
185,30.526304,-89.677501,E Second St/N Haugh Ave/E 2nd St
160,30.470817,-89.692687,Egert St
185,30.844872,-89.532993,N Dairy St/E North St
160,30.537606,-89.706941,Blackwell Ln/Neal Rd
362,30.518350,-89.685060,Bruce St/Hunt St
160,30.796236,-89.571608,US Hwy 11
362,30.509677,-89.707012,Charlotte Dr/Nina Dr
160,30.537142,-89.714398,Neal Rd/Plaisted Dr
736,30.528439,-89.679204,4th St/US Hwy 11
185,30.540097,-89.603341,Ceasar Rd/Ralph Westbrook Rd
246,30.552169,-89.583618,Iroquois Dr/Pawnee Ln
418,30.527796,-89.669687,5th St/Fannie Ave
185,30.522818,-89.578673,Gledhill Way
160,30.559659,-89.652542,Eagle Ct/Millbrook Pkwy
216,30.525898,-89.675389,E Second St/N Gray Ave/2nd St
216,30.575021,-89.649459,Clear Ridge/N Hill Dr/N Hill Dr W
1149,30.845956,-89.541912,Frontage Rd
472,30.517569,-89.663691,Memorial Blvd/I- 59
305,30.572293,-89.662167,N Hill Dr/US Hwy 11
160,30.688629,-89.761843,Shirley Wise Rd/State Hwy 43
246,30.561447,-89.644300,Southgate Ln
160,30.522701,-89.694544,N Lewis Cir
418,30.570443,-89.662570,US Hwy 11
185,30.510867,-89.681197,Meadowgreen Blvd/S Haugh Ave
160,30.814475,-89.493197,Pipe Rd
185,30.945832,-89.446607,I- 59
185,30.842130,-89.592474,Henry Rd
276,30.845349,-89.496016,I- 59
305,30.462788,-89.694625,I- 59
160,30.567849,-89.663137,Point View Dr/US Hwy 11
160,30.542922,-89.646956,Sycamore Rd
185,30.739917,-89.475285,Caney Ford Rd
160,30.755112,-89.582575,Dupont-Harts Chapel Rd
216,30.697737,-89.560556,Argile Smith Rd
1824,30.845830,-89.543141,Prcc Rd/Vo-Tec Rd
445,30.532371,-89.676854,US Hwy 11/Stevenson St
246,30.533961,-89.693155,Forest St/5th Ave
160,30.839216,-89.534058,S Main St
276,30.529123,-89.691342,Small St
185,30.522652,-89.682731,S Main St
276,30.528098,-89.695715,Sheila Dr
160,30.510110,-89.709452,Victoria Dr
160,30.947619,-89.686996,State Hwy 43
246,30.502944,-89.668685,I- 59
185,30.617384,-89.651298,Old Hwy 11/Anchor Lake Rd/Railroad St
246,30.529195,-89.688086,6th Ave/Griffing Ln
160,30.838750,-89.540429,Scott St
160,31.001541,-89.422772,E Main Ave/Landrum Cemetery Rd
216,30.624021,-89.642256,Geronimo Ln/S Ridge Ln
185,30.532320,-89.697812,Bennett St/7th Ave/N Beech St
216,30.529874,-89.674393,Hershel Ln
334,30.561540,-89.645505,Woodlawn Dr
185,30.503214,-89.701851,Williamsburg Rd
276,30.485332,-89.674584,I- 59
160,30.567333,-89.547155,F Z Goss Rd/Willow Ln
216,30.630573,-89.594691,I- 59
160,30.586779,-89.710155,Craddock Ln/Skipper Rd
185,30.575908,-89.644270,Berryhill Dr/Grandview Ln
334,30.529255,-89.666071,Satcher Dr
185,30.632501,-89.641249,N Ridge Ln/Rebel Hill Dr
185,30.554321,-89.644326,Cooper Rd/The Woods Rd
160,30.572083,-89.664579,Pullens Rd
160,30.512361,-89.714634,Union School Rd/Heritage Ln
605,30.526270,-89.695883,Rosin Rd
246,30.556908,-89.643389,Garden District Cir/Gallier Cove
160,30.543040,-89.646132,Sycamore Rd
160,30.519350,-89.687230,Jarrell St/Jones St/W Jarrell St
160,30.749992,-89.566522,Dupont-Harts Chapel Rd
160,30.574292,-89.729995,Albert Hopkins Rd
276,30.841766,-89.544041,W Clark St/S High St
160,30.459103,-89.677226,State Hwy 607
160,30.975122,-89.412600,Lloyd Ladner Rd
334,30.528456,-89.657637,I- 59
917,30.845358,-89.546102,River Rd/Technology Loop
276,30.470928,-89.685934,Clyde Meitzler Rd
160,30.843308,-89.590853,Robert James Rd
499,30.543170,-89.657857,State Hwy 43/Waynewood Dr
276,30.547222,-89.649396,Wildwood Dr
216,30.530594,-89.669804,E 8th St/N Buren Ave
216,30.978404,-89.430015,Gumpond Beall Rd/I- 59
160,30.552574,-89.704697,Westchester Dr/Browning Cir
472,30.514148,-89.697776,Lavon Ln/S Beech St
160,30.833456,-89.548779,Rodeo St
216,30.822427,-89.515777,Fairlane Dr
736,30.540172,-89.671464,Cayten St/US Hwy 11
160,30.582795,-89.628403,I- 59
305,30.554835,-89.643631,I- 59
160,30.549405,-89.679739,S Front Rd
362,30.522045,-89.691612,Richard St/Boler St
160,30.571312,-89.654831,N Hill Dr
185,30.622708,-89.601936,Anchor Lake Rd
160,30.849727,-89.450162,State Hwy 26/Molly Seals Rd
216,30.837011,-89.533677,S Allen St/W Michigan St
185,30.619982,-89.645723,Stone Hollow Trce/Skeet Ln
276,30.838644,-89.544783,Small Fruit Dr/Research Dr
185,30.586089,-89.649435,N Hill Dr/Field Brook Dr
160,30.569725,-89.647688,Tanglewood Dr
216,30.510449,-89.707705,Charlotte Dr/Charlotte Cir
246,30.530864,-89.676328,N Haugh Ave/E 7th St
160,30.840356,-89.574369,Girl Scout Rd/White Sand Rd
185,30.908771,-89.526770,US Hwy 11
276,30.833709,-89.547467,State Hwy 26/Horticulture Rd/Rodeo St
160,30.556520,-89.590667,Ceasar Rd/Shelton Pearson Rd
185,30.522423,-89.679596,Harris St/S Curran Ave
334,30.854881,-89.539909,N Jackson St/E Hwy 11 Frontage Rd
216,30.592170,-89.661268,Henry Murphy Rd/US Hwy 11
185,30.627679,-89.684985,Emerald Ln/George Ford Rd
1381,30.527260,-89.680706,N Main St/Goodyear Blvd
445,30.527497,-89.667175,Washington St/N Abrams Ave
160,30.567136,-89.575088,Lost Cove/Ridgeway Dr
185,30.549533,-89.550295,Berry Ln/F Z Goss Rd
185,30.828758,-89.548819,US Hwy 11
216,30.519235,-89.687233,Jones St/Southside St
160,30.547817,-89.642652,H K Stockstill Rd
160,30.826989,-89.559068,S Highlands Dr
160,30.543689,-89.676339,Amelia St/
185,30.700097,-89.562468,I- 59
160,30.843216,-89.534525,S Dauphine St/E Pearl St
160,30.829688,-89.547395,US Hwy 11
185,30.510845,-89.670080,Telly Rd
160,30.502907,-89.664507,Ridge Rd
246,31.000626,-89.417977,/State Hwy 13/E Main Ave
216,30.519524,-89.679758,S Curran Ave/Culpepper St
160,30.567743,-89.623546,George Wells Rd/Bass Rd
305,30.526512,-89.678577,N Curran Ave/E 2nd St
185,30.492267,-89.689643,Brad Ford Ln/Section Line Rd
160,30.829288,-89.595035,Peters Rd/Sammy Holt Rd
305,30.669117,-89.640315,Sones Chapel Rd/Sheridan Dr
160,30.858362,-89.537192,N Columbia St
216,30.547033,-89.656037,Hillsdale Rd/Stemwood Dr
216,30.665254,-89.636126,McNeill Steephollow Rd/Sam Wallace Rd/Shanook Dr
472,30.542126,-89.670709,Laird St/Circle Dr/US Hwy 11
160,30.853985,-89.562193,Beach Rd/Thornhill Dr
160,30.835356,-89.522073,Anna St
160,30.556321,-89.595847,Vicki Ln
160,30.573236,-89.742449,State Hwy 43/Luke Ln
246,30.845597,-89.532067,Morgan St
216,30.813985,-89.510162,Progress Rd/Dew Berry Ln
185,30.568376,-89.574998,Hidden Hills Dr E/Ridgeway Dr
160,30.823302,-89.583300,State Hwy 26/Old Hwy 26 W
185,30.565121,-89.714475,State Hwy 43/Herman Stewart Rd
160,30.580605,-89.634599,E Lake Shore Dr/Lakeshore Dr
246,30.525713,-89.665046,N Loftin St/Clarenda St
160,30.924470,-89.519852,US Hwy 11
246,30.472018,-89.684937,Clyde Meitzler Rd
185,30.911199,-89.525701,Earl Stanford Rd/US Hwy 11
445,30.530464,-89.695218,8th Ave/Forest St
160,30.663729,-89.695398,Don Burge Rd
160,30.863868,-89.542490,Spring Hill Rd/US Hwy 11
160,30.560550,-89.575088,Magnolia Dr
160,30.713906,-89.398120,Restertown Rd/McNeill McHenry Rd/Connie Hariel Rd
305,30.534440,-89.677557,Boley Ave
185,30.535502,-89.688776,Grice Ave/Idlewild Dr
160,30.690602,-89.761969,State Hwy 43/Lloyd Wise Rd
418,30.514101,-89.692751,Betsy Dr
216,30.808067,-89.516461,I- 59
160,30.578918,-89.644342,Glenwood Dr
160,30.552300,-89.701338,Westchester Dr/Browning Cir/Tenneyson Cove
160,30.478685,-89.682733,Allie Essence Ln
305,30.855313,-89.542384,Holiday Dr/Prc Hospital
160,30.477278,-89.694837,Elbert Mitchell Rd/1st St
185,30.546215,-89.655041,Berry Ln
216,30.563422,-89.701391,Cheetah Ln/Panther Cir
160,30.461435,-89.680050,State Hwy 607
185,30.851627,-89.404991,Jess Williams Rd/State Hwy 26/Gumpond Beall Rd
246,30.844462,-89.536868,W South St/N Hickory St
185,30.551846,-89.646145,Scarlet Dr
185,30.841467,-89.536492,W Beers St/S Strahan St
276,30.849566,-89.540812,/Frontage Rd
160,30.797639,-89.547246,J M Howard Rd
305,30.543172,-89.660295,State Hwy 43/Crestwood Dr
216,30.813923,-89.510062,Dew Berry Ln
276,30.519426,-89.697844,S Beech St
552,30.541157,-89.671064,Carter St/US Hwy 11
276,30.485216,-89.674262,I- 59
160,30.758988,-89.583202,Derby White Sand Rd/US Hwy 11
216,30.563155,-89.662329,Iberville Pl
160,30.560025,-89.654945,Country Club Dr
276,30.533394,-89.677170,Doby Ave/Short St
160,30.564661,-89.663856,US Hwy 11
160,30.644162,-89.642774,The Boulevard/US Hwy 11
362,30.533225,-89.676214,US Hwy 11
160,30.735611,-89.486171,Robert King Rd/State Hwy 53
160,30.489540,-89.698666,Margaret St/Caroline St
160,30.616096,-89.650868,Adams St/Old Hwy 11
160,30.832378,-89.544618,US Hwy 11
334,30.845500,-89.528253,Barber St
472,30.527727,-89.689016,Kirkwood St/W Canal St/Crosby St
160,30.549374,-89.648950,Woods Rd/Angler Dr
390,30.515010,-89.691299,Clover Cir/Martin Luther King Jr Blvd
160,30.473607,-89.689543,Joe Fleming Rd/Mable St
1381,30.836113,-89.531382,S Shivers St/S Main St
472,30.832541,-89.532766,Rawls St/S St Charles St
185,30.506689,-89.710142,Jackson Landing Rd
160,30.975601,-89.483755,US Hwy 11
390,30.528084,-89.682533,Goodyear Blvd/N Quince St
246,30.548716,-89.646973,I- 59
185,30.669969,-89.639688,Cindy Dr
185,30.837880,-89.525899,State Hwy 26
839,30.528787,-89.684511,Oak St/Goodyear Blvd
185,30.549677,-89.594312,Ceasar Rd/Leo Eaves Rd
276,30.523460,-89.682440,S Main St
216,30.579878,-89.647747,N Hill Dr/Laurel Grove Dr
160,30.557816,-89.699787,Whitman Ln/N Beech St
305,30.817902,-89.517399,Balmoral Dr/S Main St
160,30.593793,-89.546752,Shot Mitchell Rd/Bouie Rd/Theo Bilbo Rd
185,30.846536,-89.535668,Morris Ln/N Main St
160,30.662382,-89.680336,Henleyfield McNeill Rd
390,30.846465,-89.527731,Barber St
276,30.567045,-89.703723,Liberty Rd/D & N Rd
185,30.610231,-89.640156,W Union Rd
160,30.868366,-89.570896,Oak Hill Rd/Dakota Creek Rd
160,30.670909,-89.640602,N Reba Dr
1123,30.547534,-89.668631,US Hwy 11
185,30.535082,-89.679865,N Boley Dr/N Boley Ave
276,30.608534,-89.666118,Hidden Dr
185,30.757326,-89.583841,Jack Alexander Rd/US Hwy 11
160,30.837020,-89.534635,W Michigan St
185,30.527439,-89.678333,N Curran Ave/E 3rd St
160,30.649248,-89.653845,Province Ln
160,30.563419,-89.655764,W Lakeshore Dr
185,30.764603,-89.522331,Juniper Grove Rd/Dupont-Harts Chapel Rd
276,30.521325,-89.693696,Rosa St/Touquet St
160,30.829181,-89.559428,N Highlands Dr
185,30.575755,-89.715180,Eagle Heights Dr
160,30.602794,-89.556496,Ceasar Rd/Tarter Dr
185,30.524097,-89.675735,Tate St/S Gray Ave
185,30.539655,-89.654324,Audubon Dr
160,30.797311,-89.570974,US Hwy 11
390,30.531527,-89.677242,N Curran Ave
160,30.839650,-89.493731,Charee Ln
185,30.491885,-89.705241,Durapau Ln
160,30.631203,-89.707757,J Wiley
334,30.527326,-89.686897,W Canal St/Jenkins St
160,30.665087,-89.635446,Coleman Rd/McNeill Steephollow Rd/Ridge Hollow Rd
185,30.737155,-89.590806,Buford Ln/US Hwy 11
160,30.509678,-89.668520,Telly Rd
552,30.515148,-89.696535,Herrin Dr/Jackson Landing Rd
185,30.568423,-89.575357,Hidden Hills Dr E/Longbow Dr
605,30.517029,-89.682205,Memorial Blvd/US Hwy 11
185,30.553402,-89.597492,Eaves Rd/Curry Dr
185,30.574298,-89.594709,W Union Rd
445,30.835265,-89.527442,McGehee St
160,30.912575,-89.460708,Meridies Way/Queen's Hwy
160,30.516879,-89.563144,State Hwy 43
160,30.546065,-89.596335,Moeller Rd
445,30.621362,-89.653401,George Ford Rd/US Hwy 11
216,30.561303,-89.651073,Fairway Dr
160,30.492197,-89.708650,Henry Hann Rd/Jackson Landing Rd
216,30.854307,-89.496021,I- 59
160,30.585221,-89.545007,Bouie Rd/W Union Rd/F Z Goss Rd
185,30.613680,-89.648431,Tom Seal Rd/W Union Rd
185,30.531156,-89.672891,Evergreen Ave/E Eigth St
160,30.538176,-89.624855,Horseshoe Ln
185,30.808360,-89.511483,S Main St/Wallace Rd
160,30.597541,-89.773827,Cumming Ln/Deer Run Rd
160,30.826780,-89.577872,State Hwy 26
216,30.678481,-89.572859,I- 59
526,30.838094,-89.542670,US Hwy 11
526,30.529211,-89.685499,Goodyear Blvd/Norwood St
445,30.514049,-89.691265,Martin Luther King Jr Blvd/Betsy Dr
305,31.007063,-89.415857,I- 59
160,30.558005,-89.697911,Inside Rd/State Hwy 43
160,30.851713,-89.553335,Engle Ln/Beach Rd
246,30.508563,-89.712107,Dixie Dr
185,30.521164,-89.667182,S Abrams Ave
160,30.649636,-89.634956,Windance Dr/Windance/Running Stream Dr
246,30.511294,-89.649404,Linda Ln/Stafford Rd
216,30.642954,-89.644877,Oddessa Dr
216,30.878914,-89.548651,Maude Reyer Rd
160,30.552336,-89.578445,Taos Ln
160,30.575976,-89.646332,Hideaway Ln/Berryhill Dr
605,30.528571,-89.680308,4th St/N Main St
160,30.519480,-89.700604,Beechwood Dr/West St/Bender St
160,30.777534,-89.774151,State Hwy 43/Chinquapin Rd
246,30.557579,-89.664422,Country Club Rd
160,30.832162,-89.588846,Loper Ln
160,30.702457,-89.741489,Carey Byrd Rd/Campbell Rd
418,30.844773,-89.527972,Martin Luther King Jr Dr/Barber St/Old Hwy 26
526,30.846822,-89.541406,/US Hwy 11
216,30.965415,-89.436637,I- 59
445,30.515702,-89.676496,Telly Rd/Westonia St
276,30.582689,-89.661127,Wt and Lena Spiers Cdr
185,30.651026,-89.649001,Tripp Ln
499,30.528391,-89.666068,Satcher Dr/Roosevelt St
246,30.512400,-89.673602,Cedar Grove Ave
526,30.517754,-89.663289,Memorial Blvd/I- 59
160,30.830059,-89.560128,Trailwood Ln/N Highlands Dr
246,30.536706,-89.669341,Hilltop Ave/Carroll St
418,30.845014,-89.535674,E Smith St/N Main St
762,30.523571,-89.680479,Mitchell St/US Hwy 11
276,30.472365,-89.689557,2nd Ave/Mable St
276,30.513972,-89.691922,Betsy Dr/Fern Dr
185,30.488383,-89.690012,Sam Mitchell Rd/US Hwy 11
160,30.647054,-89.634060,/Fox Pen Dr
160,30.622205,-89.649015,Choctaw Cir
943,30.525787,-89.679898,W Canal St/E Canal St/US Hwy 11
160,30.480565,-89.693017,Donald Penton Rd/J J Holcomb Rd
499,30.517573,-89.663377,Memorial Blvd/I- 59
246,30.824289,-89.519797,Cedar St/Sweet Gum St
185,30.859149,-89.547146,Swallow Fork/W Moody St
185,30.536271,-89.693274,N Elmwood St/3rd Ave
334,30.842537,-89.539897,W Clark St/S Haynes St
216,30.845491,-89.526673,S Woodard St/Old Hwy 26
160,30.502781,-89.712618,Sarah Jane Ln
216,30.520272,-89.685867,Weems St/Southside St
185,30.718351,-89.555091,Savannah Millard Rd
684,30.520546,-89.695350,Quarter St/Lewis Cir
246,30.491508,-89.689116,US Hwy 11
160,30.550360,-89.593857,Ceasar Rd/Leo Eaves Rd
160,30.486463,-89.691283,Brad Ford Ln/J J Holcomb Rd
917,30.530690,-89.688479,Kirkwood St/Goodyear Blvd
499,30.526783,-89.697782,Palestine Rd/S Beech St/N Beech St
579,30.843245,-89.529851,Old Hwy 26/Todd St
185,30.491187,-89.689206,/US Hwy 11
160,30.535649,-89.684434,Magnolia Ln
334,30.524280,-89.673312,Grace Dr/S Monroe Ave
185,31.000337,-89.419278,I- 59
160,30.474883,-89.694575,Doug Holcomb/Cliff Mitchell Rd
499,30.837023,-89.531288,E Michigan St/S Shivers St
305,30.509147,-89.706525,Charlotte Dr/Jackson Landing Rd
160,30.633089,-89.604175,Gold Pt
276,30.561543,-89.639438,I- 59
305,30.696928,-89.563921,I- 59
1200,30.846206,-89.549305,Nursing Ln
362,30.559085,-89.700472,Liberty Rd/State Hwy 43/N Beech St
185,30.574286,-89.594561,W Union Rd
160,30.793675,-89.573166,US Hwy 11
160,30.796020,-89.675843,State Hwy 26/J M Tynes Rd
216,30.844425,-89.510049,State Hwy 26/Sonny Davis Rd
185,30.553332,-89.687192,State Hwy 43
305,30.847524,-89.545513,President's Cir
160,30.702100,-89.556188,S T Smith Rd/Argile Smith Rd
160,30.571440,-89.638007,E Lake Shore Dr/Peninsula Dr
216,30.840695,-89.518649,Saw Rd
160,30.667909,-89.634724,Coleman Rd/Zion Church Ln
185,30.539724,-89.692002,Twisted Oak Dr/Brookview Ln
185,30.520272,-89.685056,Weems St/Hunt St
160,30.571954,-89.664389,Pullens Rd
160,30.462097,-89.680882,Asa McQueen Rd/State Hwy 607
762,30.837018,-89.529496,E Michigan St/Village Cir
246,30.612902,-89.649274,Donna Rd/Melonee Ln
185,30.501191,-89.707482,Pat Davis Rd
1200,30.845850,-89.541929,Frontage Rd/Vo-Tec Rd
160,30.559568,-89.696305,Sherrer Ln
246,30.582883,-89.660902,US Hwy 11
160,30.554698,-89.648669,Woods Rd/Angler Dr
160,30.589788,-89.681515,Will Thompson Rd
160,30.569405,-89.602127,Ricky Rd/Sycamore Rd
160,30.850325,-89.535465,E Camelia Dr/N Main St
246,30.467820,-89.689565,/I- 59
216,30.573840,-89.707008,Liberty Rd/Rosemary Wheat Ln
160,30.699746,-89.426013,Bob Dreyer Rd/McNeill McHenry Rd
160,30.533601,-89.678235,Short St/N Harvey Ave
246,30.561285,-89.644322,Southgate Ln/Cooper Rd
160,30.839793,-89.531263,E Magnolia St
216,30.623110,-89.601632,Lakeside Dr/Hillcrest Dr
334,30.857114,-89.540278,W Moody St/US Hwy 11
160,30.546550,-89.671642,State Hwy 43/Acorn Ln
246,30.654133,-89.639617,Tripp Ln/US Hwy 11
185,30.560796,-89.645505,Carleen Ct
216,30.709401,-89.602793,US Hwy 11
305,30.528411,-89.667181,Roosevelt St/N Abrams Ave
185,30.669701,-89.707206,Herb Lee-Fred Spiers Rd/Herb Lee Fred Spiers Rd
305,30.857213,-89.537668,Honeysuckle Ave/N Columbia St
185,30.569145,-89.665090,Petit Ln
160,30.554230,-89.696830,Inside Rd/N Beech St
246,30.526478,-89.686003,Loper St/Mill St
334,30.526620,-89.674106,N Green Ave/E Third St
362,30.833430,-89.527122,Hornet Dr/Jacobs Ave
160,30.626155,-89.659284,H C Stockstill Dr
305,30.590124,-89.573766,Johnny Johnson Rd/Quick Rd/J D Gill Rd
216,30.546634,-89.666515,Adcox Rd
160,30.544323,-89.661905,Ridgewood Ln
160,30.793164,-89.733560,State Hwy 26/Buck Branch School Rd
160,30.832992,-89.573335,Bob Simpson Rd
246,30.839584,-89.546191,Horticulture Rd/Research Dr
160,30.521087,-89.650367,Martin St/E Canal St
160,30.502890,-89.678816,Jefferson Davis Pkwy
1667,30.545649,-89.669371,State Hwy 43/US Hwy 11
160,30.703873,-89.604930,US Hwy 11
160,30.973544,-89.708092,Shannon Rawls Rd/John Henry Lake Rd/State Hwy 43
160,30.833527,-89.524181,Pete Jackson Dr/Jacobs Ave
160,30.718644,-89.556394,Monroe Breland Rd/Savannah Millard Rd
185,30.583826,-89.781317,McSween Rd/McCarty Island Rd
185,30.804943,-89.631248,State Hwy 26/Osborn Moody Rd
160,30.622039,-89.669221,C W Moore Rd/George Ford Rd
305,30.520259,-89.662114,I- 59
246,30.670034,-89.640075,Cindy Dr/Sheridan Dr
185,30.469069,-89.687331,/State Hwy 607
160,30.532504,-89.730052,Newt Mitchell Rd/Doug Lee Rd
160,30.793522,-89.520391,I- 59
788,30.526731,-89.679666,E 2nd St/US Hwy 11/Goodyear Blvd
160,30.826460,-89.578372,State Hwy 26
160,30.525040,-89.682889,Ruby
160,30.570180,-89.729635,State Hwy 43
185,30.478227,-89.694567,Andrew Seal Rd/Jackson Landing Rd
499,30.543019,-89.658975,Orleans Blvd/State Hwy 43
160,30.670122,-89.637084,First Ave/1st Ave
246,30.655701,-89.637371,Native Dancer Dr/Ben Gill Rd
160,30.602283,-89.556874,Ceasar Rd/Mount Carmel Rd
305,30.833439,-89.526990,S Mc Gehee St/Jacobs Ave
276,30.574159,-89.746285,Walkiah Bluff Rd/Burnt Bridge Rd
891,30.845770,-89.541535,W Broad St/US Hwy 11
216,30.493605,-89.698559,Oliver Davis Rd
160,30.748015,-89.554967,Dupont-Harts Chapel Rd
552,30.527567,-89.697809,N Beech St
1641,30.842997,-89.542325,Old Hwy 26/W Hwy 11 Frontage Rd
246,30.561092,-89.644314,Michelle Rd/Cooper Rd
185,30.840258,-89.604825,Homer Ladner Rd
445,30.531575,-89.695914,7th Ave/S Elmwood St
216,30.521174,-89.684020,Rosa St
334,30.523197,-89.669796,Kendra Ln
160,30.627021,-89.644555,Bluebird Rd
185,30.573151,-89.742066,Parker Rd/State Hwy 43
160,30.496430,-89.693665,Carlie Smith Rd/Temple Ln
276,30.846628,-89.525457,Todd Cir
185,30.574036,-89.591465,W Union Rd
1071,30.843084,-89.541906,Fake 4 US Hwy 11/Old Hwy 26/US Hwy 11
334,30.833934,-89.544194,State Hwy 26
216,30.579934,-89.644833,Hilltop Dr
185,30.652329,-89.705121,Wilson Prince Rd/Rock Ranch Rd
276,30.613568,-89.649420,Donna Rd/W Union Rd
276,30.623555,-89.642252,S Ridge Ln
362,30.520331,-89.678022,Arbor Gate Cir
246,30.521173,-89.679864,Whitfield St/S Curran Ave
160,30.823701,-89.531414,Innerspace N/N Storage Rd
160,30.859040,-89.535667,N Main Rd/N Main St
160,30.522772,-89.693625,Richard St/Touquet St
160,30.924118,-89.465831,Hillsdale Rd
160,30.495711,-89.687904,Bennett Apts Rd/US Hwy 11
160,30.793484,-89.520897,I- 59
216,30.833649,-89.548417,State Hwy 26
160,30.911670,-89.460451,Meridies Way/Prince Pkwy
276,30.834058,-89.542161,State Hwy 26
276,30.554738,-89.643133,I- 59
160,30.520931,-89.672119,Bales Ave/Lawrence St
185,30.534388,-89.691575,Glenwood St/W 4th Ave
160,30.549962,-89.652926,Fishhook Ln
362,30.833179,-89.525338,A Cir Dr/Stinger St
362,30.515960,-89.691310,Clover Cir/Martin Luther King Jr Blvd
216,30.833118,-89.542904,Waste Water Treatment Plant
216,30.632958,-89.650956,Fawns Ln/US Hwy 11
160,30.488510,-89.680803,Edmond Mitchell Rd
185,30.723236,-89.585849,Langnecker Rd/Savannah Millard Rd
160,30.560668,-89.590690,Montgomery Rd/Audubon Pl
160,30.930085,-89.357323,Hub Davis Rd/Howard Rd
216,30.668552,-89.637452,First Ave/Sones Chapel Rd
160,30.553495,-89.645804,Rhett Dr
216,30.514610,-89.676590,Cedar Grove Ave
526,30.533132,-89.688678,W 4th Ave
185,30.848094,-89.534347,Maria St
160,30.814248,-89.490705,Barn Rd/Lakeside Rd
246,30.526640,-89.688193,Wisteria Ln/Rowland St
216,30.550192,-89.680730,State Hwy 43
276,30.594098,-89.622533,Nine Oaks Rd
334,30.841560,-89.549867,S Howard Heights Rd/Old Hwy 26
160,30.514929,-89.625877,Brentwood Dr/State Hwy 43
160,30.548237,-89.661908,Highland Dr
160,30.483052,-89.694722,Rose Dr/Iris Dr
390,30.828934,-89.524544,Spirit St/S Main St
185,30.530755,-89.683354,E 4th Ave/Oak St
216,30.812202,-89.513869,/S Main St
160,30.495993,-89.718240,Foster Clark Rd/Jackson Landing Rd
216,30.840668,-89.532498,E Magnolia St
276,30.855279,-89.540218,Holiday Dr/US Hwy 11
185,30.477437,-89.693940,J J Holcomb Rd/Jackson Landing Rd
305,30.819489,-89.518388,S Main St
305,30.538883,-89.670049,Moon Meadow Mh Park
160,30.702080,-89.648326,Cecil Smith Rd/Sones Chapel Rd
305,30.538537,-89.669644,Peach St/Maple Ave
160,30.585140,-89.662306,Poplar Ave/Ivy St
160,30.536745,-89.706084,Neal Rd/Blackwell Ln
216,30.846471,-89.522647,Old Hwy 26/Crocodile Dr
185,30.500289,-89.669572,I- 59
305,30.543326,-89.649541,I- 59
305,30.532001,-89.694322,6th Ave/Forest St
185,30.829615,-89.548652,Bilbo Hill Dr
185,30.787804,-89.775700,State Hwy 26/State Hwy 43
1824,30.545807,-89.669312,State Hwy 43/US Hwy 11
160,30.527031,-89.676227,E Third St/N Steele Ave
185,30.515076,-89.627960,Plantation Oaks Dr/State Hwy 43
160,30.837070,-89.534985,W Michigan St
216,30.598565,-89.619784,/I- 59
160,30.520219,-89.647149,E Canal St
276,30.844972,-89.496383,/I- 59
305,30.473552,-89.683853,I- 59
216,30.582805,-89.551240,W Union Rd
160,30.993700,-89.516192,Olive Church Rd
185,30.515192,-89.674758,Proctor St
160,30.853643,-89.493202,Shenandoah Rd
334,30.516001,-89.691188,Clover Cir/Martin Luther King Jr Blvd
160,30.473615,-89.690964,Joe Fleming Rd/Dick Kennedy Rd
160,30.669807,-89.634224,Coleman Rd
631,30.517573,-89.662127,/Memorial Blvd
216,30.533573,-89.697824,6th Ave/N Beech St
246,30.543402,-89.646675,George Mitchell Rd
445,30.517750,-89.663612,Memorial Blvd/I- 59
160,30.524327,-89.575305,Moeller Rd/Old Kiln Rd
736,30.843964,-89.542175,Frontage Rd/Prcc Administrative Dr
160,30.547760,-89.651790,/Wildwood Dr
160,30.479118,-89.692040,US Hwy 11
631,30.528467,-89.683429,Pine St/Goodyear Blvd
276,30.546792,-89.647585,I- 59
276,30.561566,-89.650573,Glenbrook Ct
631,30.516666,-89.679013,Memorial Blvd/S Haugh Ave
216,30.656995,-89.584121,McNeill Steephollow Rd/Scogin Ln
160,30.774154,-89.497805,State Hwy 53
445,30.514500,-89.697752,S Beech St/Jackson Landing Rd
185,30.560188,-89.703021,State Hwy 43
334,30.621307,-89.652522,Old Hwy 11/Picayune St
216,30.659582,-89.581430,/I- 59
334,30.829853,-89.530070,Pecan Acres Cir
160,30.924627,-89.464878,Hillsdale Rd
185,30.519702,-89.711128,Union School Rd
160,30.803090,-89.776145,State Hwy 43/P M Hall Rd
246,30.846967,-89.525757,Todd Cir
160,30.815588,-89.486277,Redhouse Rd
631,30.561306,-89.664640,Seal Rd/US Hwy 11
362,30.842495,-89.534286,S Dauphine St
160,30.923808,-89.454953,Hemlock Dr/Hillsdale Gumpond Rd/Rault Dr
362,30.608689,-89.657181,Tommy Spiers Rd/US Hwy 11
160,30.549598,-89.679605,S Front Rd/State Hwy 43/Richardson Rd
216,30.749982,-89.562435,Et Poole Rd/Dupont-Harts Chapel Rd
246,30.510790,-89.684127,Martin Luther King Jr Blvd
185,30.848126,-89.537686,W Oak St/N Columbia St
276,30.833539,-89.521518,Jacobs Rd
185,30.541137,-89.667195,Carter St/N Grady Ave
160,30.511938,-89.702407,Abbott St/Jackson Landing Rd
160,30.506311,-89.664166,Frierson Rd/Ridge Rd
185,30.528376,-89.687204,S Magnolia St/Williams Ave
1097,30.845639,-89.548661,Nursing Ln
246,30.543054,-89.664898,E Sycamore Rd
216,30.509319,-89.713573,Shirley Dr/Nina Dr
736,30.835633,-89.532797,W Brainard St/S St Charles St
160,30.844472,-89.537297,W South St/N Strahan St
185,30.847931,-89.497533,/State Hwy 26
185,30.839556,-89.535581,S Julia St/W Church St
160,30.516877,-89.562690,State Hwy 43/Timber Creek Dr
246,30.582349,-89.660761,Wt and Lena Spiers Cdr/US Hwy 11
526,30.518308,-89.682569,Bruce St
216,30.832627,-89.567680,State Hwy 26/W North St
472,30.526729,-89.689317,Palestine Rd/Crosby St
216,30.528237,-89.672579,5th St/N Monroe Ave/E Fifth St
185,30.727777,-89.549832,Monroe Breland Rd
185,30.803495,-89.637216,State Hwy 26/Homer Ladner Rd
185,30.806956,-89.625249,State Hwy 26/Agriculture Dr/Old Hwy 26 W
185,30.750018,-89.568958,Robert Rhodes Rd/Dupont-Harts Chapel Rd
160,30.552545,-89.704010,Essex Ct/Westchester Dr
185,30.669534,-89.642003,Sones Chapel Rd
276,30.921735,-89.459853,I- 59
216,30.809136,-89.515044,/I- 59
160,30.505363,-89.678817,Pemberton Pl/Jefferson Davis Pkwy
1046,30.843767,-89.548873,Faculty Row
160,30.543724,-89.675966,Amelia St/W Sycamore Rd
185,30.548889,-89.676627,Richardson Rd
185,30.718033,-89.553513,Savannah Millard Rd
305,30.818613,-89.517844,Herb Gentry Rd/S Main St
160,30.773851,-89.577519,E T Poole Rd
160,30.535971,-89.688713,Idlewild Ln/Idlewild Dr
246,30.501513,-89.695899,Section Line Rd/S Beech St
160,30.550148,-89.654487,Driftwood Dr/Woods Rd
246,31.000946,-89.419709,/E Main Ave
160,30.575816,-89.716592,Falcon Dr/Eagle Heights Dr
362,30.624839,-89.718467,Vermille Hls/Rock Ranch Rd
160,30.540408,-89.694918,River Rd/Twisted Oak Dr
160,30.523856,-89.633577,Ceasar Rd/Barkers Cove
160,30.675352,-89.435575,/State Hwy 53
185,30.516878,-89.580574,State Hwy 43
334,30.462715,-89.695086,I- 59
418,30.526818,-89.695900,Palestine Rd/Rosin Rd
185,30.625757,-89.598561,I- 59
334,30.520511,-89.697846,S Beech St/Bogan Cir
160,30.644256,-89.642724,US Hwy 11/The Boulevard
246,30.626577,-89.674660,Cee Dee Ln
305,30.522633,-89.674637,S Green Ave
160,30.551759,-89.683746,Wilma Stockstill Rd/State Hwy 43
160,30.542406,-89.620532,Stegall Rd
499,30.534267,-89.696871,Goodyear Blvd
216,30.492634,-89.701687,Veronica Dr/Eloise St
160,30.527549,-89.703166,Superior Ave
160,30.512859,-89.702509,Abbott St/Hickory St
160,30.827036,-89.740768,Purcell Ln
305,30.548332,-89.653119,Sunrise Dr
160,30.868479,-89.571301,Oak Hill Rd
160,30.520243,-89.683987,Weems St/Maxwell St
1097,30.845776,-89.541746,US Hwy 11/W Broad St
968,30.842143,-89.541914,W Clark St/E Hwy 11 Frontage Rd
160,30.651666,-89.626366,Post Oak Dr/Bay Meadows Dr
788,30.528494,-89.679664,4th St
185,30.838942,-89.523290,State Hwy 26
185,30.616985,-89.655122,US Hwy 11
362,30.526937,-89.688093,Mill St/Rowland St
160,30.504937,-89.712717,Wood Oaks Ct/Jackson Landing Rd
185,30.743030,-89.544446,Monroe Breland Rd
185,30.648169,-89.585707,E Boley Rd
305,30.613334,-89.652493,Jackson St/Smith St
276,30.712319,-89.556891,I- 59
160,30.855575,-89.492609,Ken-du Rd
246,30.862540,-89.495036,I- 59
160,30.535347,-89.693743,N Elmwood St/W 4th Ave
160,30.739060,-89.490760,Pin Oak Dr/Savannah-Millard Rd/Savannah Millard Rd
160,30.490997,-89.700542,Beth St/Marilyn St
276,30.521375,-89.699886,Rosa St/West St
160,30.546117,-89.596566,Salem Rd/Moeller Rd
160,30.548683,-89.594968,Ceasar Rd/Carr Rd
160,30.849297,-89.453919,State Hwy 26/L C Davis Rd
185,30.534165,-89.681422,S Boley Dr/Kety Dr
246,30.522791,-89.682614,S Main St
160,30.534850,-89.704275,Jc Bolden St/Morris St
246,30.557598,-89.665441,Country Club Rd/US Hwy 11
276,30.519961,-89.697845,S Beech St
160,30.821988,-89.523816,Long Leaf Ln/Lake Dr
185,30.571449,-89.649229,Lazy Meadow
362,30.528432,-89.668283,N Blanks Ave
762,30.835368,-89.532829,State Hwy 26/S St Charles St
216,30.852875,-89.534796,E Nelson St
216,30.587440,-89.640481,Clear Sky Dr/Shore Crest Cir
631,30.831964,-89.526951,Hornet Dr/Stinger St
605,30.526816,-89.697114,Palestine Rd
276,30.501151,-89.695902,Claude Furr Rd/Section Line Rd
185,30.542788,-89.642687,Sycamore Rd/Northwood Dr
160,30.842717,-89.525020,S Woodard St
418,30.841038,-89.534210,Railroad St
160,30.610040,-89.736403,Lake David Dr/Pine Ridge Dr
185,30.536221,-89.682087,Kety Dr
276,30.566508,-89.703497,Lorentz Dr/Liberty Rd
185,30.670014,-89.705977,Herb Lee Fred Spiers Rd
160,30.508896,-89.711254,Hickman Ave
160,30.516882,-89.581904,State Hwy 43
216,30.828063,-89.550968,Grady & Ruth's Pl
185,30.672034,-89.700734,Leona Cooper Rd
185,30.851707,-89.541155,Frontage Rd/W Lamar Ave
276,30.533364,-89.694860,N Elmwood St/Cottonwood St/Goodyear Blvd
216,30.832638,-89.567644,Bird Haven Trce/State Hwy 26
160,30.612902,-89.789429,Dumas Wise Rd
788,30.835652,-89.532459,W Brainard St
160,30.570884,-89.732433,State Hwy 43
216,30.632257,-89.653078,Bill Barber Dr/White Chapel Rd
305,30.549088,-89.650838,S Birdnest Cove/Woods Rd/Driftwood Dr
185,30.548283,-89.676540,State Hwy 43
160,30.815030,-89.508735,Progress Rd
160,30.568465,-89.680855,Boley Bypass Rd
160,30.876317,-89.590310,Oak Hill Rd/Pop Hill Rd
216,30.565755,-89.640019,Sherwood Dr/Woodhaven Dr
160,30.675040,-89.764447,State Hwy 43
160,30.528962,-89.681916,5th Ave/N Quince St
390,30.834569,-89.534733,W McClendon St
185,30.857583,-89.350156,Jessica Lynn Dr
160,30.539110,-89.690777,Tung Tree Dr/Twisted Oak Dr/Dogwood Ln
216,30.622665,-89.601499,Anchor Lake Rd/I- 59
246,30.581837,-89.660663,US Hwy 11
160,30.847963,-89.509964,Old Hwy 26/Sonny Davis Rd
579,30.558781,-89.665311,Division St
305,30.524971,-89.675626,E Canal St/N Gray Ave/S Gray Ave
305,30.825124,-89.559774,Casey Ln/S Highlands Dr
160,30.663961,-89.663553,Danny Johnson Rd/Henleyfield McNeill Rd
160,30.491633,-89.706478,Watts Hill/Jackson Landing Rd
334,30.544707,-89.649164,I- 59
185,30.517597,-89.654105,Eden Ln
418,30.518331,-89.684003,Bruce St
185,30.559319,-89.591930,Arbor Ln/Audubon Pl
216,30.531390,-89.674385,E 8th St
160,30.960987,-89.459192,Webster Ladner Rd/Lavelle Ladner Rd
160,30.633329,-89.626628,Harmony Dr W
185,30.841217,-89.536407,W Beers St
216,30.581701,-89.660643,Wt and Lena Spiers Cdr/US Hwy 11
334,30.665439,-89.637451,McNeill Steephollow Rd/Henleyfield McNeill Rd/US Hwy 11
216,30.659386,-89.666191,Danny Johnson Rd
160,30.631501,-89.742917,Lynne Dr
246,30.967463,-89.436045,I- 59
160,30.847549,-89.514267,Old Hwy 26
160,30.530289,-89.673135,Evergreen Ave/Palm St
185,30.654503,-89.605980,Hubert Spiers Rd/Peacefull Hollow Rd
185,30.543047,-89.667752,E Sycamore Rd/Watts St
185,30.483800,-89.691332,US Hwy 11/Turnaround Ln
185,30.544393,-89.659356,Sheppard Blvd/Teddy Ln/Waynewood Dr
160,30.809959,-89.493620,Progress Rd
445,30.526414,-89.673016,N Monroe Ave/E Third St/E 3rd St
185,30.549018,-89.661580,Hummingbird Ln/Shady Side Ln
334,30.833444,-89.547487,Rodeo St
1278,30.842692,-89.543952,River Rd/W North St/Old Hwy 26
276,30.482809,-89.686978,Ford Evans Rd
160,30.876215,-89.590140,Oak Hill Rd
305,30.515425,-89.629568,State Hwy 43
246,30.557015,-89.643484,Garden District Cir/Gallier Cove
160,30.847912,-89.494786,/State Hwy 26
216,30.518339,-89.653867,State Hwy 43
552,30.529464,-89.678851,W 5th St/5th St/US Hwy 11
445,30.844820,-89.527886,Martin Luther King Jr Dr/Barber St/Old Hwy 26
276,30.832113,-89.534149,W Rouse St/S Gandy St
1537,30.517447,-89.672143,Bales Ave/Memorial Blvd
160,30.637920,-89.654140,Shirley Ann Dr/White Chapel Rd
185,30.836206,-89.563122,Cary Kirkland Rd/Old Hwy 26
390,30.510943,-89.692176,Brookdale Dr/Fern Dr
216,30.481807,-89.688165,/Hunt Rd
160,30.671953,-89.699619,Leona Cooper Rd
160,30.858080,-89.628707,A & R Dr/Mathurne Rd/Rosenbaum Dr
579,30.835189,-89.533643,S Allen St/State Hwy 26
185,30.753768,-89.576311,Harvey Anderson Rd/Bice Rd
334,30.818911,-89.517210,Herb Gentry Rd
160,30.486411,-89.685907,Willow Dean Ln
334,30.516243,-89.693696,Betsy Dr/Jackson Landing Rd
160,30.494750,-89.698649,Oliver Davis Rd
160,30.546059,-89.596211,Moeller Rd
160,30.664470,-89.579214,I- 59
445,30.832141,-89.532763,W Rouse St/S St Charles St
216,30.668381,-89.636712,Sones Chapel Rd/Baker Ave/US Hwy 11
160,30.864679,-89.559627,Oak Hill Rd/Albert Odom Dr
160,30.569992,-89.647765,Hideaway Ln/Hide-A-Way Ln
445,30.556961,-89.665583,Haydon Dr/US Hwy 11
160,30.610355,-89.613569,Openwood Dr E
305,30.533819,-89.695874,Dale St/Goodyear Blvd
762,30.835375,-89.532798,State Hwy 26/S St Charles St
160,30.485694,-89.694685,Geranium Dr/Daisy Dr
160,30.856190,-89.537762,Dogwood Ave/N Columbia St
160,30.656107,-89.753760,/George Wise Rd
185,30.609857,-89.639356,W Union Rd
185,30.575409,-89.575859,Ceasar Rd/W Union Rd
631,30.528404,-89.683647,Goodyear Blvd
334,30.529975,-89.676556,N Haugh Ave/6th St
216,30.808287,-89.516264,I- 59
185,30.515548,-89.666780,Alpine Rd/E Jerusalem Ave
216,30.716065,-89.555752,I- 59
362,30.987743,-89.425241,I- 59
160,30.547229,-89.660365,Parkwood Cir/Stemwood Dr
246,30.542980,-89.649730,Sycamore Rd/I- 59
160,30.667754,-89.781235,Washout Ln
185,30.842323,-89.528170,Travis Jordan Cir/Todd St
185,30.836289,-89.527016,Mc Gehee St
334,30.562021,-89.644091,Southgate Ln/E Lake Shore Dr
390,30.530463,-89.694605,8th Ave/Moody St
160,30.644611,-89.643788,The Boulevard
418,30.828567,-89.524249,Spirit St/S Main St
472,30.526799,-89.689240,Wisteria Ln/Crosby St
160,30.534074,-89.688254,3rd Ave
160,30.469860,-89.692735,Thomas Stockstill/Egert St
246,30.569867,-89.649403,Hide A Way Ln/Greenwood Dr
160,30.527441,-89.702841,Ferris St/Superior Ave
579,30.834614,-89.533643,S Allen St/W McClendon St
160,30.634631,-89.656273,Paper Shell Rd
276,30.845086,-89.532114,Morgan St
276,30.841787,-89.532897,E Magnolia St/Old Hwy 26
160,30.842154,-89.566017,Heather Ln/Tanglewood Dr
160,30.827516,-89.525717,Industrial Dr
216,30.482038,-89.688118,/Willow Bend Mh Park
160,30.619457,-89.659719,C D Walker St/Byrd Rd/Byrd St
160,30.623072,-89.658310,H C Stockstill Dr/George Ford Rd
160,30.670417,-89.702008,Rock Ranch Rd/Herb Lee Fred Spiers Rd
216,30.494008,-89.671641,I- 59
276,30.519270,-89.683489,S Main St/W Jarrell St
185,30.493351,-89.699175,Villa Dr/Oliver Davis Rd
276,30.848163,-89.541285,US Hwy 11
246,30.847925,-89.495980,State Hwy 26/I- 59
160,30.604464,-89.653730,Loving Ln
160,30.492257,-89.708852,Sam Powell Rd/Jackson Landing Rd
246,30.562098,-89.647611,Woodlawn Dr/E Lake Shore Dr
362,30.526772,-89.693045,Palestine Rd/Bay St
160,30.846352,-89.512538,Bill Watson Ball Park
445,30.527920,-89.685045,Oak St/Williams Ave
276,30.511047,-89.685740,Martin Luther King Jr Blvd/Street A
246,30.528647,-89.688441,Griffing Ln/Williams Ave
305,30.528281,-89.686032,6th Ave/Norwood St
160,30.855171,-89.565220,Beach Rd/Bridlewood Dr
246,31.000280,-89.418834,I- 59
160,30.610358,-89.652225,Camellia Rd/Smith St
160,30.488252,-89.681117,Sam Mitchell Rd/Shorty Burgess Rd/Edmond Mitchell Rd
246,30.521575,-89.677627,Woodglen Cove/S Steele Ave
390,30.523921,-89.660999,E Canal St
445,30.517650,-89.687054,Jones St
246,30.523313,-89.670525,Kendra Ln/South Virginia Ave
305,30.530621,-89.691208,6th Ave/Teague St/Dozier St
246,30.836846,-89.562123,Old Hwy 26/Mo Hunter Ln
185,30.534073,-89.702980,Cousin St
216,30.526299,-89.687118,Jenkins St
185,30.829148,-89.589654,Frank Henry Rd/Peters Rd
160,30.518351,-89.612113,State Hwy 43/Fire Fly Ln
305,30.552514,-89.645202,Scarlet Dr/Cooper Rd
185,30.633087,-89.653230,Ford-Ashe Cir/White Chapel Rd
334,30.530477,-89.693905,8th Ave/Glenwood St
216,30.846279,-89.525224,Todd Cir/Old Hwy 26
185,31.005367,-89.416722,I- 59
305,30.543172,-89.660222,Crestwood Dr/State Hwy 43
160,30.612614,-89.584512,Hollis Mitchell Rd/Mount Carmel Rd
160,30.546146,-89.578809,Timaquana Dr
160,30.619676,-89.588018,E Boley Rd/Anchor Lake Rd
185,30.469638,-89.687773,I- 59/State Hwy 607/US Hwy 11
362,30.532115,-89.683818,3rd Ave/Norwood St
185,30.837098,-89.537700,S Maxwell St/W Michigan St
334,30.952334,-89.443724,I- 59
1174,30.843615,-89.542220,Frontage Rd/College Dr
185,30.828492,-89.594394,Cornell Ln
1174,30.835567,-89.531978,S Shivers St/State Hwy 26
185,30.544887,-89.662099,Ridgewood Ln/Crestwood Dr
276,30.622897,-89.652822,Old Hwy 11/US Hwy 11
185,30.530357,-89.691421,Teague St/Dozier St
246,30.493121,-89.695983,Gilbert Ln
160,30.570440,-89.644285,W Lakeshore Dr
185,30.624526,-89.620836,Anchor Lake Rd/Lumpkin Rd
160,30.759868,-89.586691,Desselle Ln/Derby White Sand Rd
276,30.561524,-89.640001,I- 59
526,30.529344,-89.685438,Goodyear Blvd/Norwood St
276,30.529219,-89.704669,Palestine Rd/Carver Dr
160,30.648159,-89.586618,I- 59
276,30.529398,-89.682898,Pine St/5th Ave
160,30.521908,-89.672135,Bales Ave/Mitchell St
160,30.608730,-89.661650,Burgetown Rd/Roger Penton Rd
390,30.521335,-89.694604,Rosa St/N Lewis Cir/Lewis Cir
216,30.506683,-89.712723,Wood Oaks Ct
160,30.567987,-89.547052,F Z Goss Rd/Rd 209
160,30.564988,-89.670464,Pebble Ln
160,30.484990,-89.677829,Lucille Dr
160,30.924671,-89.646608,Fords Creek Rd/Stanford Lake Rd/Gobbler Head Rd
160,30.653659,-89.616211,Dogwood Fork Rd
185,30.579664,-89.709663,Homer Spiers Rd/Liberty Rd
160,30.829303,-89.555607,Red Oak Ln/N Highlands Dr
246,30.518370,-89.686159,Bruce St
445,30.530498,-89.693141,Holly St
246,30.833105,-89.567342,W North St
216,30.679448,-89.747620,Henleyfield McNeil Rd/Henleyfield McNeill Rd
418,30.553944,-89.666720,Lenior Rd/Richardson-Ozona Rd
160,30.522821,-89.693319,Richard St/Snyder Ln
160,30.483213,-89.695898,Jasmine Dr/Lilac Dr
160,30.962744,-89.449739,Lester Seals Rd
185,30.612300,-89.656290,Bill Terrell Rd/US Hwy 11
185,30.571323,-89.644279,Tanglewood Dr/W Lakeshore Dr
216,30.720608,-89.553139,I- 59
160,30.718227,-89.599271,US Hwy 11
160,30.489532,-89.697727,Eloise St/Margaret St
160,30.672139,-89.365017,Barth Rd/Community Church Rd
1641,30.843867,-89.546197,River Rd/Faculty Row/W Gate
216,30.554291,-89.682240,McCormick Ln
276,30.532881,-89.693783,Goodyear Blvd/Forest St
216,30.525183,-89.676714,S Steele Ave/E Canal St/N Steele Ave
185,30.532279,-89.706120,Walker St/Neal Rd
276,30.967286,-89.435672,I- 59
185,30.508036,-89.665902,Ridge Rd
390,30.515057,-89.691171,Clover Cir/Martin Luther King Jr Blvd
185,30.523433,-89.675214,Cecile St
160,30.628427,-89.725732,Springhill Dr
160,30.485274,-89.696999,Jasmine Dr/Tulip Dr/Myrtle Dr
1200,30.845786,-89.541939,Prcc Rd/Frontage Rd/W Broad St
160,30.839673,-89.524782,S Woodard St
305,30.543136,-89.651615,/State Hwy 43
160,30.651384,-89.633784,Citation Dr
246,30.572121,-89.649959,Lazy Meadow/N Hill Dr
216,30.503594,-89.714690,Union School Rd/Sam Sanders Cir/Jackson Landing Rd
160,30.641901,-89.647872,Oddessa Dr
216,30.814750,-89.510070,I- 59
334,30.540190,-89.672416,Cayten St/Circle Dr
185,30.848625,-89.541175,US Hwy 11
185,30.567285,-89.641125,E Lake Shore Dr/Greenbriar Ln
185,30.572067,-89.737429,Parker Rd/State Hwy 43
185,30.590599,-89.663857,Escape Dr
160,30.569832,-89.646548,Tanglewood Dr/Summit Dr
390,30.518390,-89.687264,Bruce St/Jones St
185,30.469880,-89.694253,River Rd/Thomas Stockstill
160,30.565322,-89.641736,Fairwood Cir
631,30.527053,-89.683010,/N Quince St
185,30.978547,-89.430400,Gumpond Beall Rd/I- 59
185,30.838983,-89.523191,State Hwy 26
216,30.670305,-89.641490,7th Ave/Cindy Dr/Seventh Ave
631,30.518272,-89.681816,Bruce St/US Hwy 11
246,30.832836,-89.566915,State Hwy 26/W North St
185,30.662275,-89.549959,McNeill Steephollow Rd/Ophelia Lee Cir
160,30.580875,-89.641695,Donnybrook Dr/Pine Crest Dr
185,30.507357,-89.714662,Union School Rd/Hickman Ave
276,30.491941,-89.688991,Section Line Rd/US Hwy 11
160,30.516352,-89.685250,Witthauer St/Hunt St
160,30.969917,-89.496759,Si Jones Rd/US Hwy 11
216,30.567277,-89.544884,Willow Ln
160,30.631248,-89.594677,I- 59
160,31.000297,-89.341420,State Hwy 13
160,30.823581,-89.555309,US Hwy 11/S Highlands Dr
160,30.924097,-89.450734,Springfield Rd/George Bilbo Rd
160,30.573797,-89.762159,Walkiah Bluff Rd
160,30.546828,-89.676561,Sams Rd/S Front Rd
276,30.548327,-89.647184,I- 59
185,30.845523,-89.533166,E Smith St/N Dairy St
160,30.762855,-89.593661,Derby White Sand Rd
276,30.524752,-89.667176,S Abrams Ave/E Canal St/N Abrams Ave
185,30.651963,-89.628478,Sassafras Dr/Shade Tree Dr/Persimmon Dr
160,30.613142,-89.623296,Cassady Dr
160,30.850084,-89.536604,McVay Dr
160,30.532026,-89.696932,Dale St/7th Ave
185,30.839295,-89.526946,S McGehee St/S Mc Gehee St/Parker St
160,30.826676,-89.560106,Oak Ridge Ln
160,30.543062,-89.646613,Sycamore Rd/George Mitchell Rd
160,30.512573,-89.689105,Martin Luther King Jr Blvd
418,30.527303,-89.672805,4th St/N Monroe Ave/E Fourth St
276,30.519508,-89.722160,D Bales Rd
185,30.671011,-89.701437,Henleyfield McNeill Rd/Guy Penton Rd
305,30.651410,-89.634946,Secretariat Dr/Windance Dr/Citation Dr
185,30.476725,-89.692770,US Hwy 11
160,30.612195,-89.644285,Cybil Pl/W Union Rd
185,30.602472,-89.675531,Burgetown Rd/McBeth Rd
710,30.528518,-89.679179,4th St/US Hwy 11
160,30.588196,-89.661878,Elton Ln/Elmer Jackson Rd
160,30.828390,-89.579643,Peters Rd
605,30.517742,-89.662123,/Memorial Blvd
418,30.518942,-89.688313,Taylor St
160,30.580975,-89.553789,C L Thompson Rd/W Union Rd
160,30.557093,-89.653323,Double Lake Rd/Twin Oak Ct
160,30.598056,-89.681173,Liberty Rd/Ed Moore Rd
246,30.849593,-89.541406,/Frontage Rd
216,30.516874,-89.649383,S Delano Ln/Stafford Rd
334,30.614690,-89.652042,Harrison St/Lee St
1226,30.517350,-89.671673,Memorial Blvd/Elm St
185,30.737159,-89.590823,Buford Ln
185,30.566866,-89.718435,State Hwy 43/Milton Vaughn Rd
216,30.811458,-89.513408,S Main St/I- 59
579,30.521347,-89.695330,Rosa St/Lewis Cir
160,30.533405,-89.748283,Chance Ln
160,30.559651,-89.654911,Millbrook Pkwy/Country Club Dr
160,30.826606,-89.577838,Jeffery's Ln
246,30.528873,-89.675757,5th St/E Fifth St/N Steele Ave
684,30.519385,-89.689349,Jarrell St/Davis St/W Jarrell St
3447,30.843897,-89.544060,River Rd
160,30.810425,-89.466054,Sam Hall Rd/Progress Rd
216,30.832905,-89.534166,S Gandy St
160,30.522351,-89.693681,Touquet St
305,30.833748,-89.543817,US Hwy 11
185,30.704526,-89.561416,Boggy Branch Rd
160,30.654341,-89.551785,Bradley Rd
185,30.571619,-89.737691,Pauline Ln
160,30.789193,-89.767573,State Hwy 26
246,30.846868,-89.518523,Old Hwy 26/Sweetbay Rd
390,30.525780,-89.682693,Ruby/Elizabeth St
160,30.645803,-89.643497,N Apple South Dr/Cottage Ln
160,30.506402,-89.662541,Clarence Frierson Rd
305,30.613503,-89.651788,Jackson St/Lee St
499,30.543174,-89.658874,Sheppard Blvd/State Hwy 43
160,30.520789,-89.647366,Jeff Wheat Rd/Trailer Park Driveway
160,30.545442,-89.656983,Teddy Ln/Mamie Cir
246,30.487364,-89.704170,Royal St
160,30.899898,-89.637238,Horse Stomp Rd/Whipstock Hollow Rd
276,30.561582,-89.644289,Southgate Ln
160,30.646092,-89.708135,Covered Bridge Rd
185,30.523423,-89.634538,Ceasar Rd
160,30.899576,-89.531182,Mr B Blvd/US Hwy 11
710,30.841122,-89.534767,E Erlanger St/W Erlanger St/S Main St
185,30.524121,-89.675734,Tate St/S Gray Ave
160,30.545287,-89.672427,S McGeehee Ln
276,30.876005,-89.487385,I- 59
579,30.526823,-89.696966,Palestine Rd/Clark St
160,30.498726,-89.715070,Davis Dawsey Rd
160,30.529532,-89.690500,S Juniper St/Small St
246,30.487146,-89.703949,Maroon Dr/Royal St
185,30.793679,-89.577495,Jimmy Reyer Rd
160,30.603675,-89.654442,Brandon Dr
246,30.813672,-89.511044,/I- 59
813,30.517764,-89.664917,/Memorial Blvd
160,30.515524,-89.649385,Howell Rd/Stafford Rd
160,30.547755,-89.651925,Fishhook Ln/Wildwood St/Wildwood Dr
160,30.553422,-89.592456,Eaves Rd/Ceasar Rd
160,30.511923,-89.651000,Campers Cove/Short Leaf Ln
305,30.519064,-89.697842,Herrin Dr/S Beech St
552,30.828409,-89.523904,School Bus Cir/
658,30.843707,-89.542040,Fake 4 US Hwy 11/Fake 3 US Hwy 11
276,30.511743,-89.649829,Campers Cove
246,30.808318,-89.515830,I- 59
160,30.571105,-89.653019,N Hill Dr
160,30.749075,-89.559779,Dupont-Harts Chapel Rd
216,30.654427,-89.583205,/I- 59
499,30.530751,-89.685927,5th Ave
160,30.549722,-89.624264,Hartman Rd/Sycamore Rd
305,30.514452,-89.664028,Ridge Rd
160,30.521393,-89.730184,Rube Ln/Huppo Rd
160,30.519119,-89.601460,State Hwy 43
160,30.835010,-89.346194,M and M Paradise Ln
160,30.567248,-89.749405,Arrowhead Dr/Burnt Bridge Rd
160,30.647039,-89.705669,Pear Tree Ln/Covered Bridge Rd
160,30.668272,-89.635363,Sam Wallace Rd
246,30.823145,-89.520323,Pecan St
276,30.503345,-89.676767,Deason Dr
216,30.718087,-89.553765,Savannah Millard Rd
160,30.545887,-89.672439,N McGeehee Ln
160,30.957536,-89.441080,/I- 59
418,30.842444,-89.535137,W Cumberland St/Old Hwy 26
276,30.561804,-89.662458,Lakeshore Dr/Rue St Germaine
246,30.832740,-89.567308,State Hwy 26
160,30.656169,-89.767322,State Hwy 43
305,30.832932,-89.548336,Rodeo St
160,30.750020,-89.544418,Monroe Breland Rd
160,30.750037,-89.544402,Dupont-Harts Chapel Rd
160,30.534500,-89.686675,2nd Ave
185,30.550391,-89.681105,State Hwy 43
160,30.624042,-89.649076,Stone Bridge Rd N
276,30.492205,-89.672231,I- 59
185,30.677087,-89.651897,Jaci Ln/Jan Dr
185,30.519381,-89.687043,Jarrell St/Southside St/W Jarrell St
276,30.529654,-89.689088,Kirkwood St/6th Ave
160,30.533931,-89.687925,3rd Ave/N Juniper St
160,30.606465,-89.664286,Burgetown Rd
160,30.484224,-89.687328,Hurst Rd
185,30.476836,-89.694032,Cliff Mitchell Rd/1st St
185,30.520047,-89.686158,Doss St/Southside St
305,30.971447,-89.434011,I- 59
526,30.521168,-89.680787,Whitfield St/S Harvey Ave
246,30.843470,-89.539888,S Haynes St/Old Hwy 26
185,30.754439,-89.575880,Harvey Anderson Rd
160,30.512492,-89.649397,Stafford Rd/Easy St
276,30.543080,-89.647160,Sycamore Rd
216,30.838632,-89.544074,Small Fruit Dr/S High St
246,30.823080,-89.520615,Pecan St/Long Leaf Ln/S Main St
216,30.840298,-89.535562,W Magnolia St/S Julia St
160,30.484363,-89.689382,Willow Bend Mh Park
185,30.525232,-89.661909,Wheat Ave
305,30.543047,-89.666057,E Sycamore Rd/Adcox Rd
390,30.518325,-89.683686,Bruce St/S Main St
160,30.554454,-89.698818,Pleasant Ln
160,30.851690,-89.550021,Beach Rd/Hillside Dr
160,30.808402,-89.487639,Progress Rd
418,30.521153,-89.678654,Whitfield St/S Haugh Ave
362,30.543283,-89.663472,Millswood Rd/State Hwy 43
160,30.472928,-89.687035,Hodge Dr/Harry St
246,30.527222,-89.686388,W Canal St/Norwood St
185,30.668312,-89.757998,Tierro Lago Dr/Tierra Lago Dr
185,30.650059,-89.638814,Secretariat Dr/Secretariart Dr/Running Stream Dr
552,30.845767,-89.541377,W Larkin I Smith Dr/Frontage Rd/W Broad St
160,30.822671,-89.584289,State Hwy 26
160,30.724121,-89.593344,Savannah Millard Rd
185,30.612664,-89.662828,Whitehead Ln
185,30.806217,-89.566435,Robert Reid Rd
185,30.664435,-89.637592,US Hwy 11
334,30.844011,-89.537191,N Strahan St/S Strahan St/Old Hwy 26
160,30.839190,-89.534670,Doyle St
160,30.667939,-89.635447,Sam Wallace Rd
185,30.522215,-89.678529,Harris St/S Haugh Ave
246,30.571686,-89.646797,Hideaway Ln/Rabbit Hill Ln
305,30.524773,-89.672465,S Columbia Ave/E Canal St
160,30.922314,-89.455004,Rault Dr/Golf Ln
334,30.462568,-89.694877,I- 59
736,30.837019,-89.532808,S St Charles St/W Michigan St
499,30.830980,-89.525605,Career Center Cir
276,30.504515,-89.713981,Oaks Ct
418,30.515351,-89.677595,Cedar Grove Ave
276,30.890350,-89.478635,I- 59
276,30.837116,-89.542808,US Hwy 11/W Michigan St
216,30.826339,-89.531259,S Shivers St/Dupont-Harts Chapel Rd
160,30.809516,-89.481488,Progress Rd
185,30.580993,-89.693592,Inside Rd
246,30.526796,-89.694654,Palestine Rd/Moody St
246,30.623590,-89.601218,Hillcrest Farm Rd/Lakeside Dr
684,30.526390,-89.682014,W Canal St/Rester St
185,30.561878,-89.643275,E Lake Shore Dr/Pine Barr Rd
160,30.473830,-89.693057,River Rd
160,30.633570,-89.638176,Rebel Hill Dr
334,30.511228,-89.712507,Laura Dr
160,30.509499,-89.681729,S Haugh Ave/Jefferson Davis Pkwy
160,30.984331,-89.711467,State Hwy 43
334,30.817715,-89.516965,Balmoral Dr
216,30.905503,-89.675012,Winchester Rd
160,30.643844,-89.677416,Harris Rd
334,30.834623,-89.536496,State Hwy 26
185,30.648161,-89.586071,I- 59
390,30.501533,-89.668816,/I- 59
160,30.484469,-89.696850,Jasmine Dr/Daisy Dr
891,30.834635,-89.531244,S Shivers St/W McClendon St
185,30.643290,-89.677214,Harris Rd
185,30.982533,-89.429011,Broadus Rd
526,30.519505,-89.681010,Telly Rd/Culpepper St
160,30.742146,-89.723048,Arbor Pl
160,30.779232,-89.521309,I- 59
445,30.542138,-89.658378,Orleans Blvd/Evangeline Dr
185,30.569866,-89.651719,Hide A Way Ln/Millbrook Ln
305,30.520313,-89.688313,Taylor St/Weems St
334,30.832106,-89.534709,W Rouse St
216,30.846470,-89.523468,Old Hwy 26
160,30.612881,-89.789424,Pine Grove Rd/Dumas Wise Rd
362,30.839598,-89.545184,Research Dr
216,30.531971,-89.691753,Holly St/Goodyear Blvd
185,30.536665,-89.694136,Dale St/3rd Ave
160,30.815834,-89.600697,State Hwy 26
185,30.490774,-89.703444,Elane St/Jackson Landing Rd
160,30.575045,-89.664609,Hanna Dr
160,30.464330,-89.683497,State Hwy 607
839,30.516139,-89.679225,S Haugh Ave
185,30.482616,-89.696925,Clover Dr/Lilac Dr
362,30.524157,-89.660349,I- 59
305,30.533949,-89.695787,Dale St/Goodyear Blvd
276,30.912152,-89.455968,King's Hwy/Queen's Hwy
185,30.840695,-89.524783,S Woodard St/Raine St
445,30.832752,-89.525371,A Cir Dr/Stinger St
160,30.797481,-89.737343,Buck Branch School Rd
216,30.884074,-89.537361,US Hwy 11
1174,30.526877,-89.680029,Goodyear Blvd
160,30.779239,-89.520816,I- 59
185,30.530307,-89.682377,E 4th Ave/Pine St
499,30.553231,-89.666496,Lenior Rd/US Hwy 11
246,30.926918,-89.456738,I- 59
160,30.686843,-89.659431,Joe Smith Rd/Rome Ln
185,30.485912,-89.691417,Shelby Ln/J J Holcomb Rd
160,30.540883,-89.694701,River Rd
160,30.582541,-89.664370,Marcy Ln
160,30.823685,-89.531730,Innerspace N/N Storage Rd
160,30.826693,-89.578007,State Hwy 26/Jeffery's Ln
390,30.508467,-89.666862,I- 59
185,30.520235,-89.683221,Weems St/S Main St
185,30.844726,-89.532439,Hughs St
185,30.568255,-89.721405,State Hwy 43/Otis Stewart Rd
185,30.638872,-89.773610,State Hwy 43
334,30.840295,-89.542423,Fake US Hwy 11/Fake 2 US Hwy 11/US Hwy 11
160,30.472338,-89.687057,Harry St/2nd Ave
246,30.867567,-89.492524,I- 59
160,30.841281,-89.517618,State Hwy 26
160,30.578922,-89.573793,Ceasar Rd/J D Gill Rd
160,30.627881,-89.688378,George Ford Rd
185,30.851951,-89.557147,Beach Rd
160,30.645826,-89.645596,Cottage Ln
160,30.524084,-89.574019,Lovell Johnson Rd
305,30.841810,-89.548611,Old Hwy 26
216,30.685862,-89.568953,I- 59
160,30.573280,-89.655285,Long Lake
362,30.835993,-89.546210,Horticulture Rd
185,30.504233,-89.710651,Varnado Ln
216,30.836810,-89.528468,E Michigan St/State Hwy 26
1226,30.845582,-89.548590,Technology Loop/Nursing Ln
185,30.650455,-89.584652,E Boley Rd
276,30.512173,-89.710075,Charlotte Dr/Laura Dr
216,30.562722,-89.648736,Marina Ct
160,31.000178,-89.340703,Forrest County Rd
160,30.828504,-89.522430,Barlow Ln
160,30.573752,-89.762389,Walkiah Bluff Rd
246,30.527675,-89.686258,Norwood St
246,30.580400,-89.633373,Rollingwood Dr/Cragmont Rd
160,30.560511,-89.652947,Eagle Ct
160,30.581232,-89.710433,Liberty Rd/C G Smith Rd
216,30.912583,-89.457347,Laurel's Ln/Queen's Hwy
160,30.527666,-89.625259,Ceasar Rd
160,30.561944,-89.586404,Magnolia Dr/Ceasar Rd
160,30.628580,-89.724672,Springhill Dr
216,30.533939,-89.690546,Holly St/W 4th Ave
334,30.832956,-89.547475,Rodeo St
160,30.784419,-89.578834,US Hwy 11
160,30.586756,-89.711393,Liberty Rd/Skipper Rd
445,30.521227,-89.688344,Rosa St
472,30.561292,-89.664895,Seal Rd
994,30.845234,-89.541824,Fake 3 US Hwy 11/US Hwy 11
160,30.665116,-89.645599,North St
305,30.842330,-89.496067,I- 59
185,30.841039,-89.518207,State Hwy 26
552,30.524797,-89.673305,E Canal St/S Monroe Ave
185,30.527490,-89.665000,Washington St/N Loftin St
216,30.493413,-89.702185,Eloise St/Oliver Davis Rd
185,30.855763,-89.493219,Ken-du Rd/Shenandoah Rd
499,30.537561,-89.672936,Carroll St/US Hwy 11
216,30.505355,-89.714689,Wood Oaks Dr/Union School Rd
246,30.570112,-89.662643,Althea Dr/US Hwy 11
160,30.622063,-89.554621,Anchor Lake Rd/Choctaw Dr
185,30.534856,-89.692624,W 4th Ave/Forest St
160,30.718410,-89.555406,Savannah Millard Rd
526,30.844301,-89.535630,Old Hwy 26/E North St/N Main St
160,30.893491,-89.553585,Spring Hill Rd/Otho Tynes Rd
185,30.572055,-89.661083,Quail Hollow/N Hill Dr
160,30.491820,-89.700525,Marilyn St/Constance St
216,30.833212,-89.567352,Old Hwy 26/W North St/White Sand Rd
276,30.573516,-89.661906,US Hwy 11
1407,30.527166,-89.680735,N Main St/Goodyear Blvd
160,30.573431,-89.716876,Falcon Dr/Yellowbird Ln
216,30.515445,-89.689871,Clover Cir/Merrydale Dr
305,30.513367,-89.673398,Telly Rd/Alpine Rd
276,30.472212,-89.686119,Hodge Dr
160,30.662212,-89.703734,Rock Ranch Rd/Albert Jarrell Rd
246,30.830728,-89.524385,School Bus Cir
246,30.654529,-89.583719,/I- 59
216,30.543944,-89.667773,Watts St
160,30.666234,-89.641791,6th Ave/Henleyfield McNeill Rd
445,30.518262,-89.697834,Beechwood Dr/S Beech St
246,30.842594,-89.537528,S Pine St/W Pearl St
305,30.473461,-89.683946,I- 59
160,30.841946,-89.537351,W Cumberland St/S Pine St
390,30.525049,-89.695904,Will St/Rosin Rd
305,30.572298,-89.661898,N Hill Dr
736,30.517574,-89.664924,/Memorial Blvd
305,30.830197,-89.529982,Pecan Acres Cir
160,30.469107,-89.676500,Joe Bennett Rd
185,30.844717,-89.532367,E North St/S Jordan St/Hughs St
305,30.824390,-89.558658,S Highlands Dr/Lake Michael Ln
185,30.837122,-89.541453,S Cowart St/W Michigan St
246,30.628199,-89.596922,I- 59
216,30.841717,-89.533141,Old Hwy 26
276,30.513368,-89.628077,Plantation Oaks Dr/Longwood Dr
631,30.831946,-89.525748,Sports St/Stinger St
216,30.569495,-89.652875,Hide A Way Ln
160,30.536298,-89.696245,River Rd/W 4th Ave
276,30.511013,-89.685599,Martin Luther King Jr Blvd/Street A
160,30.486445,-89.694937,Tulip Dr/Geranium Dr
276,30.997424,-89.420780,I- 59
160,30.993205,-89.515444,Otis Jones Rd
160,30.763340,-89.581916,Charwood Dr/US Hwy 11
246,30.534226,-89.679899,S Boley Dr/N Boley Ave
160,30.582629,-89.643983,Hideaway Ln/Placid Ln
185,30.520307,-89.598645,Salem Rd/Morris Bond Rd
160,30.805414,-89.566223,Robert Reid Rd/US Hwy 11
362,30.841397,-89.550710,Old Hwy 26
160,30.922844,-89.450737,George Bilbo Rd/Hillsdale Gumpond Rd
160,30.480912,-89.696675,Jackson Landing Rd
185,30.515100,-89.605404,Oak Allee Dr
246,30.523340,-89.672930,Cecile St/Grace Dr
216,30.486041,-89.690686,US Hwy 11
418,30.557012,-89.644786,/Timberwood Ln
160,30.852065,-89.520297,Sweetbay Rd
160,30.833513,-89.550604,State Hwy 26
160,30.818007,-89.488872,Lakeside Rd
390,30.557016,-89.644269,Cooper Rd/Timberwood Ln
216,30.905855,-89.675487,Winchester Rd
160,30.634377,-89.649862,Meakler Rd/US Hwy 11
160,30.584043,-89.544358,F Z Goss Rd
160,30.608276,-89.735985,Timber Ridge Dr/Lake David Dr
160,30.542709,-89.641282,Green Tree Dr/Sycamore Rd
334,30.523342,-89.669833,Kendra Ln
216,30.814100,-89.510063,Progress Rd
216,30.839812,-89.534454,Doyle St/W Church St
216,30.645977,-89.707434,Cove Lake Rd/Covered Bridge Rd
334,30.579726,-89.639353,Surrey Cir
185,30.546861,-89.672589,State Hwy 43
185,30.511444,-89.670862,Telly Rd/Garden Ln
1667,30.845910,-89.543146,Vo-Tec Rd
246,30.522849,-89.682679,S Main St
276,30.834795,-89.537707,S Maxwell St
246,30.823881,-89.521109,Azalea St/S Main St
276,30.572617,-89.646483,Hideaway Ln/Ridgeview Dr
160,30.468766,-89.691181,Dick Kennedy Rd/Jordan McQueen Rd
160,30.590281,-89.624320,I- 59
160,30.848298,-89.455755,A & L Dr
160,30.723614,-89.594626,Savannah Millard Rd
362,30.529562,-89.693027,York St/Bay St
185,30.571653,-89.645385,W Lakeshore Dr/Rabbit Hill Ln
160,30.677170,-89.631101,Grand Oaks Ave/US Hwy 11
216,30.794428,-89.703680,State Hwy 26
160,30.637220,-89.773591,State Hwy 43
246,30.519542,-89.678665,S Haugh Ave/Arbor Gate Cir/Culpepper St
185,30.577938,-89.646303,Hideaway Ln/Pinedale Dr
160,30.829970,-89.484824,Bennie Lumpkin Rd
710,30.841779,-89.534946,W Beers St/Martin Luther King Jr Dr/Old Hwy 26/S Main St
160,30.620270,-89.619584,Hawkins Dr
579,30.530308,-89.678321,6th St/US Hwy 11
305,30.530625,-89.693837,Glenwood St/7th Ave
160,30.577926,-89.643762,Pinedale Dr
276,30.492094,-89.688947,US Hwy 11
390,30.525045,-89.697829,Will St/S Beech St
160,30.924122,-89.457210,Hillsdale Gumpond Rd
216,30.735663,-89.539846,I- 59
472,30.527205,-89.670284,4th St/N Buren Ave
216,30.561093,-89.640235,I- 59
160,30.561115,-89.614925,George Wells Rd
362,30.508821,-89.667375,Telly Rd
185,30.848979,-89.537683,W Hyde St/N Columbia St
526,30.531076,-89.677395,E 7th St/N Curran Ave
160,30.551647,-89.683507,State Hwy 43/McCormick Ln
160,30.516758,-89.603647,Salem Church Rd
334,30.665294,-89.636395,McNeill Steephollow Rd
276,30.541919,-89.719248,Blue Heron/Seal Crest Dr
185,30.531512,-89.675057,E 8th St/Simmons St
246,30.492077,-89.689346,Section Line Rd
160,30.664598,-89.636631,R & R Dr
276,30.482314,-89.688153,Willow Bend Mh Park/Kim St/Lil Nell Dr
276,30.844200,-89.510580,State Hwy 26
160,30.545151,-89.635547,Dronet Rd
216,30.510470,-89.711762,Shirley Dr/Victoria Dr
216,30.586027,-89.645785,Field Brook Dr/S Winward Way
216,30.520419,-89.700243,West St/Nixon St
2194,30.845089,-89.543234,Old Stadium Rd/College Dr
185,30.837069,-89.535478,S Julia St/W Michigan St
216,30.511615,-89.671082,Telly Rd/Corinth St
185,30.851176,-89.405080,Saul Dr/Jess Williams Rd
160,30.845722,-89.535671,W Larkin I Smith Dr/N Main St
160,30.827337,-89.524675,Industrial Dr
839,30.834543,-89.529664,E Dove St
160,30.839481,-89.534225,S Main St
362,30.544619,-89.666071,State Hwy 43/Adcox Rd
160,30.537298,-89.544089,F Z Goss Rd
216,30.543513,-89.698507,N Beech St
185,30.534664,-89.698704,Bennett St/Goodyear Blvd
160,30.575630,-89.666022,Sanford & Son Rd
246,30.673896,-89.764448,State Hwy 43/Donley Burks Rd
160,30.979919,-89.468455,Red Top Rd
276,30.503205,-89.695879,Williamsburg Rd/S Beech St
526,30.527203,-89.669726,4th St/Fannie Ave
185,30.550404,-89.623782,Dolly Dr/Sycamore Rd
472,30.534359,-89.696839,River Rd/Goodyear Blvd
160,30.671439,-89.365442,Community Church Rd
216,30.506636,-89.685087,S Haugh Ave/US Hwy 11
276,30.843848,-89.537893,S Pine St/Old Hwy 26
216,30.493566,-89.671444,/I- 59
246,30.528652,-89.674641,5th St/E Fifth St
185,30.633215,-89.651620,Fawns Ln
185,30.521178,-89.683054,Rosa St/S Main St
160,30.497591,-89.695934,/Section Line Rd
160,30.498084,-89.695926,Ivory Davis Rd/Section Line Rd
160,30.510470,-89.704565,/Jackson Landing Rd
305,30.572362,-89.662148,N Hill Dr/US Hwy 11
305,30.592902,-89.622884,I- 59
160,30.637762,-89.655091,K T Ln/Holcomb Carroll Rd
160,30.561185,-89.613529,Sycamore Rd
216,30.526178,-89.671574,E 3rd St/N Jackson Ave
160,30.646068,-89.708427,Sleepy Hollow Path/Covered Bridge Rd
216,30.470447,-89.686160,Clyde Meitzler Rd
216,30.578035,-89.648692,Cattail Dr/N Hill Dr
736,30.543149,-89.654411,State Hwy 43/Teddy Ln
246,30.519529,-89.649399,State Hwy 43/Stafford Rd
917,30.842074,-89.542273,W Clark St/Fake US Hwy 11/US Hwy 11
160,30.532014,-89.714503,Palestine Rd/Buckley Pubs
160,30.700917,-89.464123,State Hwy 53
185,30.519345,-89.686148,Doss St/W Jarrell St
