Estimated daily crossings,Latitude,Longitude,Name
160,32.275419,-89.661930,Springfield Rd
160,32.515960,-89.484518,/Hwy 35 N
160,32.366352,-89.678783,/State Hwy 481
160,32.324809,-89.664298,/Hwy 13 S/Old 13 S
160,32.386717,-89.397399,Russell Community Rd/Old Hwy 80
246,32.354543,-89.481231,/Hwy 35 S/Airport Rd
160,32.543005,-89.476151,/Hwy 35 N
334,32.572212,-89.334641,2nd Ave/Main St
160,32.354573,-89.367697,E Hwy 80
160,32.531869,-89.478808,Hwy 35 N/
160,32.454832,-89.367449,Pleasant Ridge Rd
185,32.372403,-89.476802,Old Hwy 35 N/Sanders St
305,32.345065,-89.324535,Mill St/E Hwy 80
160,32.396044,-89.396872,Russell Community Rd
160,32.388328,-89.479918,Hwy 35 N/
185,32.323830,-89.341145,Lake-Norris Rd/I- 20
185,32.353269,-89.634833,/US Hwy 80
160,32.330472,-89.666259,Old Hwy 13 S
185,32.362520,-89.656452,Farris Park Rd
185,32.569899,-89.344518,North St
160,32.240622,-89.506011,/Hwy 35 S
160,32.570599,-89.342361,Pine St/Lynn St
246,32.361800,-89.480181,Hwy 35 S
160,32.383000,-89.470954,Hwy 21
216,32.392971,-89.448197,Ephesus Rd
160,32.355318,-89.661950,Boykin St/S Boykin St
216,32.363748,-89.486757,Joe St
216,32.393087,-89.448116,Ephesus Rd/Bounds Rd
160,32.366462,-89.437462,Pine Hill Rd
246,32.346853,-89.481928,/Fountain Rd
185,32.496628,-89.486618,Hwy 35 N/Old Hillsboro Rd
160,32.577057,-89.737626,Kincaid Rd
276,32.343623,-89.325504,Mill St/Holmes St
160,32.361727,-89.465051,/E 1st St
160,32.334236,-89.560255,I- 20
160,32.357338,-89.656100,Smith St
160,32.327271,-89.664208,/Pleasant Hill Rd
160,32.330964,-89.467635,I- 20
185,32.531796,-89.365154,Hwy 21
160,32.564470,-89.651362,Hillsboro-Ludlow Rd
160,32.539687,-89.476820,Hwy 35 N/
185,32.379204,-89.479362,Hwy 35 N/
362,32.365079,-89.470060,Hershel Ave/N Graham St
216,32.300406,-89.718705,I- 20
216,32.365862,-89.467862,E 5th St/N 2nd Ave
185,32.488872,-89.426234,Hwy 21
305,32.373092,-89.483655,Wilson St/Mounger St
160,32.328049,-89.338138,/Lake-Norris Rd
216,32.371607,-89.480555,Jefferson St/Marion Blvd
185,32.360959,-89.480427,/Morton St
160,32.352142,-89.670708,Hwy 13 N
185,32.284432,-89.684697,Hwy 13 S
160,32.291399,-89.709601,/Line Creek Rd
305,32.352727,-89.648286,/US Hwy 80/S Mill St
185,32.440949,-89.397353,Ringgold Rd/Russell Community Rd
185,32.547139,-89.475338,Hwy 35 N/Moody Rd
185,32.364081,-89.489549,W Hwy 80
160,32.550698,-89.357688,Hwy 21
185,32.366120,-89.450771,/Old Hwy 80
216,32.327633,-89.485402,/Hwy 35 S
160,32.352445,-89.329732,Old Hwy 80
185,32.386998,-89.479836,Hwy 35 N
160,32.550961,-89.357669,/Hwy 21
185,32.312865,-89.633798,I- 20
160,32.367402,-89.459337,E 7th St/N 8th Ave
160,32.372302,-89.471898,Wicker St
160,32.350225,-89.335420,E Hwy 80
160,32.350955,-89.657791,3rd St/W 2nd Ave
160,32.381277,-89.435098,McCormick Rd/
246,32.361888,-89.495859,/W Hwy 80
185,32.574054,-89.334915,State Hwy 487/
418,32.350631,-89.480787,/Trenton Rd
216,32.348739,-89.329007,School St/Old Hwy 80
160,32.330502,-89.699295,Lott Rd/Lindsey Rd
185,32.367376,-89.465392,Rose St
276,32.329781,-89.674883,Lindsey Rd
684,32.369104,-89.470975,N Broad St/Jones St
216,32.348181,-89.328995,Small Rd/Old Hwy 80
362,32.355204,-89.648829,N Ratliff Rd
472,32.338125,-89.483613,Hwy 35 S
160,32.430985,-89.482529,Hwy 35 N/
160,32.399482,-89.430788,Culpepper Rd
160,32.489196,-89.438677,/Steel Rd
305,32.362659,-89.469161,S 1st Ave/E 2nd St
160,32.322557,-89.341990,/Lake-Norris Rd
216,32.351546,-89.664859,/US Hwy 80
216,32.313089,-89.631960,I- 20
305,32.349776,-89.481874,/Hwy 35 S
216,32.375377,-89.464630,/7 Th Ave
216,32.369874,-89.480701,Jefferson St
160,32.442096,-89.514670,Hodges Ln/Old Hillsboro Rd
160,32.389897,-89.686730,State Hwy 481
362,32.364197,-89.465335,N 4th Ave/E 4th St
185,32.446666,-89.483525,Hwy 35 N/
246,32.343947,-89.324184,Thornton St/S Loper St
160,32.349567,-89.669444,/US Hwy 80
216,32.371909,-89.456673,Poplar St
160,32.565206,-89.345550,/State Hwy 21
216,32.365550,-89.485938,/W Hwy 80
362,32.369102,-89.471911,Jones St/Wicker St
216,32.369161,-89.456608,Poplar St/Jones St
216,32.362880,-89.480402,/Commerce Loop
160,32.373038,-89.489552,Azalea Dr
160,32.314586,-89.620355,I- 20
160,32.370207,-89.452614,May St
160,32.374751,-89.340450,/Old Hwy 80
160,32.356913,-89.531398,Reid Rd/US Hwy 80
160,32.450912,-89.493317,N William Ln
160,32.342994,-89.656131,Stedman Rd
334,32.377240,-89.475176,/Old Hwy 35 N
160,32.421874,-89.729298,Kennedy Rd/Irby Rd
185,32.300923,-89.707816,Line Creek Rd
160,32.514896,-89.335929,/Hays Rd
160,32.375750,-89.490973,Scott Dr/Oak Park Dr
1020,32.367231,-89.480171,George St
160,32.327562,-89.636114,Stage Rd
160,32.334044,-89.472340,S Industrial Park Rd
160,32.457946,-89.459261,Old Jackson Rd
246,32.364331,-89.461925,E 4th St/6th St
185,32.372309,-89.452255,Old Hwy 21
185,32.381919,-89.479532,Hwy 35 N/Hwy 21
160,32.564748,-89.736330,Doc Webb Rd
334,32.468087,-89.361082,Pleasant Ridge Rd/Ola A Rd
160,32.490839,-89.438589,Watson Dr/Steel Rd
445,32.572996,-89.335130,/State Hwy 21/Main St
160,32.453688,-89.477224,/Old Jackson Rd
160,32.429855,-89.711503,/State Hwy 481/Airport Rd
246,32.491677,-89.441924,/Watson Dr
160,32.362011,-89.507817,/Hwy 80
246,32.364939,-89.488201,/W Hwy 80
160,32.576019,-89.716625,/River Bend Rd
185,32.327612,-89.453462,I- 20
246,32.352525,-89.653546,US Hwy 80/Jasper Ave
160,32.578764,-89.737513,State Hwy 25
185,32.359054,-89.479465,/Hill St
216,32.403407,-89.420828,Culpepper Rd
160,32.361699,-89.476109,Front St
160,32.569429,-89.334377,Thrash Dr
216,32.363683,-89.480228,Commerce Loop
160,32.357345,-89.655801,Gregg St/Smith St
160,32.395619,-89.451577,/Hwy 21
246,32.361516,-89.474378,S Main St/Front St
362,32.352762,-89.647378,/US Hwy 80
160,32.360342,-89.428624,/E Hwy 80
160,32.301696,-89.489268,/Hwy 35 S
160,32.422527,-89.709701,Irby Rd/State Hwy 481
185,32.577096,-89.712896,State Hwy 483
185,32.360802,-89.461857,Bickham Ave
246,32.354553,-89.483122,/Airport Rd
160,32.358136,-89.669109,Hwy 13 N/State Hwy 481
185,32.399663,-89.451586,Hwy 21
185,32.339395,-89.543032,I- 20
334,32.371436,-89.477117,Old Hwy 35 N/Marion Blvd
160,32.512171,-89.485842,Hwy 35 N
185,32.360943,-89.480297,Morton St/Hwy 35 S
216,32.345961,-89.645396,Jo Lynn St/Eight Ave
160,32.344259,-89.648262,Old Hwy 80 E
160,32.386671,-89.397115,/Old Hwy 80
788,32.340538,-89.483271,/Hwy 35 S
246,32.347417,-89.485526,Fountain Rd
185,32.354568,-89.485431,/Airport Rd
334,32.350971,-89.481709,Hwy 35 S
160,32.355779,-89.650191,Ted Dr/Kennedy St
185,32.346888,-89.366704,/Old Sawmill Rd
362,32.337168,-89.483751,/Hwy 35 S
185,32.362365,-89.565752,US Hwy 80
185,32.357814,-89.666470,/Moore St
160,32.474509,-89.485240,Hwy 35 N/N Little River Rd
160,32.305506,-89.667277,Springfield Rd/Hwy 13 S
185,32.349611,-89.654997,E 4th Ave
246,32.349631,-89.655745,E 4th Ave/5th St
185,32.346805,-89.652320,D St/(Pulaski Rd)
160,32.382005,-89.478818,Hwy 21
160,32.426724,-89.711790,State Hwy 481
160,32.344554,-89.644539,/Old Hwy 80 E
160,32.344294,-89.322882,E Hwy 80/Smythe St
334,32.351716,-89.654538,6th St
305,32.364996,-89.474381,Old Hwy 35 N/N Banks St
160,32.393375,-89.341559,/Conehatta Rd
160,32.439442,-89.389295,/Ringgold Rd
246,32.343398,-89.482828,Hwy 35 S
216,32.347503,-89.654762,/Old Hwy 13 S
160,32.291562,-89.434221,/Hwy 501
160,32.421005,-89.332654,/Goodhope Dr
185,32.451614,-89.426798,/Hwy 21
160,32.365372,-89.333451,Old Hwy 80
160,32.490278,-89.746997,Tom Kyzar Rd
185,32.495047,-89.502861,/Brantly Dr
160,32.453327,-89.752781,Line Rd
185,32.400751,-89.716364,/Line Prairie Rd
160,32.307028,-89.488464,/Hwy 35 S
216,32.374743,-89.487911,Christian Ave/Poinsettia Dr
185,32.519143,-89.483391,/Hwy 35 N
160,32.350628,-89.476919,Elm St
276,32.352184,-89.661856,Agnew St/US Hwy 80
658,32.369105,-89.470733,/Jones St
216,32.347687,-89.673617,US Hwy 80
246,32.359993,-89.480788,Allen St/Morton St
216,32.347879,-89.666626,Thomas Dr
334,32.363535,-89.465335,N 4th Ave/S 4th Ave/E Hwy 80
160,32.336641,-89.487264,/I- 20
216,32.358370,-89.644582,Waggoner Rd
276,32.371924,-89.468941,N 1st Ave/Crudup St
305,32.365821,-89.464798,N 4th Ave
334,32.358494,-89.480640,/Hwy 35 S
185,32.355192,-89.650265,Ted Dr/Kennedy St
305,32.364172,-89.467862,E 4th St/N 2nd Ave
305,32.363438,-89.461017,S 7th Ave/E Hwy 80
185,32.358878,-89.477317,Longview St/Hill St
160,32.354782,-89.354219,Good Hope Rd
160,32.332172,-89.664561,/Old Hwy 13 S
160,32.541663,-89.476426,Hwy 35 N/
216,32.353235,-89.653271,Jasper Ave
160,32.498067,-89.488468,/Reynolds Rd
160,32.387796,-89.451754,Old Hwy 21
418,32.361737,-89.467861,E 1st St/S 2nd Ave
788,32.365488,-89.479693,Hwy 35 N/
216,32.376360,-89.460500,Martin Luther King Dr/7 Th Ave
160,32.303642,-89.439293,Annie Moore Rd
160,32.468333,-89.484856,Hwy 35 N/Hughes Rd
216,32.343201,-89.324673,Holmes St/S Loper St
216,32.275058,-89.719286,Stegall Rd/
160,32.354476,-89.603774,US Hwy 80
246,32.301749,-89.716445,I- 20
160,32.360264,-89.427655,E Hwy 80
185,32.365487,-89.462663,N 5th Ave/E 5th St
216,32.348512,-89.655266,/5th St
160,32.546979,-89.538748,/Frank Ln
160,32.353228,-89.657022,N 4th St
185,32.481665,-89.485674,Hwy 35 N/
160,32.352558,-89.665638,Chestnut Ave
160,32.538860,-89.476982,/Hwy 35 N
185,32.311017,-89.661904,I- 20
160,32.352068,-89.670787,Old Hwy 80 W/Old Hwy 80
160,32.398031,-89.439620,Culpepper Rd
160,32.572587,-89.333665,Underwood St/2nd Ave
362,32.375878,-89.475572,N Woodland Dr/Old Hwy 35 N
160,32.521644,-89.392434,Hwy 21
185,32.325983,-89.376743,I- 20/Vfw Rd
160,32.492992,-89.486447,Hwy 35 N//Haralson Rd
160,32.388221,-89.343348,Old Hwy 80
362,32.356240,-89.480986,Southwest St/Hwy 35 S
160,32.323563,-89.342985,I- 20
160,32.519685,-89.473262,W Burks Dr
160,32.366640,-89.679034,L G Sessums Rd/State Hwy 481
216,32.566825,-89.342738,/State Hwy 21
185,32.373315,-89.478991,Hwy 35 N
160,32.565319,-89.345353,/State Hwy 21
160,32.361789,-89.673540,/State Hwy 481
160,32.342786,-89.323811,Holmes St/Smythe St
185,32.360715,-89.432549,E Hwy 80
216,32.349109,-89.656796,S 4th St/Hill St
185,32.360000,-89.520166,/W Hwy 80
185,32.323565,-89.341329,/Lake-Norris Rd/I- 20
160,32.385602,-89.479767,Hwy 35 N
305,32.372591,-89.484887,/Cleveland St
334,32.359097,-89.480074,/Hill St
160,32.448133,-89.424577,/Ringgold Rd
160,32.349012,-89.351728,Good Hope Rd
658,32.364220,-89.476193,W Hwy 80/Wade St/Morgan Ln
160,32.553758,-89.764857,State Hwy 25
631,32.365152,-89.480539,/W Hwy 80
160,32.356000,-89.661838,S Boykin St/N Boykin St
185,32.354682,-89.664205,State Hwy 481
216,32.335437,-89.555663,I- 20
160,32.360031,-89.465563,/E Oak St
185,32.319854,-89.604033,Snook Rd
160,32.275030,-89.720132,Stegall Rd
246,32.347412,-89.327431,Cedar St/Old Hwy 80
185,32.405894,-89.358973,Flora Dr
160,32.368304,-89.489672,/Sunset Dr
362,32.352687,-89.649362,Northwood Dr/US Hwy 80
160,32.450219,-89.491506,Pace Rd/Hillsboro Vfw Rd
246,32.355142,-89.648037,Craft St
334,32.369456,-89.469674,/Jones St
160,32.354709,-89.597399,/US Hwy 80
658,32.364064,-89.474472,Old Hwy 35 N/W Hwy 80/E Hwy 80/W Main St
160,32.312860,-89.642025,I- 20
579,32.351747,-89.655881,E 1st Ave/W 1st Ave/5th St
216,32.501247,-89.413353,/Hwy 21
160,32.519177,-89.452950,Tallabogue Rd
362,32.365860,-89.465441,E 5th St
334,32.358350,-89.469047,/S 1st Ave
185,32.347448,-89.674182,US Hwy 80
160,32.365949,-89.653444,Morris Tullos Dr
160,32.458021,-89.455598,Old Jackson Rd
160,32.383453,-89.454991,Ware Dr/Baggett Dr
246,32.353493,-89.670314,/Hwy 13 N
526,32.364220,-89.469628,E 4th St
185,32.356087,-89.663216,Boykin St Exd/N Boykin St
160,32.497439,-89.502552,/Brantly Dr
160,32.390882,-89.363605,/Old Hwy 80
185,32.386200,-89.479795,Hwy 35 N
185,32.367927,-89.455063,/Old Hwy 21
185,32.520015,-89.484052,/Hammond Rd
362,32.352469,-89.654954,/US Hwy 80
216,32.312962,-89.627063,I- 20
160,32.474314,-89.485228,/Hwy 35 N
185,32.364854,-89.461918,6th St
445,32.363830,-89.472056,E Hwy 80/N Raleigh St
160,32.340964,-89.533472,I- 20
160,32.351991,-89.670537,Old Hwy 80 W
185,32.368333,-89.483188,North St
185,32.570297,-89.333422,Underwood St/Hwy 492/Main St
216,32.371625,-89.479017,Hwy 35 N//Marion Blvd
216,32.365572,-89.485008,W Hwy 80/Cleveland St
472,32.367552,-89.469644,Ann St/Byron St
160,32.319132,-89.615134,State Hwy 481/Snook Rd
185,32.348512,-89.331848,E Hwy 80
246,32.567848,-89.340774,Pine St/State Hwy 21
185,32.522146,-89.472176,/Old Hillsboro Rd/Nicks Rd
160,32.326894,-89.485506,Hwy 35 S
160,32.330143,-89.336833,/Lake-Norris Rd
185,32.357431,-89.586421,US Hwy 80
160,32.440545,-89.404805,Burkes Rd/
276,32.354221,-89.663983,/State Hwy 481
390,32.352663,-89.661126,State Hwy 481
276,32.364296,-89.462690,E 4th St
160,32.560115,-89.472037,Hwy 35 N
160,32.399144,-89.687487,/State Hwy 481
160,32.325009,-89.493905,W Moore Tower Rd
968,32.367692,-89.467831,E 7th St/N 2nd Ave
185,32.360205,-89.519758,W Hwy 80/Hwy 80
185,32.493761,-89.422264,/Hwy 21
160,32.306030,-89.667292,/Hwy 13 S
246,32.305445,-89.695357,I- 20
216,32.550199,-89.474617,/Hwy 35 N
185,32.455987,-89.484105,/Hwy 35 N
276,32.359822,-89.474582,Liles St/S Main St
390,32.369110,-89.469668,Jones St/Ann St
160,32.359926,-89.424106,E Hwy 80
160,32.355673,-89.650202,/Kennedy St
160,32.325560,-89.445375,/I- 20
185,32.348827,-89.671018,Hwy 13 N/US Hwy 80/Hwy 13 S
160,32.568455,-89.339749,State Hwy 21/Sharp St
246,32.358659,-89.474748,S Main St/Hill St
216,32.571072,-89.343278,Sunny St
185,32.348155,-89.482115,/Hwy 35 S
160,32.357776,-89.401173,/E Hwy 80
276,32.366508,-89.470967,N Broad St
216,32.370711,-89.477320,Old Hwy 35 N/W Banks St
185,32.492612,-89.423676,/Hwy 21
216,32.354584,-89.664152,State Hwy 481
305,32.365512,-89.482224,/W Hwy 80
160,32.503397,-89.487008,Hwy 35 N
160,32.353946,-89.354201,/Good Hope Rd
185,32.405917,-89.435493,/Ephesus Rd
160,32.358140,-89.483598,W Spring St
362,32.351802,-89.654545,E 1st Ave/6th St
185,32.374731,-89.486337,Christian Ave/Dogwood Dr
246,32.361885,-89.495004,/W Hwy 80
185,32.359911,-89.644646,Oakdale Ave/York Rd/Waggner Rd
216,32.368337,-89.482175,North St/Roosevelt St
160,32.391015,-89.341357,/Hazel Rd
160,32.310636,-89.667785,I- 20/Hwy 13 S
216,32.354528,-89.602655,US Hwy 80
160,32.322951,-89.653690,Donald Rd
526,32.367312,-89.486000,Iberville St/George St
216,32.326084,-89.447710,I- 20
160,32.428001,-89.445907,/Greer Rd/Hwy 21
160,32.339157,-89.692486,/US Hwy 80
160,32.397903,-89.451582,Hwy 21
185,32.570047,-89.333283,Main St
160,32.369300,-89.488689,School Svc Rd/Anderson St
362,32.358259,-89.480678,W Spring St/E Spring St/Hwy 35 S
246,32.355143,-89.647702,Shiloh Dr/Craft St
160,32.575166,-89.325688,State Hwy 21
185,32.313514,-89.644658,I- 20
216,32.336534,-89.484062,/I- 20
160,32.450676,-89.483757,Hwy 35 N/
185,32.382674,-89.479597,Hwy 35 N
160,32.467462,-89.388299,/Langsmill Rd
813,32.369157,-89.485943,Iberville St/Anderson St
160,32.486297,-89.427425,/Hwy 21
185,32.369139,-89.454560,Old Hwy 21/Jones St
160,32.343568,-89.657056,Old Hwy 13 S/Stedman Rd
160,32.373255,-89.435697,McCormick Rd/
160,32.490593,-89.428724,Old Black & Wht Cemetery Rd/Watson Dr
185,32.374739,-89.483645,Wilson St/Christian Ave
160,32.349744,-89.477401,Elm St
185,32.351328,-89.665503,US Hwy 80
160,32.363699,-89.564484,513
246,32.467381,-89.438055,Wash Dr
185,32.568885,-89.339226,/State Hwy 21
160,32.361949,-89.501978,W Hwy 80
276,32.363190,-89.474574,W 2nd St/W Main St
185,32.353958,-89.361146,/E Hwy 80
185,32.328311,-89.455521,I- 20
160,32.448081,-89.483603,Hwy 35 N/
185,32.356966,-89.645444,E Ratliff St
160,32.575107,-89.325408,State Hwy 21/Saxon Rd
160,32.358722,-89.411395,E Hwy 80
160,32.400609,-89.688164,State Hwy 481
246,32.365764,-89.484984,/Cleveland St
185,32.383626,-89.479650,Hwy 35 N
472,32.369108,-89.462157,Mead St/Jones St
305,32.367631,-89.472636,N Davis St/Byron St
216,32.323807,-89.336711,/I- 20
160,32.496004,-89.417488,/Hwy 21
472,32.351183,-89.480364,Trenton Rd
160,32.304830,-89.401547,Lake-Norris Rd
160,32.577128,-89.738511,State Hwy 25/N Kincaid Rd
185,32.321581,-89.591600,I- 20
160,32.360571,-89.431050,E Hwy 80
216,32.360770,-89.474469,E Oak St/W Oak St/S Main St
160,32.344625,-89.656592,Old Hwy 13 S/Taylor Dr
216,32.364328,-89.481831,/Commerce Loop
185,32.346884,-89.366891,/Old Sawmill Rd
160,32.356959,-89.534122,/US Hwy 80
160,32.420017,-89.481868,Hwy 35 N
246,32.362088,-89.513911,/Hwy 80
185,32.341534,-89.524441,I- 20
160,32.431418,-89.482552,Hwy 35 N
185,32.336315,-89.484100,/I- 20
276,32.366215,-89.464799,E 6th St/N 4th Ave
390,32.351708,-89.656876,W 1st Ave/S 4th St
216,32.352396,-89.656930,N 4th St/US Hwy 80/S 4th St
160,32.489248,-89.552377,Clifton Rd
246,32.361933,-89.480160,Hwy 35 S/Front St
160,32.350704,-89.670646,Chestnut Ave
185,32.303879,-89.705664,Line Creek Rd/I- 20
305,32.371491,-89.484957,School Svc Rd//Cleveland St
160,32.326940,-89.448074,I- 20
276,32.352645,-89.650419,/US Hwy 80
160,32.354315,-89.607360,US Hwy 80
216,32.367472,-89.456046,E 7th St/N Cedar St
160,32.561878,-89.707550,/Joe Lee Rd
216,32.360423,-89.466601,S 3rd Ave
276,32.367241,-89.480728,West St/George St
334,32.354579,-89.484317,/Airport Rd
276,32.346287,-89.323634,/State Hwy 489
160,32.361216,-89.646887,Oakdale Ave
160,32.296900,-89.489979,/Hwy 35 S
185,32.361487,-89.651933,Dummy Line Rd/Sullivan St
334,32.452852,-89.483893,Hwy 35 N/Old Jackson Rd
185,32.361264,-89.472451,/S Raleigh St/Front St
216,32.347188,-89.329060,Small Rd/E Hwy 80
246,32.359960,-89.480572,/Allen St
185,32.550860,-89.474439,Hwy 35 N/
160,32.354656,-89.363316,/Rush Rd
160,32.315545,-89.667532,/Hwy 13 S
185,32.400475,-89.688057,/State Hwy 481
185,32.364028,-89.459767,Old Hwy 21/E 4th St
216,32.466651,-89.438089,Wash Dr
185,32.357523,-89.586128,US Hwy 80
305,32.362077,-89.513223,/Hwy 80
216,32.384675,-89.451838,Old Hwy 21
160,32.379540,-89.417261,Old Hwy 80
160,32.353468,-89.654100,Morris Tullos Dr
160,32.366231,-89.462408,N 5th Ave/E 6th St
160,32.371767,-89.339700,Old Hwy 80
185,32.573490,-89.334258,/Underwood St/State Hwy 21
160,32.375005,-89.340472,/Old Hwy 80
160,32.279950,-89.492089,Hwy 35 S
216,32.360652,-89.486317,/Old Morton Rd/Park Rd
160,32.353302,-89.354188,Good Hope Rd/Little Italy Rd/E Hwy 80
160,32.355197,-89.593299,Old Hwy 80 E/US Hwy 80/Kalem Rd
185,32.355672,-89.668883,Lyle Dr/Oak St
390,32.366135,-89.480874,/West St
160,32.324229,-89.364202,I- 20
160,32.349481,-89.669611,/US Hwy 80
160,32.430031,-89.511740,/Sistrunk Rd/Old Hillsboro Rd
160,32.314125,-89.396559,/Harper Aly
160,32.398795,-89.557602,/Sparksville Rd
216,32.474216,-89.509321,Anderson Rd
160,32.345985,-89.646529,Eight Ave/Wallace Ave/Eighth
216,32.574656,-89.322596,State Hwy 21
160,32.480780,-89.427790,/Hwy 21
185,32.366234,-89.450139,/Old Hwy 80
160,32.355955,-89.382271,/E Hwy 80
185,32.339154,-89.542989,I- 20
185,32.360978,-89.463662,S 5th Ave
390,32.351022,-89.655825,5th St/E 2nd Ave/W 2nd Ave
185,32.364587,-89.459860,N 8th Ave
160,32.351840,-89.653783,E 1st Ave/7th St
216,32.352019,-89.648269,/S Mill St
362,32.337623,-89.483684,/Hwy 35 S
160,32.360771,-89.466600,S 3rd Ave
160,32.466845,-89.484775,Hwy 35 N
160,32.362682,-89.476443,Walker St/Wade St
185,32.361489,-89.486429,Old Morton Rd
160,32.324654,-89.416399,I- 20
305,32.365532,-89.482888,/W Hwy 80
160,32.489312,-89.438669,/Steel Rd
185,32.354007,-89.361667,/E Hwy 80
216,32.362626,-89.463409,/E 2nd St
276,32.346602,-89.325795,Main St/Old Hwy 80
246,32.313332,-89.668122,Hwy 13 S
185,32.359947,-89.644204,Posey Rd/York Rd
185,32.365319,-89.653390,Morris Tullos Dr
185,32.345148,-89.326728,Thornton St/S Main St
160,32.317507,-89.457855,Gatewood Rd/Hwy 501
160,32.349674,-89.669238,/US Hwy 80
216,32.350346,-89.655775,/5th St
246,32.352151,-89.662191,/Agnew St/US Hwy 80
185,32.348809,-89.541299,/Blossom Hill Rd
276,32.375858,-89.473248,N Woodland Dr/Line Dr
276,32.455278,-89.470261,/Old Jackson Rd
276,32.362616,-89.650441,Oakdale Ave/Dummy Line Rd
185,32.382684,-89.473521,Old Hwy 35 N/Old Hillsboro Rd/Hwy 21
246,32.359752,-89.473738,Liles St/S Davis St
472,32.367552,-89.488057,/Myrtle Dr
160,32.325235,-89.485756,E Moore Tower Rd/Hwy 35 S/W Moore Tower Rd
160,32.371839,-89.452489,Old Hwy 21
160,32.463031,-89.432576,/Old Jackson Rd
305,32.364295,-89.476992,/W Hwy 80
160,32.354472,-89.603858,US Hwy 80
160,32.476244,-89.400369,/Patrick Dr
445,32.363556,-89.467867,E Hwy 80/N 2nd Ave/S 2nd Ave
185,32.360759,-89.349318,Dennis Rd/
246,32.355141,-89.647402,Norris St/Craft St
160,32.365924,-89.452656,Old Hwy 80
160,32.390533,-89.452326,Old Hwy 21/Hwy 21
160,32.304942,-89.488772,Hwy 35 S
276,32.369125,-89.484943,Anderson St/Cleveland St
185,32.352245,-89.663430,Agnew St
246,32.365561,-89.485603,/W Hwy 80
246,32.309788,-89.675156,I- 20
185,32.343315,-89.661896,Seesums St/Spring St
185,32.328051,-89.455522,I- 20
839,32.367547,-89.467835,N 2nd Ave/Byron St
160,32.504005,-89.410628,Hwy 21
865,32.339975,-89.482997,S Industrial Park Rd/Erle Johnston Dr
160,32.319069,-89.586617,Sims Hill Rd
160,32.356051,-89.661882,/N Boykin St
160,32.366169,-89.653480,Morris Tullos Dr
185,32.352578,-89.652087,E 1st Ave/US Hwy 80
216,32.348718,-89.328636,School St
185,32.581792,-89.734780,State Hwy 25
185,32.360106,-89.482215,Allen St/Diggs St
579,32.367547,-89.484930,/Cleveland St
160,32.534402,-89.363775,/Hwy 21
185,32.570093,-89.333308,/Main St
445,32.351790,-89.654891,/E 1st Ave
160,32.368420,-89.489655,Melwood Dr/Sunset Dr
160,32.328955,-89.628835,/Bishop Rd
160,32.360941,-89.650950,Farris Cir/Woodview St
216,32.362630,-89.463672,S 5th Ave/E 2nd St
276,32.361599,-89.475021,Smith St/Front St
160,32.362441,-89.565190,US Hwy 80
276,32.362300,-89.449284,Eastwood Dr/E Hwy 80
160,32.347036,-89.326664,Old Hwy 80/Wilkins St
185,32.365224,-89.333301,Old Hwy 80
185,32.376438,-89.451781,Old Hwy 21/Martin Luther King Dr
160,32.390898,-89.363123,/Old Hwy 80
160,32.357767,-89.401078,E Hwy 80
276,32.360084,-89.485099,Allen St/Hood St
160,32.350737,-89.670897,Hwy 13 N
185,32.309208,-89.667550,/Hwy 13 S
185,32.515770,-89.335796,Hays Rd
418,32.337839,-89.482972,/S Industrial Park Rd
160,32.460338,-89.426746,Hwy 21
160,32.484823,-89.485871,Hwy 35 N
246,32.394944,-89.446553,Ephesus Rd
216,32.359328,-89.466853,S 3rd Ave
160,32.340136,-89.326834,Montrose Rd
390,32.362431,-89.474266,E 1st St/S Main St/W 1st St
185,32.359019,-89.479148,Davenport St/Hill St
160,32.370503,-89.473784,W Banks St/N Banks St
305,32.367257,-89.475903,Old Hwy 35 N/George St
246,32.361887,-89.495462,W Hwy 80
160,32.552248,-89.703453,/State Hwy 483
160,32.501671,-89.412952,Hwy 21
788,32.339983,-89.483351,Hwy 35 S/Erle Johnston Dr
160,32.347223,-89.674677,US Hwy 80
276,32.351096,-89.654486,6th St/E 2nd Ave
160,32.391316,-89.451997,Hwy 21
160,32.358098,-89.487172,W Spring St/
1071,32.368294,-89.479323,North St/Hwy 35 N
160,32.340781,-89.524646,I- 20
362,32.364339,-89.471080,N Broad St/E 4th St
185,32.550739,-89.775223,State Hwy 25
160,32.364156,-89.459257,Old Hwy 21
305,32.355029,-89.481162,/Hwy 35 S
216,32.323563,-89.340408,/I- 20
246,32.361967,-89.480488,Front St/Commerce Loop
246,32.361790,-89.480514,Commerce Loop
160,32.379340,-89.417648,/Old Hwy 80
160,32.572846,-89.740961,/State Hwy 25
216,32.373990,-89.479028,/Hwy 35 N
160,32.512480,-89.426385,Jimmie Dr
160,32.305292,-89.400627,/Lake-Norris Rd
160,32.364373,-89.332454,Old Hwy 80
334,32.362953,-89.472220,S Raleigh St//E 2nd St
160,32.345057,-89.679450,US Hwy 80/Industrial Dr
246,32.367616,-89.462150,Mead St/Rose St
185,32.360045,-89.425380,/E Hwy 80
160,32.575162,-89.325670,State Hwy 21
185,32.347828,-89.482165,/Hwy 35 S
160,32.337599,-89.498922,I- 20
631,32.346299,-89.676662,/US Hwy 80
160,32.382913,-89.451866,Old Hwy 21
185,32.445790,-89.418577,/Ringgold Rd
160,32.539903,-89.544340,/Midway-Odom Rd
276,32.351656,-89.658777,W 1st Ave/S 2nd St
185,32.437101,-89.438213,Hwy 21
160,32.541684,-89.506410,Midway-Odom Rd/Strong Rd
185,32.482335,-89.485718,Hwy 35 N/
216,32.337035,-89.488690,/I- 20
160,32.398489,-89.354454,Johnson Town Rd/E Scott Rd
246,32.537738,-89.361329,Hays Rd/Hwy 21
160,32.511984,-89.485898,Hwy 35 N
160,32.519843,-89.472200,W Burks Dr/Old Hillsboro Rd/Pettey Rd
160,32.303333,-89.706198,Line Creek Rd/I- 20
185,32.314061,-89.397459,Gray Rd/Harper Aly
185,32.353034,-89.657002,N 4th St
160,32.347065,-89.652746,/(Pulaski Rd)
185,32.370194,-89.683138,State Hwy 481
160,32.310817,-89.479026,/Old Hwy 35
160,32.565517,-89.345040,State Hwy 21
160,32.327917,-89.388815,I- 20
305,32.368167,-89.484935,/Cleveland St
160,32.364177,-89.653303,Morris Tullos Dr
160,32.493021,-89.486389,Hwy 35 N/Midway-Odom Rd
334,32.358260,-89.481147,W Spring St/
246,32.372659,-89.464671,N 4th Ave
216,32.324328,-89.436058,I- 20
185,32.351286,-89.665624,/US Hwy 80
160,32.361946,-89.673766,/State Hwy 481
160,32.349605,-89.669372,Ott Dr/US Hwy 80
305,32.361747,-89.461837,E 1st St/Bickham Ave
160,32.359443,-89.482229,Diggs St
246,32.331057,-89.565468,I- 20
160,32.351203,-89.649365,Northwood Dr/E 2nd Ave
160,32.497002,-89.502659,Brantly Dr
160,32.440156,-89.483117,/Hwy 35 N
160,32.541897,-89.532651,/Midway-Odom Rd
160,32.317390,-89.610884,/I- 20
160,32.346393,-89.671186,/Hwy 13 S
185,32.329774,-89.666033,/Old Hwy 13 S
552,32.364670,-89.479003,W Hwy 80/Front St/Antley St
246,32.311157,-89.663494,I- 20
362,32.352800,-89.646359,/US Hwy 80
160,32.340311,-89.689942,US Hwy 80
185,32.449992,-89.483713,Hwy 35 N
185,32.308489,-89.686067,I- 20
160,32.353798,-89.621164,US Hwy 80
160,32.451903,-89.492515,Pace Rd
160,32.313139,-89.636111,I- 20/Stage Rd
334,32.369109,-89.463955,Jones St
160,32.375019,-89.479084,Hwy 35 N
305,32.365422,-89.478650,W 4th St/Antley St
185,32.364217,-89.459019,Old Hwy 21
305,32.352281,-89.659801,US Hwy 80/1st St
499,32.313612,-89.660023,Koch Dr
526,32.405786,-89.418115,/Culpepper Rd
472,32.366137,-89.469613,Ann St
160,32.364890,-89.589783,/Kalem Rd
160,32.342807,-89.331818,Stave Mill Rd
216,32.499417,-89.323540,Old Jackson Rd
579,32.367838,-89.485986,Iberville St
160,32.441732,-89.746924,/State Hwy 481
185,32.323509,-89.345472,/I- 20
160,32.350664,-89.665183,/Ealy Boyd St
362,32.359139,-89.480692,/W Hill St
579,32.366543,-89.484957,Cleveland St
276,32.369101,-89.472562,N Davis St/Jones St
246,32.362229,-89.472319,S Raleigh St/E 1st St
185,32.354090,-89.362579,/E Hwy 80
216,32.360885,-89.482714,/Old Morton Rd
160,32.506000,-89.334457,/Hays Rd
160,32.350605,-89.667222,/US Hwy 80
362,32.350635,-89.481749,Hwy 35 S/Trenton Rd
216,32.331886,-89.668020,/Hwy 13 S
334,32.367614,-89.464098,Valley St/Rose St
160,32.328764,-89.485223,/Hwy 35 S
160,32.448417,-89.428952,/Hwy 21
160,32.511561,-89.486025,Hwy 35 N
216,32.373096,-89.486336,Mounger St/Dogwood Dr
185,32.370491,-89.482068,Bailey St/Roosevelt St
160,32.339523,-89.541106,Blossom Hill Rd/I- 20
160,32.378437,-89.419342,/Old Hwy 80
185,32.461033,-89.399272,/Burkes Rd
185,32.311448,-89.661100,I- 20
246,32.296122,-89.729973,I- 20
216,32.525280,-89.472242,/Poetty Rd/Pettey Rd
185,32.363683,-89.479889,Hwy 35 S
246,32.374722,-89.484876,Christian Ave/Cleveland St
418,32.350172,-89.481816,/Hwy 35 S
160,32.361936,-89.500956,/W Hwy 80
185,32.370126,-89.683073,/State Hwy 481
216,32.369076,-89.473773,Jones St/N Banks St
160,32.399487,-89.367698,Salem Rd
185,32.369113,-89.468910,N 1st Ave/Jones St
246,32.353729,-89.663808,/State Hwy 481
185,32.334909,-89.484064,/Hwy 35 S
185,32.497773,-89.502482,Brantly Dr/Brantley Rd/Midway Odom Rd
160,32.338306,-89.661367,Old Hwy 13 S
160,32.379291,-89.417747,/Old Hwy 80
160,32.576398,-89.467868,Hwy 35 N
216,32.313111,-89.640011,I- 20
160,32.515586,-89.484653,/Hwy 35 N
334,32.370397,-89.468216,Power St
788,32.339547,-89.483039,S Industrial Park Rd
160,32.335665,-89.475931,S Industrial Park Rd/Homewood Rd
160,32.352050,-89.670729,Hwy 13 N/Old Hwy 80 W
216,32.348703,-89.671248,/US Hwy 80
185,32.569750,-89.333123,Woodyard St/Main St/State Hwy 492
160,32.246121,-89.530397,/Morton-Marathon Rd
216,32.365546,-89.486028,Iberville St/W Hwy 80
246,32.323941,-89.348384,I- 20
185,32.338576,-89.498910,I- 20
185,32.326248,-89.376732,I- 20/Vfw Rd
185,32.362528,-89.656585,Farris Park Rd
160,32.361726,-89.465344,E 1st St/S 4th Ave
160,32.332570,-89.664255,Old Hwy 13 S/J Roland Rd
160,32.376349,-89.340590,Old Hwy 80
160,32.496222,-89.494196,Midway Odom Rd
160,32.327300,-89.664459,Old Hwy 13 S/Pleasant Hill Rd/Old Hwy 13S
160,32.323064,-89.664546,/Hwy 13 S
160,32.431175,-89.712123,/State Hwy 481
185,32.330100,-89.666137,/Old Hwy 13 S
216,32.358765,-89.493792,Jack Lee Dr
185,32.383438,-89.452179,Baggett Dr
160,32.520233,-89.472208,Old Hillsboro Rd/Johnson Rd
185,32.368507,-89.439083,Old Hwy 80
160,32.324974,-89.420462,I- 20
160,32.550834,-89.357678,Cutoff Rd/Hwy 21
160,32.565058,-89.470766,Hwy 35 N
390,32.350982,-89.656838,S 4th St/W 2nd Ave
216,32.312950,-89.627447,I- 20
160,32.362077,-89.649010,Oakdale Ave
216,32.550071,-89.474649,Hwy 35 N/
216,32.369161,-89.457683,Jones St/Birch St
160,32.362133,-89.447463,/E Hwy 80
160,32.330140,-89.667934,/Lindsey Rd
246,32.358255,-89.480083,Southwest St/E Spring St
305,32.371906,-89.467324,Crudup St/N 2nd Ave
160,32.356316,-89.589391,/US Hwy 80
216,32.466464,-89.438099,/Wash Dr
185,32.560934,-89.472125,/Richard May Rd
160,32.366912,-89.445794,Old Hwy 80
445,32.364248,-89.470143,E 4th St/N Graham St
160,32.441248,-89.404857,Burkes Rd//Ringgold Rd
160,32.358605,-89.466641,S 3rd Ave
160,32.344744,-89.650340,Pulaski Rd/State Hwy 481/Eighth
526,32.364194,-89.469153,N 1st Ave/E 4th St
526,32.369131,-89.485147,/Anderson St
160,32.366532,-89.448284,Old Hwy 80
160,32.364880,-89.472012,N Raleigh St
216,32.323648,-89.584041,I- 20
185,32.385742,-89.473875,Old Hillsboro Rd
216,32.364518,-89.472824,N Davis St/E 4th St
185,32.358726,-89.644587,Waggoner Rd/Waggner Rd
160,32.364818,-89.589831,Kalem Rd
160,32.370383,-89.464704,N 4th Ave
160,32.353228,-89.654262,Jasper Ave/Morris Tullos Dr
305,32.367562,-89.470950,N Broad St/Byron St
185,32.369333,-89.489383,Sunset Dr/Anderson St
160,32.348323,-89.672133,/US Hwy 80
185,32.549499,-89.357743,/Hwy 21
216,32.322963,-89.583581,I- 20
160,32.356878,-89.588037,US Hwy 80
160,32.275588,-89.661964,Springfield Rd
216,32.346423,-89.323141,State Hwy 489
160,32.341582,-89.469538,/Hwy 501
185,32.409222,-89.357086,/E Scott Rd
216,32.360740,-89.485094,Old Morton Rd/Hood St
160,32.463140,-89.431887,/Old Jackson Rd
160,32.518917,-89.502300,Brantley/Brantley Rd
216,32.575588,-89.327699,State Hwy 21
160,32.316831,-89.667000,/Hwy 13 S
160,32.324144,-89.322613,/I- 20
160,32.457935,-89.459401,Old Jackson Rd
160,32.567568,-89.713010,State Hwy 483
276,32.355914,-89.647971,Shiloh Dr
160,32.354407,-89.473153,S Raleigh St
160,32.357882,-89.662089,Moore St
160,32.464585,-89.468454,Hunter Ln
160,32.301744,-89.489260,/Hwy 35 S
160,32.575276,-89.326202,/State Hwy 21
246,32.360754,-89.484589,/Old Morton Rd
246,32.346008,-89.324584,State Hwy 489/Old Hwy 80
160,32.378312,-89.674548,Alfred Agee Rd
185,32.324493,-89.581953,I- 20
160,32.440022,-89.735119,/State Hwy 481
160,32.430538,-89.711747,State Hwy 481/Billy H Bates Rd
276,32.344677,-89.323705,E Hwy 80/S Loper St
216,32.358949,-89.478239,Pine St/Hill St
185,32.347515,-89.674024,/US Hwy 80
216,32.432432,-89.443058,/Harrison Rd
216,32.449581,-89.428118,Ringgold Rd/Hwy 21
160,32.437061,-89.482905,Hwy 35 N
246,32.354547,-89.482404,Airport Rd/Medical Ln
185,32.371589,-89.483350,Wilson St/Marion Blvd
305,32.353692,-89.645973,N State St
185,32.487957,-89.486066,Hwy 35 N
160,32.357698,-89.585570,/US Hwy 80
160,32.336068,-89.479395,/I- 20
185,32.394896,-89.451584,Hwy 21
216,32.371600,-89.481895,Marion Blvd/Roosevelt St
418,32.362490,-89.474936,Walker St/Smith St
418,32.363091,-89.473796,E Main St/W 2nd St
160,32.569131,-89.338989,State Hwy 21
216,32.493237,-89.423044,Robert Butler Rd/Hwy 21
362,32.349178,-89.481961,/Hwy 35 S
160,32.360566,-89.472530,S Raleigh St/E Oak St
185,32.360994,-89.480709,W Oak St/Morton St/Old Morton Rd
160,32.567157,-89.342106,State Hwy 21
160,32.358576,-89.466361,S 3rd Ave
160,32.563475,-89.323490,/State Hwy 492
216,32.353253,-89.652531,State St/
216,32.535756,-89.363047,Hwy 21
160,32.401194,-89.425007,Culpepper Rd
185,32.416776,-89.481689,Hwy 35 N
185,32.342734,-89.329656,Lake-Norris Rd/Baggett St
185,32.354241,-89.649839,Ted Dr/Martin Luther King Dr
185,32.368288,-89.478087,North St
390,32.352809,-89.481494,/Hwy 35 S
160,32.555470,-89.473250,/Hwy 35 N
185,32.321979,-89.586466,I- 20
160,32.423133,-89.710183,State Hwy 481
160,32.542237,-89.610849,/Hillsboro-Ludlow Rd
185,32.560660,-89.749669,/State Hwy 25
246,32.353311,-89.663343,State Hwy 481
246,32.361858,-89.473197,/S Davis St
185,32.329847,-89.675502,/Lindsey Rd
185,32.439810,-89.390934,/Ringgold Rd
160,32.554430,-89.618321,Hwy 13 N/Watkins Rd E
472,32.339974,-89.482276,Erle Johnston Dr
579,32.364690,-89.479071,/W Hwy 80
499,32.338805,-89.483128,S Industrial Park Rd/
390,32.369106,-89.463104,Jones St/Eastview St
334,32.370479,-89.483534,Wilson St/Bailey St
185,32.349803,-89.651570,/E 4th Ave
185,32.350917,-89.658766,S 2nd St/W 2nd Ave
185,32.356067,-89.665666,State Hwy 481/N Boykin St
160,32.494106,-89.502553,/Harperville Rd
185,32.360111,-89.467467,E Oak St/Bishop Ln
216,32.354144,-89.666672,Oak St
160,32.511507,-89.486043,Hwy 35 N/Reynolds Rd
185,32.385948,-89.473919,/Old Hillsboro Rd
160,32.496710,-89.416246,/Hwy 21
472,32.351710,-89.481639,/Hwy 35 S
160,32.342153,-89.324866,Front St
160,32.341311,-89.533009,I- 20
160,32.575803,-89.342885,/North St
160,32.416653,-89.367474,/George Rd
334,32.354566,-89.483700,Airport Rd
160,32.468921,-89.492246,Hughes Rd/Hughes Ln
160,32.545793,-89.358055,/Hwy 21
160,32.353639,-89.653984,/Morris Tullos Dr
185,32.391005,-89.340438,Hazel Rd
305,32.315910,-89.614632,State Hwy 481
185,32.570045,-89.344493,/North St
246,32.381315,-89.479480,Hwy 35 N/
160,32.391402,-89.397531,/Russell Community Rd
276,32.348250,-89.671059,/Hwy 13 S
160,32.422179,-89.728534,Irby Rd
160,32.484026,-89.485821,Hwy 35 N
276,32.542380,-89.506441,Midway-Odom Rd
185,32.362852,-89.485351,Front St
276,32.351803,-89.659792,W 1st Ave/1st St
160,32.483967,-89.366976,Pleasant Ridge Rd
160,32.307620,-89.488374,Hwy 35 S
216,32.336198,-89.555873,I- 20
362,32.371491,-89.485180,School Svc Rd
160,32.302894,-89.410070,Lake-Norris Rd
305,32.352816,-89.645961,N State St/US Hwy 80/S State St
185,32.383380,-89.451854,/Old Hwy 21
185,32.311120,-89.659791,I- 20
185,32.359505,-89.456188,S Cedar St
160,32.349606,-89.653577,E 4th Ave/7th St
160,32.327478,-89.385507,I- 20
276,32.374701,-89.473215,N Woodland Dr/Line Dr
160,32.340390,-89.689774,US Hwy 80
185,32.296601,-89.729972,I- 20
160,32.450300,-89.491370,Pace Rd/Hillsboro Vfw Rd
216,32.325927,-89.412064,I- 20
185,32.494338,-89.729729,Grant Johnson Rd/Cowardtown Rd
185,32.494350,-89.730219,Grant Johnson Rd/Buckner Rd
390,32.352431,-89.655935,/5th St/US Hwy 80
160,32.524492,-89.481457,Hwy 35 N
216,32.573006,-89.336649,West St/South St
185,32.367607,-89.464753,Rose St/N 4th Ave
216,32.351207,-89.648255,E 2nd Ave/S Mill St
185,32.354779,-89.668849,Oak St/Acree St
216,32.308289,-89.687063,I- 20
305,32.362145,-89.492629,Old Morton Rd/W Hwy 80
160,32.369790,-89.337902,Wash Rd/Old Hwy 80
445,32.573002,-89.335146,State Hwy 487//State Hwy 21/South St
160,32.493201,-89.486925,Midway-Odom Rd
160,32.504742,-89.502605,Brantley Rd
160,32.324478,-89.363994,I- 20
216,32.358983,-89.485091,W Hill St/Hood St
185,32.571793,-89.336509,West St/State Hwy 21
216,32.361506,-89.480347,W Oak St/
160,32.304698,-89.488809,/Hwy 35 S
305,32.363536,-89.466615,N 3rd Ave/S 3rd Ave/E Hwy 80
216,32.352362,-89.657840,3rd St/US Hwy 80
362,32.352225,-89.661050,State Hwy 481/US Hwy 80
276,32.312507,-89.668082,Hwy 13 S
160,32.527673,-89.506108,Brantley Rd/Midway-Odom Rd
160,32.345575,-89.656235,/Old Hwy 13 S
362,32.378610,-89.479323,Hwy 35 N/
160,32.400629,-89.687522,Airport Rd
216,32.360652,-89.486391,/Morton St/Old Morton Rd
185,32.387920,-89.454374,/Hwy 21
185,32.511828,-89.427969,Jimmie Dr
185,32.344483,-89.645357,Jo Lynn St/Old Hwy 80 E
246,32.361677,-89.480200,Hwy 35 S
160,32.516587,-89.474654,/Futch Rd
605,32.364375,-89.479783,Hwy 35 S
185,32.435184,-89.440006,/Hwy 21
160,32.349985,-89.643809,E 4th Ave/S Woodland St
216,32.383437,-89.451853,/Old Hwy 21/Baggett Dr
334,32.359085,-89.479919,Hill St
185,32.346278,-89.327107,E Hwy 80/Wilkins St
216,32.346995,-89.675180,Elizabeth Rd/US Hwy 80
160,32.230586,-89.562107,McNabb Rd
160,32.323838,-89.581595,I- 20
160,32.463638,-89.467403,Hunter Ln
305,32.347117,-89.648266,7th Ave/S Mill St
185,32.336907,-89.487556,I- 20
185,32.495323,-89.486523,Hwy 35 N
246,32.362504,-89.656174,Farris Park Rd
160,32.312817,-89.397587,/Gray Rd
160,32.240119,-89.506240,Hwy 35 S/Morton-Marathon Rd
160,32.450197,-89.349322,Brusha Rd
579,32.369110,-89.461287,Jones St/Payton St
160,32.361918,-89.500177,/W Hwy 80
160,32.366931,-89.445670,/Old Hwy 80
216,32.389395,-89.451720,Old Hwy 21
160,32.557988,-89.355937,/State Hwy 21
276,32.333588,-89.473330,I- 20
185,32.339743,-89.541239,Blossom Hill Rd/I- 20
160,32.489607,-89.425898,Hwy 21
160,32.377101,-89.421841,/Old Hwy 80
160,32.545925,-89.511147,Odom Rd/Turner Rd
305,32.353115,-89.481451,/Hwy 35 S
185,32.312752,-89.643558,I- 20
216,32.313096,-89.640004,I- 20
160,32.538618,-89.477032,Hwy 35 N/
216,32.361487,-89.480229,W Oak St/Hwy 35 S
185,32.487400,-89.486030,Harperville Rd/King Rd/Hwy 35 N
160,32.413424,-89.397219,/Russell Community Rd
185,32.364406,-89.458331,Old Hwy 21
305,32.361588,-89.474935,/Front St
160,32.316943,-89.666954,Hwy 13 S
160,32.368533,-89.490708,Melwood Dr/Greenview Dr
185,32.324509,-89.436929,I- 20
185,32.365431,-89.476430,W 4th St/Morgan Ln
160,32.492289,-89.490179,Harperville Rd/Old Hillsboro Rd
185,32.361347,-89.647204,Oakdale Ave/Woodview St
160,32.404658,-89.419555,Culpepper Rd
160,32.449884,-89.350713,Jr Johnson Rd
160,32.348382,-89.667761,Ott Dr/Thomas Dr
160,32.363833,-89.489912,/W Hwy 80
160,32.347120,-89.645950,7th Ave/S State St
160,32.355882,-89.669599,Hwy 13 N
160,32.240046,-89.505639,Morton-Marathon Rd
160,32.398695,-89.354535,McClendon Dr/E Scott Rd
246,32.371881,-89.457728,Birch St
276,32.371465,-89.457726,Fern St/Birch St
216,32.371481,-89.479012,Hwy 35 N//Marion Blvd
185,32.566954,-89.342490,/State Hwy 21
160,32.565251,-89.712905,Arthur Harris Rd/State Hwy 483
160,32.575383,-89.687307,Hillsboro-Ludlow Rd
246,32.346437,-89.482377,Hwy 35 S
160,32.358745,-89.475850,Cane St/Hill St
185,32.356374,-89.486235,Park Rd
246,32.353700,-89.481357,/Hwy 35 S
185,32.364604,-89.462695,N 5th Ave
216,32.333428,-89.560262,I- 20
362,32.364254,-89.463870,E 4th St
246,32.367225,-89.477378,North St/George St
160,32.376337,-89.486326,Townsend Rd/Dogwood Dr
684,32.364901,-89.479771,Hwy 35 N/W Hwy 80
362,32.365330,-89.481202,/W Hwy 80
246,32.323533,-89.337581,/I- 20
160,32.410680,-89.487277,Old Hillsboro Rd/Sparksville Rd
390,32.364625,-89.470106,N Graham St
305,32.369122,-89.464722,Jones St/N 4th Ave
160,32.373172,-89.480962,Jefferson St/Mounger St
160,32.327191,-89.385533,I- 20
185,32.312533,-89.654189,I- 20
390,32.358259,-89.480821,W Spring St/
160,32.302888,-89.713293,I- 20
160,32.346976,-89.668519,Thomas Dr/Jackie St
276,32.364356,-89.460890,N 7th Ave/E 4th St
160,32.349079,-89.670455,/US Hwy 80
216,32.313510,-89.668103,Hwy 13 S/Koch Dr
160,32.370429,-89.479093,Hwy 35 N/Bailey St
185,32.532125,-89.364831,Hwy 21
160,32.402275,-89.331286,McDill Dr/
185,32.333308,-89.470801,/S Industrial Park Rd
246,32.369270,-89.488157,Anderson St
160,32.561838,-89.707451,Joe Lee Rd
334,32.365484,-89.481861,W Hwy 80/Commerce Loop
390,32.364432,-89.472006,E 4th St/N Raleigh St
246,32.537667,-89.361209,Hays Rd
160,32.576456,-89.497427,Pea Ridge Rd
334,32.352484,-89.654582,6th St/US Hwy 80
185,32.357294,-89.541646,US Hwy 80
160,32.360434,-89.647745,Woodview St
445,32.365281,-89.481008,W Hwy 80/West St
160,32.362178,-89.447847,/E Hwy 80
160,32.398876,-89.434874,/Culpepper Rd
160,32.362018,-89.508389,Hwy 80
185,32.542095,-89.505924,Strong Rd
185,32.362591,-89.452337,E 1st St/E Hwy 80
160,32.382960,-89.455205,Ware Dr
216,32.352631,-89.650767,/US Hwy 80
185,32.374573,-89.451760,N Pineridge Dr/Old Hwy 21
185,32.353744,-89.622623,/US Hwy 80
216,32.335867,-89.476402,S Industrial Park Rd
160,32.314511,-89.619696,/I- 20
160,32.460571,-89.426750,Hwy 21
160,32.382780,-89.410597,Old Hwy 80
160,32.362651,-89.466604,S 3rd Ave/E 2nd St
246,32.336514,-89.483850,Hwy 35 S/I- 20
160,32.330913,-89.467509,I- 20
185,32.353246,-89.652769,/Jasper Ave
185,32.361769,-89.490988,Old Morton Rd
160,32.443051,-89.341459,Brusha Rd/Hunt Rd
1174,32.367229,-89.480011,George St/West St
160,32.390991,-89.360520,Old Hwy 80
160,32.361798,-89.656581,Farris Park Rd
185,32.361893,-89.469156,E 1st St/S 1st Ave
246,32.353205,-89.661521,State Hwy 481/Shields Ave
160,32.497464,-89.500188,/Midway Odom Rd
216,32.472943,-89.485138,Hwy 35 N
185,32.361756,-89.490431,Old Morton Rd/Jack Lee Dr
160,32.402323,-89.336244,Conehatta Rd
185,32.353965,-89.361214,/E Hwy 80
160,32.361973,-89.653160,Morris Tullos Dr
160,32.527030,-89.480551,/Hwy 35 N
362,32.351940,-89.481615,Hwy 35 S
160,32.515774,-89.484585,Hwy 35 N
185,32.365847,-89.466600,N 3rd Ave/E 5th St
276,32.363427,-89.460895,E Hwy 80
185,32.467468,-89.388393,/Langsmill Rd
185,32.341669,-89.525645,I- 20
216,32.363659,-89.460852,/Old Hwy 21
276,32.373102,-89.483351,Wilson St/Mounger St
276,32.458108,-89.511771,Clifton-Hillsboro Rd/Old Hillsboro Rd/Old Jackson Rd
160,32.462311,-89.484489,/Hwy 35 N
276,32.371468,-89.487526,/School Svc Rd
185,32.560588,-89.352218,State Hwy 21
185,32.499964,-89.486818,Hwy 35 N
334,32.310169,-89.671999,/I- 20
216,32.530323,-89.479366,/Hwy 35 N
160,32.362065,-89.653163,/Morris Tullos Dr
216,32.301498,-89.715833,I- 20
160,32.351143,-89.653723,7th St/E 2nd Ave
246,32.362933,-89.486767,Joe St/Front St
160,32.362057,-89.511593,Hwy 80
418,32.376379,-89.475423,Old Hwy 35 N/Townsend Rd/Martin Luther King Dr
160,32.412489,-89.739325,/Minnie Measells Rd
276,32.353010,-89.661276,State Hwy 481
305,32.363234,-89.475166,W 2nd St/Smith St
216,32.350851,-89.663245,W 2nd Ave
160,32.449731,-89.492539,Hillsboro Vfw Rd
185,32.391058,-89.449508,Ephesus Rd
185,32.331636,-89.335944,Lake-Norris Rd
216,32.360123,-89.426154,E Hwy 80
160,32.350141,-89.668245,/US Hwy 80
160,32.543328,-89.452110,/N Rushing Rd
185,32.341064,-89.532729,/I- 20
160,32.368766,-89.587888,/Kalem Rd
246,32.316278,-89.614663,State Hwy 481/I- 20
246,32.360114,-89.466636,E Oak St/S 3rd Ave
160,32.307871,-89.488336,Hwy 35 S
216,32.366868,-89.462405,N 5th Ave/E 7th St
160,32.366428,-89.449016,/Old Hwy 80
185,32.571194,-89.337057,State Hwy 21
216,32.500808,-89.413745,/Hwy 21
160,32.483002,-89.428165,/Hwy 21/Steel Rd
362,32.351824,-89.481628,/Hwy 35 S
160,32.404673,-89.478973,Old Hillsboro Rd
160,32.534561,-89.352864,Hays Rd/Ables Rd
160,32.344264,-89.648073,Old Hwy 80 E
160,32.341979,-89.324559,Front St
160,32.490685,-89.436125,/Watson Dr
216,32.361706,-89.480529,Commerce Loop
246,32.352562,-89.652514,State St/US Hwy 80
160,32.248319,-89.712968,Watson Rd
185,32.363372,-89.476380,/Wade St
305,32.458415,-89.511790,Hillsboro-Ludlow Rd/Old Hillsboro Rd
160,32.521980,-89.391433,/Hwy 21
160,32.304040,-89.702815,/I- 20
160,32.573346,-89.742948,/River Bend Rd
246,32.344331,-89.325006,Mill St/Thornton St
276,32.370571,-89.457709,Birch St
216,32.488434,-89.426448,Oliver Dr/Hwy 21
160,32.357662,-89.531401,Reid Rd
160,32.431775,-89.365092,/Ringgold Rd
160,32.344582,-89.644276,Eight Ave/Old Hwy 80 E
216,32.308655,-89.667479,Hwy 13 S/Morton-Marathon Rd
160,32.575841,-89.497422,Pea Ridge Rd/Tuscola Rd/Strong Rd
160,32.570368,-89.337803,/State Hwy 21
246,32.357828,-89.644575,/Waggnor Rd/Waggoner Rd
216,32.323957,-89.324554,I- 20
160,32.352108,-89.670943,/Old Hwy 80
160,32.356604,-89.477435,Longview St
216,32.363381,-89.479323,Front St
160,32.379151,-89.451848,/Old Hwy 21
185,32.327852,-89.453391,I- 20
390,32.367620,-89.463091,Rose St/Eastview St
276,32.314213,-89.345528,Mudline Rd
216,32.352325,-89.658787,US Hwy 80/S 2nd St
160,32.492055,-89.424240,/Hwy 21
160,32.398652,-89.435761,/Culpepper Rd
160,32.462217,-89.484483,Hwy 35 N/Burks Ln
160,32.480018,-89.736855,Measels Rd
276,32.355914,-89.647645,/Shiloh Dr
185,32.377878,-89.696815,Banker Rd
160,32.465719,-89.484689,Hwy 35 N
362,32.359129,-89.480548,Hwy 35 S/W Hill St/Hill St
185,32.361735,-89.463659,E 1st St/S 5th Ave
185,32.431565,-89.418702,/Riser Rd
246,32.362820,-89.491392,W Hwy 80
160,32.454797,-89.472802,Bradford Ln/Old Jackson Rd
418,32.366554,-89.486012,/Iberville St
216,32.395483,-89.446074,Ephesus Rd
185,32.358108,-89.486751,W Spring St/
160,32.575792,-89.341705,/North St
160,32.442200,-89.514721,Old Hillsboro Rd
160,32.488128,-89.552303,/Clifton Rd
185,32.354182,-89.648866,N Ratliff Rd/Martin Luther King Dr
684,32.370515,-89.471914,W Banks St/Wicker St
160,32.458007,-89.457082,/Old Jackson Rd
160,32.308298,-89.640369,/Jim Reece Rd
246,32.563800,-89.325175,/State Hwy 492
160,32.369776,-89.491370,Scott Dr/Anderson St
246,32.336005,-89.481180,I- 20
185,32.501461,-89.413152,Hwy 21
246,32.333805,-89.472979,I- 20
185,32.361107,-89.474428,S Main St
160,32.454662,-89.472805,/Bradford Ln
185,32.372857,-89.490915,Scott Dr/Oak Park Dr
246,32.359163,-89.456194,E Oak St/S Cedar St
891,32.369219,-89.487261,Anderson St/Myrtle Dr
160,32.370886,-89.452989,Eady Dr/Old Hwy 21
185,32.576420,-89.712909,River Bend Rd/Hillsboro-Ludlow Rd/State Hwy 483
160,32.361720,-89.476283,Front St/Wade St
390,32.363523,-89.463385,/E Hwy 80
246,32.359935,-89.480431,Allen St/Hwy 35 S
418,32.362470,-89.474640,Walker St/W 1st St/W Main St
216,32.313274,-89.627446,I- 20
216,32.346424,-89.655732,/William Walter Dr
160,32.471437,-89.485038,Hwy 35 N
499,32.369128,-89.467759,Jones St/N 2nd Ave
246,32.537313,-89.361709,Hwy 21/Fisher Rd
160,32.312883,-89.636119,I- 20/Stage Rd
160,32.349758,-89.476925,Elm St
185,32.355713,-89.665113,Lyle Dr/State Hwy 481
216,32.351484,-89.665044,/US Hwy 80
390,32.333513,-89.484330,/Hwy 35 S
216,32.346574,-89.322595,State Hwy 489
185,32.399527,-89.687587,State Hwy 481
185,32.323829,-89.341942,I- 20
185,32.361773,-89.491050,Old Morton Rd
185,32.348467,-89.671799,US Hwy 80
160,32.531278,-89.479607,Hammond Rd
160,32.363742,-89.450227,Eastwood Dr/Linfield Cir
185,32.362703,-89.453553,Eastgate Cir/E Hwy 80
160,32.241054,-89.545666,/Old Forest Rd
160,32.310402,-89.667744,I- 20/Hwy 13 S
160,32.372897,-89.340253,Old Hwy 80
216,32.363508,-89.649750,Dummy Line Rd
246,32.388795,-89.451730,Old Hwy 21/Ephesus Rd
160,32.365975,-89.451976,Lincoln St/Old Hwy 80
185,32.470245,-89.484961,Hwy 35 N
216,32.450356,-89.427573,Hwy 21
185,32.314140,-89.622047,I- 20
185,32.356074,-89.662111,N Boykin St
160,32.495404,-89.549971,Clifton Rd/Johnson Ln
160,32.462966,-89.508858,Old Hillsboro Rd/Old Hillsboro Cutoff
216,32.360435,-89.350169,/Dennis Rd
185,32.370508,-89.473191,Line Dr/W Banks St
160,32.326837,-89.704919,Scales Rd/Lindsey Rd
160,32.312718,-89.636123,Stage Rd
160,32.358639,-89.485082,Hood St
390,32.362391,-89.473892,E 1st St/E Main St
185,32.353407,-89.663678,State Hwy 481/Old Hwy 80 W
160,32.352086,-89.645955,S State St
160,32.351213,-89.645956,E 2nd Ave/S State St
160,32.337390,-89.482113,/S Industrial Park Rd
246,32.380913,-89.479452,Hwy 35 N/
160,32.360649,-89.645654,Oakdale Ave/Floyd Dr
160,32.539558,-89.476844,/Hwy 35 N
160,32.357003,-89.536342,Blossom Hill Rd/US Hwy 80
246,32.346850,-89.482313,Hwy 35 S/Fountain Rd
160,32.324208,-89.364057,I- 20
216,32.370830,-89.456647,Poplar St
185,32.547373,-89.475291,Hwy 35 N
160,32.572960,-89.734394,River Bend Rd/Doc Webb Rd
160,32.335935,-89.688233,Nan Lindsey Rd/Lindsey Rd
246,32.365429,-89.486740,W Hwy 80/Joe St
160,32.488424,-89.552289,/Clifton Rd
160,32.355347,-89.375949,E Hwy 80
334,32.365541,-89.483209,/W Hwy 80
185,32.308051,-89.685999,/I- 20
216,32.359614,-89.486307,/Park Rd
216,32.361492,-89.480575,W Oak St
246,32.362268,-89.448925,E Hwy 80/Shady Oaks Ln
246,32.361961,-89.480280,/Front St
160,32.526834,-89.480622,Hwy 35 N
160,32.457675,-89.448812,Ringgold Rd/Old Jackson Rd
246,32.346845,-89.483028,/Fountain Rd
185,32.344473,-89.655315,Taylor Dr/S Taylor St
185,32.368261,-89.455072,Old Hwy 21/N Cedar St
160,32.361205,-89.437511,E Hwy 80/Pine Hill Rd
472,32.366419,-89.469613,/Ann St
334,32.333520,-89.484411,/Hwy 35 S
276,32.346845,-89.483227,/Fountain Rd
160,32.453573,-89.478095,N Little River Rd/Old Jackson Rd
160,32.355770,-89.669624,Hwy 13 N/Lyle Dr
160,32.382683,-89.451873,/Old Hwy 21
160,32.432099,-89.367538,/Ringgold Rd
160,32.323523,-89.436113,I- 20
160,32.461552,-89.484441,Hwy 35 N
185,32.551841,-89.474214,Pea Ridge Rd/Hwy 35 N
160,32.291294,-89.490841,Hwy 35 S
605,32.363565,-89.469156,N 1st Ave/S 1st Ave/E Hwy 80
160,32.355696,-89.665729,/Lyle Dr
362,32.363915,-89.472923,N Davis St/E Hwy 80/S Davis St
160,32.304634,-89.704989,Billy Sessums Rd/Line Creek Rd
390,32.369118,-89.460488,N 7th Ave/Jones St
160,32.353800,-89.473768,/Main St
216,32.352963,-89.656995,N 4th St
160,32.369635,-89.453109,Harris St/May St
362,32.572510,-89.334813,Thrash Dr/Main St
185,32.383013,-89.473437,Old Hillsboro Rd
160,32.345129,-89.650904,State Hwy 481/Taylor Dr/(Pulaski Rd)
216,32.362231,-89.448418,E Hwy 80
160,32.518414,-89.472174,Johnson Rd/Pettey Rd
160,32.332428,-89.335462,/Lake-Norris Rd/Steve Lee Dr
160,32.344560,-89.644483,Old Hwy 80 E
160,32.361907,-89.499688,/W Hwy 80
305,32.372100,-89.484886,Cleveland St
160,32.340907,-89.525796,I- 20
160,32.321021,-89.665335,/Hwy 13 S
276,32.323800,-89.335582,I- 20
160,32.446883,-89.482867,/S Little River Rd
160,32.331198,-89.467401,I- 20
160,32.354128,-89.363007,/E Hwy 80
160,32.341907,-89.324400,/Front St/Smythe St
160,32.409999,-89.357460,/E Scott Rd
216,32.351716,-89.664294,/US Hwy 80
160,32.399403,-89.687536,State Hwy 481/Airport Rd
160,32.337659,-89.660409,Nobles Rd/
160,32.341215,-89.533518,I- 20
216,32.393163,-89.713172,D Williams Rd
160,32.497798,-89.488389,Reynolds Rd
276,32.364423,-89.477914,/W Hwy 80
246,32.346873,-89.483944,/Fountain Rd
160,32.355459,-89.661791,Boykin St/S Boykin St
160,32.575047,-89.334858,North St/State Hwy 487
160,32.346442,-89.325469,School St/Old Hwy 80
160,32.390892,-89.363321,/Old Hwy 80
216,32.319060,-89.666116,Park Rd/Hwy 13 S
276,32.373118,-89.484888,Mounger St/Cleveland St
160,32.440937,-89.397264,Ringgold Rd/Gordy Cir
160,32.487912,-89.360459,/Old Jackson Rd
160,32.329538,-89.679379,Billy Sessums Rd/Lindsey Rd
160,32.457062,-89.446733,/Ringgold Rd
185,32.323567,-89.342018,I- 20
185,32.358281,-89.473893,S Davis St
216,32.370088,-89.468928,N 1st Ave
305,32.363465,-89.461372,Old Hwy 21/E Hwy 80
185,32.313792,-89.668066,/Hwy 13 S
160,32.338326,-89.642305,State Hwy 481
362,32.362866,-89.471273,S Broad St/E 2nd St
160,32.540223,-89.530979,/Beamon Rd
185,32.552166,-89.770444,State Hwy 25
160,32.337773,-89.548950,I- 20
362,32.352474,-89.654817,US Hwy 80/Morris Tullos Dr
305,32.309883,-89.672044,/I- 20
160,32.363397,-89.667518,Hwy 13 N/Old Canton Rd
160,32.479218,-89.736205,/Measels Rd
160,32.346534,-89.651906,7th Ave/(Pulaski Rd)
185,32.311355,-89.661934,I- 20
216,32.347541,-89.671109,Hwy 13 S
246,32.351676,-89.657820,W 1st Ave/3rd St
216,32.573751,-89.334949,State Hwy 487
160,32.545983,-89.523652,/Odom Rd
390,32.367218,-89.478593,George St/Antley St
362,32.349412,-89.481927,Hwy 35 S
160,32.442665,-89.483278,Hwy 35 N
160,32.253152,-89.546222,/Morton-Marathon Rd
160,32.348378,-89.655016,5th St
160,32.557564,-89.754174,State Hwy 25
216,32.375272,-89.451753,Old Hwy 21/Reed Dr
160,32.358606,-89.410176,E Hwy 80
160,32.357125,-89.477420,Pace St/Longview St
185,32.342999,-89.331989,/Stave Mill Rd
160,32.420707,-89.332641,Goodhope Dr
185,32.360409,-89.651918,Sullivan St
185,32.373818,-89.451768,Kersh St/Old Hwy 21
216,32.313326,-89.636105,Stage Rd
276,32.312354,-89.668058,/Hwy 13 S
160,32.362388,-89.450245,E Hwy 80/Timber Ln
216,32.358995,-89.486305,Park Rd/W Hill St
216,32.362063,-89.512081,Hwy 80/Battle Rd
216,32.307710,-89.687270,I- 20
216,32.369127,-89.483711,Wilson St/Anderson St
994,32.368297,-89.480052,North St/West St
246,32.367655,-89.473954,Byron St/N Banks St
160,32.297621,-89.489891,/Hwy 35 S
185,32.352587,-89.651833,US Hwy 80
160,32.305898,-89.488633,/Hwy 35 S
160,32.239978,-89.505143,Morton-Marathon Rd
160,32.315072,-89.618692,/I- 20
216,32.327464,-89.388853,I- 20
472,32.341689,-89.483094,/Hwy 35 S
185,32.527984,-89.480213,/Hwy 35 N
160,32.551700,-89.703232,State Hwy 483
160,32.458269,-89.484224,Hwy 35 N
445,32.338299,-89.483588,Hwy 35 S
246,32.352212,-89.667914,Old Hwy 80 W
216,32.362092,-89.483016,/Front St
160,32.430504,-89.711733,Measels Rd/State Hwy 481
276,32.312910,-89.668108,Hwy 13 S
216,32.345876,-89.326243,Main St/S Main St/E Hwy 80
160,32.568837,-89.469808,Hwy 35 N
160,32.490595,-89.428940,/Watson Dr
216,32.362310,-89.473131,E 1st St/S Davis St
160,32.487599,-89.521273,/Coleman Ln
362,32.349331,-89.481938,Hwy 35 S
185,32.453791,-89.490121,Hillsboro Vfw Rd/Old Jackson Rd
160,32.441255,-89.404909,/Burkes Rd/Ringgold Rd
684,32.364880,-89.479709,W Hwy 80/Hwy 35 S
185,32.371071,-89.479046,Hwy 35 N/
160,32.370535,-89.474693,W Banks St/Sanders St
185,32.345972,-89.644571,Eight Ave
305,32.367261,-89.482168,George St/Roosevelt St
160,32.366868,-89.461851,E 7th St/N 6th Ave
246,32.332771,-89.484561,/Hwy 35 S
160,32.519471,-89.452871,/Tallabogue Rd
216,32.336748,-89.488394,/I- 20
246,32.371070,-89.466175,Willis St
185,32.345495,-89.325430,Church St/State Hwy 489/E Hwy 80
160,32.353315,-89.654203,Morris Tullos Dr
160,32.564279,-89.326512,/State Hwy 492
160,32.325038,-89.663838,/Old 13 S
185,32.368577,-89.438921,Meadow Hill Dr/Old Hwy 80
160,32.432148,-89.442732,Harrison Rd/Hwy 21
185,32.364380,-89.459826,E 4th St/N 8th Ave
160,32.570411,-89.345035,Lynn St
216,32.372723,-89.486335,/Mounger St
246,32.371480,-89.486326,/School Svc Rd
160,32.568834,-89.743280,/State Hwy 25
160,32.363684,-89.481878,/Commerce Loop
160,32.492051,-89.486328,Hwy 35 N
160,32.521227,-89.472208,Old Hillsboro Rd
160,32.424273,-89.423405,Gardner Rd/Ephesus Rd
185,32.335887,-89.480056,I- 20
390,32.351494,-89.481659,Hwy 35 S
246,32.323823,-89.340125,I- 20
445,32.363016,-89.473026,W 2nd St/S Davis St/E 2nd St
216,32.467495,-89.389185,Burkes Rd/Langsmill Rd
246,32.355194,-89.649860,Ted Dr
362,32.363741,-89.471149,N Broad St/E Hwy 80/S Broad St
994,32.367304,-89.484936,George St/Cleveland St
418,32.363636,-89.472955,/S Davis St
160,32.347968,-89.654312,Old Hwy 13 S/5th St/7th St/(Pulaski Rd)
185,32.343425,-89.655703,S Taylor St
160,32.313470,-89.643118,I- 20
362,32.370197,-89.467610,N 2nd Ave
185,32.354771,-89.664264,State Hwy 481/Acree St
658,32.370382,-89.484965,Bailey St/Cleveland St
160,32.559995,-89.472070,Hwy 35 N
185,32.538612,-89.512210,/Mon Rd
305,32.362606,-89.475271,Walker St/Smith St
160,32.362021,-89.470439,E 1st St/S Graham St
246,32.365372,-89.464796,E 5th St/N 4th Ave
216,32.275011,-89.718776,/Stegall Rd
552,32.351001,-89.480518,/Trenton Rd
160,32.457973,-89.458709,Old Jackson Rd
160,32.322927,-89.652491,Donald Rd/
185,32.353668,-89.624346,US Hwy 80
160,32.371338,-89.436001,McCormick Rd/
216,32.350862,-89.659794,1st St/W 2nd Ave
526,32.405715,-89.418611,Culpepper Rd
276,32.372069,-89.468245,Crudup St/Power St
160,32.458751,-89.484245,Hwy 35 N/
160,32.353166,-89.657016,N 4th St
160,32.349308,-89.670967,Hwy 13 N/
160,32.415203,-89.359279,Salem Rd/Lewis Rd
276,32.354575,-89.484867,Airport Rd
185,32.386539,-89.479809,Hwy 35 N
246,32.366905,-89.464800,N 4th Ave/E 7th St
216,32.375920,-89.451769,Old Hwy 21
216,32.372710,-89.487929,Mounger St/Poinsettia Dr
160,32.507212,-89.486876,/Hwy 35 N
160,32.291748,-89.490766,Hwy 35 S
185,32.363665,-89.449264,Eastwood Dr/Janwood Cir
160,32.421785,-89.729516,/Irby Rd
813,32.367292,-89.484070,George St
216,32.363408,-89.649824,Dummy Line Rd
160,32.290577,-89.490945,Hwy 35 S
160,32.402042,-89.423408,Culpepper Rd/
276,32.575933,-89.330306,State Hwy 21
185,32.359208,-89.466416,S 3rd Ave
276,32.313564,-89.661157,Koch Dr
160,32.337786,-89.661638,Nobles Rd/Old Hwy 13 S
216,32.363444,-89.675912,/State Hwy 481
160,32.495296,-89.550015,Clifton Rd
246,32.316398,-89.614672,State Hwy 481
160,32.418909,-89.687569,Airport Rd
216,32.336292,-89.483884,Hwy 35 S/I- 20
160,32.361096,-89.653136,Dummy Line Rd/Morris Tullos Dr
246,32.355986,-89.647342,Boyd St//Shiloh Dr
160,32.358644,-89.466857,S 3rd Ave
160,32.376335,-89.482431,Townsend Rd/Roosevelt St
216,32.573635,-89.334419,/State Hwy 21
160,32.324512,-89.364279,I- 20
160,32.365413,-89.463881,N 5th Ave/E 5th St
160,32.563521,-89.568270,Bigwood Rd/Cash Rd
160,32.487598,-89.520756,/Coleman Ln
160,32.360174,-89.426659,/E Hwy 80
160,32.351016,-89.661832,Agnew St/W 2nd Ave
160,32.472951,-89.524255,/Hillsboro-Ludlow Rd
305,32.367235,-89.476459,George St/Morgan Ln
305,32.371610,-89.484884,/Marion Blvd/Cleveland St
631,32.346468,-89.676305,/US Hwy 80
160,32.362493,-89.653178,Farris Park Rd/Morris Tullos Dr
160,32.331283,-89.467615,I- 20
160,32.376337,-89.481635,Townsend Rd
185,32.369107,-89.492028,Melwood Dr/Scott Dr
185,32.324171,-89.359110,I- 20
185,32.313309,-89.627085,I- 20
160,32.565603,-89.344904,/State Hwy 21
160,32.239075,-89.493138,/Morton-Marathon Rd
160,32.326881,-89.664184,Donald Rd/Old Hwy 13S/Old 13 S
160,32.454731,-89.494889,Old Jackson Rd
246,32.496603,-89.495065,/Midway Odom Rd
246,32.331689,-89.565914,I- 20
334,32.364176,-89.466618,N 3rd Ave/E 4th St
185,32.362169,-89.479374,Front St
185,32.362071,-89.470807,/E 1st St
305,32.316040,-89.614643,State Hwy 481/I- 20
185,32.344492,-89.645228,Old Hwy 80 E
160,32.571468,-89.741775,/State Hwy 25
185,32.346896,-89.367714,Old Sawmill Rd
160,32.348925,-89.644611,E 5th Ave
276,32.327444,-89.388504,I- 20
160,32.359298,-89.579613,US Hwy 80
160,32.462736,-89.484514,Hwy 35 N
246,32.364487,-89.488955,Westover Dr/W Hwy 80
362,32.363636,-89.470220,E Hwy 80/S Graham St/N Graham St
216,32.362652,-89.465339,S 4th Ave/E 2nd St
185,32.387128,-89.479844,/Hwy 35 N
160,32.565437,-89.661140,Hillsboro-Ludlow Rd
216,32.355068,-89.372917,/E Hwy 80
216,32.352772,-89.670531,Hwy 13 N
216,32.567397,-89.341649,State Hwy 21
390,32.376722,-89.475325,Old Hwy 35 N
160,32.558264,-89.355515,/State Hwy 21
246,32.335410,-89.484021,/Hwy 35 S
160,32.571045,-89.344318,North St/Sunny St
185,32.347810,-89.328299,Old Hwy 80
216,32.564527,-89.745978,State Hwy 25
160,32.355372,-89.662869,S Boykin St
185,32.346431,-89.327005,/Wilkins St
445,32.362648,-89.467866,S 2nd Ave/E 2nd St
185,32.357075,-89.540083,US Hwy 80
160,32.520871,-89.472210,Old Hillsboro Rd
499,32.367829,-89.484932,Cleveland St
216,32.352895,-89.668117,Boxx St
418,32.338261,-89.483188,S Industrial Park Rd
160,32.239666,-89.506442,/Hwy 35 S
1200,32.367220,-89.479469,Hwy 35 N/George St
160,32.439458,-89.383084,Ringgold Rd
185,32.321034,-89.591428,I- 20
160,32.431595,-89.443235,/Hwy 21
160,32.354470,-89.645043,Shiloh Dr/Martin Luther King Dr
160,32.315882,-89.667387,Hwy 13 S
185,32.360918,-89.472493,S Raleigh St
160,32.390876,-89.363838,Old Hwy 80
276,32.342905,-89.325983,Mill St/Front St
160,32.362498,-89.653624,Farris Park Rd
185,32.373616,-89.451770,/Old Hwy 21/S Pineridge Dr
160,32.474074,-89.484468,N Little River Rd
185,32.494696,-89.503707,Harperville Rd
185,32.363683,-89.480004,/Commerce Loop
185,32.571460,-89.342596,Sunny St
185,32.372772,-89.489408,Mounger St/Azalea Dr
160,32.361029,-89.477135,W Oak St/Longview St
362,32.350518,-89.481766,/Hwy 35 S
216,32.373055,-89.487924,Poinsettia Dr
160,32.550458,-89.702632,/State Hwy 483
216,32.348087,-89.328998,/Small Rd
246,32.354543,-89.481392,/Airport Rd
185,32.348408,-89.669757,Jackie St/Miles Ave
160,32.457152,-89.368167,/Pleasant Ridge Rd
390,32.376793,-89.475304,Old Hwy 35 N/Entrance Dr To Apts
160,32.342967,-89.656101,Qualls St/Stedman Rd
160,32.366622,-89.491735,Melwood Dr/Greenview Dr
185,32.491337,-89.424910,/Hwy 21
305,32.358833,-89.491474,Jack Lee Dr
185,32.368826,-89.491465,Melwood Dr
185,32.339022,-89.692786,US Hwy 80
160,32.333979,-89.669126,/Hwy 13 S
216,32.310833,-89.664036,/I- 20
160,32.317219,-89.610571,I- 20
246,32.352514,-89.653828,US Hwy 80/7th St
185,32.350841,-89.660587,Spring St/W 2nd Ave
216,32.300916,-89.718649,I- 20
160,32.334358,-89.639952,Nutt Rd
160,32.373381,-89.428828,/Old Hwy 80
160,32.370938,-89.464694,Willis St/N 4th Ave
160,32.289016,-89.636000,Stage Rd/Morton-Marathon Rd
160,32.380356,-89.479422,Hwy 35 N/
185,32.361766,-89.460886,E 1st St/S 7th Ave
160,32.561498,-89.351016,/State Hwy 21
160,32.454293,-89.492183,Old Jackson Rd
160,32.529273,-89.416928,Robert Butler Rd
216,32.352612,-89.651225,US Hwy 80
160,32.539957,-89.528436,Beamon Rd
160,32.323605,-89.325048,I- 20
160,32.361387,-89.560256,US Hwy 80
185,32.354830,-89.482866,/Medical Ln
334,32.358562,-89.469046,/S 1st Ave
160,32.359090,-89.330054,/Old Hwy 80
160,32.323820,-89.342862,I- 20
160,32.295741,-89.490147,/Hwy 35 S
185,32.474070,-89.485212,Hwy 35 N
160,32.297743,-89.489872,Hwy 35 S/L J Harper Rd
526,32.367337,-89.486323,George St
160,32.340525,-89.689480,US Hwy 80
684,32.364917,-89.479822,W Hwy 80
216,32.366985,-89.466656,E 7th St
305,32.355196,-89.649290,Ted Dr
216,32.457363,-89.484182,Hwy 35 N/S Coleman Rd
246,32.376787,-89.476698,Entrance Dr To Apts
160,32.377921,-89.420304,Old Hwy 80
160,32.305507,-89.488689,/Hwy 35 S
160,32.490588,-89.428261,/Watson Dr
216,32.360675,-89.473630,E Oak St/S Davis St
185,32.527866,-89.480255,/Hwy 35 N
185,32.421888,-89.332698,/Goodhope Dr
185,32.490717,-89.434067,Watson Dr
185,32.455609,-89.442832,Harrison Rd/Ringgold Rd
185,32.361372,-89.473269,/Front St
160,32.369006,-89.437880,/Old Hwy 80
276,32.323445,-89.335560,I- 20
160,32.354548,-89.367450,E Hwy 80
160,32.365346,-89.469149,N 1st Ave/Hershel Ave
160,32.354169,-89.647419,Norris St/Martin Luther King Dr
185,32.561566,-89.471663,Hwy 35 N//Richard May Rd
185,32.358120,-89.486270,W Spring St/Park Rd
334,32.354578,-89.484627,Airport Rd
185,32.379837,-89.479395,Hwy 35 N
160,32.289687,-89.636759,/Morton-Marathon Rd
552,32.366352,-89.479594,Hwy 35 N/
185,32.500312,-89.414107,/Hwy 21
185,32.369257,-89.482291,Roosevelt St/Anderson St
160,32.557610,-89.356532,State Hwy 21
185,32.376327,-89.479173,Hwy 35 N/Townsend Rd
390,32.364286,-89.476805,W Hwy 80/Gray Ln
216,32.343843,-89.655548,E Taylor St/S Taylor St
160,32.361969,-89.503427,/W Hwy 80/Hwy 80
185,32.355278,-89.664664,S Boykin St/State Hwy 481
246,32.346849,-89.482524,Fountain Rd
216,32.474011,-89.509226,Anderson Rd
305,32.359140,-89.480953,Morton St/W Hill St
160,32.486899,-89.427132,Hwy 21
160,32.330944,-89.665541,Old Hwy 13 S
185,32.347168,-89.671133,Hwy 13 S
334,32.362611,-89.462242,E 2nd St/S 6th Ave
334,32.477307,-89.401546,Patrick Dr
276,32.563080,-89.533216,S Strong Ln
246,32.362131,-89.471348,/E 1st St/S Broad St
160,32.423124,-89.447726,/Hwy 21
160,32.262468,-89.497003,Hwy 35 S
216,32.453959,-89.490835,Pearl Ln/Old Jackson Rd
185,32.328237,-89.485312,Hwy 35 S/Magnolia Hts
216,32.358760,-89.495191,/Jack Lee Dr
160,32.442233,-89.744826,State Hwy 481
160,32.361289,-89.672830,/State Hwy 481
276,32.370498,-89.480611,Jefferson St/Bailey St
160,32.400899,-89.688422,State Hwy 481
185,32.531668,-89.479350,/Hammond Rd
216,32.535696,-89.363094,/Hwy 21
185,32.285373,-89.684503,Hwy 13 S
216,32.354031,-89.361935,E Hwy 80
334,32.358780,-89.491312,Jack Lee Dr
160,32.568120,-89.469993,Hwy 35 N
216,32.367850,-89.461279,Rose St/Payton St
216,32.371486,-89.456663,Poplar St/Fern St
160,32.243533,-89.526321,/Morton-Marathon Rd
246,32.362071,-89.512779,/Hwy 80
160,32.313569,-89.662011,Koch Dr
160,32.530558,-89.585319,/Hillsboro-Ludlow Rd
185,32.570375,-89.344435,North St/Lynn St
160,32.445761,-89.483470,Hwy 35 N/S Little River Rd
334,32.369112,-89.464113,Valley St/Jones St
216,32.346471,-89.655794,Old Hwy 13 S/William Walter Dr/S 4th St
160,32.360644,-89.477158,/Longview St
305,32.361744,-89.462209,E 1st St/S 6th Ave
185,32.354198,-89.649110,Ted Dr/Martin Luther King Dr
160,32.355123,-89.645775,Shiloh Dr/Craft St
160,32.361794,-89.491372,Old Morton Rd
160,32.307124,-89.667374,Hwy 13 S
160,32.424050,-89.422763,/Gardner Rd
160,32.491337,-89.388046,Old Jackson Rd
