Estimated daily crossings,Latitude,Longitude,Name
418,35.768734,-91.634901,Hospital Dr/Wrmc Ave
160,35.799661,-91.531008,White Dr/Gaineboro Rd
160,35.765539,-91.638385,15th St/Grays Ave
160,35.793031,-91.609882,Reed Wade Rd
160,35.713506,-91.445372,N Hill St
160,35.702985,-91.447916,Vine St/6th St W
185,35.731750,-91.631701,Penny Linda Ln/Allen Chapel Rd
246,35.773451,-91.635417,S 17th St/Lyon St
736,35.769534,-91.631448,Harrison St/20th St
185,35.806170,-91.608439,E Main St
185,35.697391,-91.442855,2nd St E/N Locust St
160,35.714474,-91.444017,Brustrom Ln/14th St
160,35.774737,-91.303252,/Elgin Rd
160,35.768717,-91.656418,W Main St
246,35.771357,-91.621527,Neeley St/Tanglewood Dr
216,35.738256,-91.639669,Triangle Rd/Runaway Rd
160,35.721084,-91.638488,Luscombe Ln
185,35.766067,-91.593757,Mockingbird St/Quail Valley Dr
185,35.849620,-91.574565,/N St Louis
390,35.769576,-91.634861,Moore St/Harrison St/Wrmc Ave
185,35.776250,-91.615873,Alta Vis/Bluff View Dr/Josephine Dr
216,35.770580,-91.636859,Byers St/16th St
185,35.703501,-91.476757,Skinner Ln/Oak St
160,35.776940,-91.660213,W Baker St/Central Ave N/E Baker St
216,35.791817,-91.638161,/White Dr
160,35.808838,-91.575450,Rosewood Rd
160,35.746803,-91.511455,Donna St
160,35.712164,-91.485055,Phillips St
160,35.696263,-91.445516,S Oak St/Front
185,35.874723,-91.549301,N Saint Louis
185,35.710556,-91.488912,Harrison St
185,35.773529,-91.608681,Mill Run Trl/Equity Ct
390,35.738580,-91.639022,Triangle Rd/Batesville Blvd
216,35.798759,-91.665718,Calvin Cir
160,35.776889,-91.630008,21st St/E College Ave
160,35.772190,-91.642222,S 10th St/Oak St
185,35.797581,-91.663761,James St
160,35.938180,-91.550950,W South St
362,35.774968,-91.640786,S Saint Louis St
445,35.736534,-91.638870,/Batesville Blvd
526,35.775823,-91.640789,E Boswell St/S Saint Louis St
160,35.781627,-91.660547,Pickens St/Central Ave N
246,35.772457,-91.631400,Case St/20th St
160,35.767986,-91.617685,Debra St/30th St
160,35.691639,-91.618653,Rorie St/Batesville Blvd
160,35.702356,-91.449302,W 5th St
160,35.774320,-91.777601,Myers Rd
160,35.841744,-91.584564,N Saint Louis
160,35.780047,-91.657097,E Morrow/Brooks St
362,35.768181,-91.631486,20th St
185,35.815487,-91.595104,Louise Cir
160,35.767692,-91.646237,Neil St/S Broad
160,35.739881,-91.643222,/Heber Springs Rd
418,35.769722,-91.648153,Harrison St/S 5 St
160,35.709683,-91.443195,Lingle Ln
185,35.937867,-91.539213,W Jaret Ln
185,35.702667,-91.446780,Morgan St/6th St W
160,35.805221,-91.617626,N Saint Louis St
160,35.725290,-91.515260,Waldrip Rd/Gap Rd
276,35.799449,-91.665370,Le Ann
160,35.696461,-91.443226,1st St E/N Locust St
216,35.794005,-91.593942,Reed Wade Rd/Cornish Ln
185,35.806377,-91.621537,Midwest Ln
710,35.770452,-91.626965,Byers St
160,35.815397,-91.593245,Stacey Dr/Louise Dr
160,35.691348,-91.591808,Newport Rd/Bull-Cut-Off
185,35.785025,-91.662735,Broadwater Ln/Lee Ella Dr
160,35.760226,-91.536117,Harrison Street Annex
216,35.807372,-91.606981,E Main St
160,35.887257,-91.552083,N Saint Louis
526,35.766585,-91.637018,Virginia Dr/16th St/Sidney St/Lawrence St
160,35.774867,-91.663364,W Baker St/W Ross St
216,35.769831,-91.652471,Broad St/E College Ave
185,35.700809,-91.447529,W 4th St/Morgan St
362,35.778915,-91.628015,/Highland Rd
160,35.797876,-91.630723,Enviornmental Dr
160,35.790747,-91.664057,N Central Ave
160,35.778053,-91.679803,Bethesda Rd
160,35.690175,-91.453449,Harrison St
160,35.712691,-91.483693,Hall Dr
160,35.571841,-91.480093,Stewart Ln
160,35.706311,-91.608660,Sherrill Dr/Allen Chapel Rd
160,35.791672,-91.630949,White Dr
246,35.767822,-91.626093,24th St
185,35.705438,-91.622418,Lumpkin Dr/Boulder Dr
305,35.768589,-91.639667,Bates St/14th St
160,35.756524,-91.622501,Jennings Ln/Pioneer Dr
160,35.829272,-91.611466,Aeby Rd/Cave Creek Rd
276,35.759788,-91.638439,Sportsmans Acc
246,35.632300,-91.460701,North St/2nd St
185,35.710504,-91.612454,/Allen Chapel Rd
160,35.780598,-91.634267,N 18th St
216,35.766727,-91.646269,Neil St/Lawrence St
160,35.776617,-91.656647,E Pine St/Brooks St
185,35.797163,-91.630543,N Saint Louis St/Enviornmental Dr
160,35.768402,-91.571974,Harrison St/Mack St
185,35.758820,-91.627106,Douglas St/Goff Dr
216,35.627136,-91.460783,Nelse St/2nd St
526,35.769521,-91.630090,21st St/Harrison St
216,35.770484,-91.647170,S 6th St/Vine St
160,35.759873,-91.627219,Edward Dr/Douglas St/Lee St
160,35.775371,-91.615867,College Heights Dr/Josephine Dr
160,35.870850,-91.753632,Brown Loop
246,35.790604,-91.621675,E Main St
334,35.771375,-91.622709,Neeley St/Bryant St
445,35.737422,-91.639026,Allen Chapel Rd/Heber Springs Rd/Batesville Blvd
160,35.837016,-91.588030,N Saint Louis
160,35.815559,-91.593085,Stacey Dr/Louise Cir
160,35.721494,-91.617456,Edgar Rd
160,35.631081,-91.463448,W Moore St
160,35.760464,-91.631316,Fairway Dr/Duffer Ln
160,35.805847,-91.603021,Miller Dr
552,35.770459,-91.627366,Byers St/23rd St
160,35.695922,-91.444352,S Main St/Front/Front St
160,35.860969,-91.772816,Franks Rd
160,35.716698,-91.604860,Sherrill Dr/Vaughn Ln
185,35.701079,-91.447425,/Morgan St
216,35.762284,-91.633949,Myers Ave
160,35.732401,-91.658040,Boyd Rd/Heber Springs Rd
185,35.787028,-91.592533,/Massey Ln
216,35.770579,-91.590850,Parker Dr/Vernon Dr
160,35.695498,-91.444535,S Main St
216,35.587612,-91.757059,Wagon Wheel Rd/Bowren Dr
362,35.778901,-91.628217,22nd St/Highland Rd
216,35.740349,-91.644366,Heber Springs Rd/Triangle Ln
160,35.768844,-91.615889,Alice Dr
185,35.773471,-91.636733,Lyon St/16th St
185,35.770158,-91.649853,E Boswell St/S 4th St
160,35.701386,-91.442178,6th St E/6th St W/N Main St
276,35.762292,-91.626430,Dylan Ln
160,35.589212,-91.761319,Floral Rd
160,35.788558,-91.656735,Webber/White Dr
185,35.918803,-91.505316,Forest Ln
216,35.767873,-91.594050,Harrison St/Vernon Dr/Quail Valley Dr
160,35.764432,-91.731714,/Sawtooth Ln/Kading Ln
160,35.769927,-91.656005,Water St
185,35.774957,-91.639478,14th St
160,35.700463,-91.450137,Gravel St/Long St/3rd St W
160,35.775047,-91.663518,Baker St/W Baker St/Grace St
160,35.680658,-91.444022,State Hwy 69/Point Ferry Rd/State Hwy 122/Harrison St
185,35.736155,-91.654804,Amanda Dr/Heber Springs Rd
160,35.541152,-91.621539,Main St/Batesville Blvd
160,35.842003,-91.735502,N Central Ave
160,35.628112,-91.460782,Charles St/2nd St
305,35.771503,-91.631711,Neeley St
246,35.936094,-91.548020,Main
185,35.728896,-91.682204,Moody St/Hulsey St
246,35.788341,-91.661570,Central Ave N
160,35.731124,-91.630279,Holly St
216,35.710487,-91.444129,13 St/W 13th St/N Hill St
160,35.787647,-91.576215,Carma Dr
185,35.798891,-91.666839,Denny Cir
160,35.740950,-91.571434,Rutherford Dr
160,35.767755,-91.556460,Leggett Ln/Harrison St
160,35.828463,-91.609191,Chimmey Rd
160,35.768010,-91.556348,Leggett Ln
160,35.717414,-91.660551,Brushy Rd
160,35.777625,-91.558007,Morris Ave
160,35.861324,-91.556740,Wilderness Dr
160,35.800439,-91.590518,Emma Kate Cir/Rosewood Rd
185,35.771348,-91.620594,Neeley St/28th St
276,35.788731,-91.661763,White Dr/Central Ave N/N Central Ave
160,35.709570,-91.440705,N Oak St
390,35.770614,-91.653150,Broad St/E Main St/Bayou St
160,35.760629,-91.625053,Rosa St/Chadwick Dr
160,35.533811,-91.610109,Wilf Dr
499,35.777668,-91.640746,N Saint Louis St/E Main St/S Saint Louis St
160,35.700177,-91.449045,Vine St/3rd St W
216,35.734341,-91.678592,/Park Rd/Jamestown Rd
160,35.605913,-91.609536,Batesville Blvd
185,35.728061,-91.635962,Pepsi Cola Rd
160,35.768038,-91.556326,Leggett Ln
160,35.630683,-91.461838,1st St/Center St
185,35.851291,-91.574055,/N Saint Louis
160,35.774910,-91.663790,Baker St/W Ross St
658,35.775485,-91.627313,23rd St/E Boswell St
216,35.719063,-91.636856,Private/Batesville Blvd
160,35.707786,-91.439566,N Locust St
185,35.783728,-91.668124,Davis Ln
160,35.533838,-91.611811,Wilf Dr
185,35.694364,-91.444757,S Main St
185,35.794678,-91.634137,N Saint Louis St/Industrial Dr
160,35.771368,-91.723472,Harkey Rd/Westwood Dr
160,35.847244,-91.737105,Kinion Ln/N Central Ave
160,35.738203,-91.656771,Shangrila Ln/Chuck Cir
305,35.684270,-91.598085,Spout Springs Dr
185,35.703353,-91.486321,Waldrip Rd/
246,35.778976,-91.634529,Highland Rd/S 18th St
160,35.763821,-91.620409,Lakewood Ct
160,35.771335,-91.617532,Neeley St/Josephine Dr/30th St
160,35.779084,-91.786268,Earnheart Rd
305,35.770928,-91.650525,E College Ave/S 4th St
246,35.774342,-91.642477,E Boswell St/S 11th St
246,35.766568,-91.630985,/Briar Dr
185,35.557582,-91.621661,Blackland Rd
185,35.772503,-91.638181,Case St/15th St
160,35.771542,-91.636810,Neeley St/16th St
160,35.789480,-91.651851,White Dr
160,35.778338,-91.660639,Central Ave N/W Wycough St/E Wycough St
334,35.798542,-91.664538,Calvin Cir/Melton Dr
160,35.739449,-91.656369,Ponderosa Dr/Shangrila Ln
216,35.773295,-91.646386,S 8th St/E College Ave
276,35.754210,-91.593703,Pool Dr/Gap Rd
160,35.767967,-91.570127,Ham St/Harrison St
160,35.705594,-91.445922,/Morgan St
185,35.720322,-91.637082,Batesville Blvd
684,35.771758,-91.640911,Neeley St/S St Louis St/S Saint Louis St
160,35.871397,-91.753762,Brown Loop/N Central Ave
362,35.776855,-91.628644,22nd St/E College Ave
160,35.783280,-91.624112,E Main St
185,35.798942,-91.666726,Denny Cir
160,35.767935,-91.556394,Leggett Ln
362,35.759362,-91.630166,Bogey St/Slyvia St
390,35.773407,-91.631406,Lyon St/20th St
160,35.775647,-91.695804,/Bethesda Rd
305,35.765153,-91.613109,Eagle Mountain Dr
246,35.806446,-91.621642,/Midwest Ln
246,35.770341,-91.651592,S 3rd St/E College Ave
246,35.791320,-91.609908,Reed Wade Rd/White Dr
246,35.753518,-91.592883,/Gap Rd
334,35.776077,-91.608921,Mill Run Trl/Trestle Ct
160,35.752276,-91.459758,E Wright St
185,35.773415,-91.845694,/Garcia Ln
185,35.772372,-91.657927,N State St/W Charles St
160,35.701416,-91.449775,W 4th St/Long St
160,35.602120,-91.783460,Pine Grove Rd
185,35.786016,-91.665357,Jean St/Lynn
160,35.756230,-91.596529,Gap Rd
160,35.740296,-91.442218,N Hill St
160,35.760518,-91.522638,Harrison St/Watson Rd
160,35.714531,-91.606214,/Sherrill Dr
160,35.655264,-91.516227,Newport Rd/Persimmon Ln
160,35.779394,-91.713626,Bethesda Rd
185,35.753777,-91.605500,Lomond Dr
160,35.830784,-91.734038,Punch Ln/N Central Ave
246,35.769668,-91.642498,Byers St/Harrison St
185,35.722657,-91.522613,Futurefuel Plant Rd
216,35.703073,-91.476805,Harrison St/Oak St
185,35.766616,-91.639746,14th St/Lawrence St
160,35.910961,-91.550948,N Saint Louis
185,35.758241,-91.608540,Lake Oak Dr/Silver Maple Cv/Oak Meadow Cv
1046,35.766614,-91.641089,S Saint Louis St/Lawrence St
185,35.758724,-91.623733,Brian St/Goff Dr
160,35.832433,-91.589485,N Saint Louis
185,35.774450,-91.636692,Sydney/16th St/Porter St
160,35.783496,-91.668125,Davis Ln/Hawkins St
160,35.803049,-91.622147,N Saint Louis St
160,35.772519,-91.614924,College Heights Dr/Barbara Dr
1046,35.763980,-91.640199,Chaney Dr/14th St/S St Louis
160,35.737957,-91.649748,Lindsay Cir
185,35.775988,-91.657755,E Pine St/Bayou St
334,35.767608,-91.631501,20th St/Reynolds St
185,35.767772,-91.650534,River Rd/S Broad
390,35.769703,-91.646605,Harrison St/Oak St
160,35.697738,-91.599053,Hightower Ln
160,35.693066,-91.595259,Firehouse Rd/Sherrill Dr/Church Dr
160,35.763606,-91.591110,Oriole St
499,35.767618,-91.642325,S Slater St/S Broad
185,35.757746,-91.627751,Douglas St/Pioneer Dr
160,35.887848,-91.511210,Sunset Ridge/Dusty Ln
160,35.550480,-91.623524,Stadium Dr/E Wood St
216,35.769354,-91.727347,Bracy Mountain Dr
160,35.733005,-91.729812,Blevins Ln
418,35.787431,-91.642280,Furniture Ln/Hwy 167 Spr
160,35.807491,-91.690073,Hillcrest Ln/N Central Ave
160,35.763922,-91.591293,Thunderbird Dr/Oriole St
185,35.785002,-91.661474,Central Ave N/N State/Broadwater Ln/N Central Ave
160,35.774921,-91.663913,Leonard St/W Ross St
160,35.533889,-91.610116,Wilf Dr
526,35.772791,-91.641170,Oak St/S 11th St
305,35.799518,-91.664494,Le Ann/Melton Dr
160,35.752472,-91.498274,E St Charles St/N College St
185,35.775374,-91.649866,Rock St/Elm St
246,35.772452,-91.631047,Case St
160,35.699863,-91.444085,W 4th St/S Oak St
276,35.791760,-91.635088,McGuire St/White Dr
276,35.776557,-91.642743,N 12th St/S 12th St/E Main St
185,35.807874,-91.611307,N Saint Louis St
160,35.782567,-91.606111,Miller Creek Rd
658,35.772585,-91.640888,Case St/S Saint Louis St/Oak St
246,35.751906,-91.602373,S Ridge Ct
160,35.702650,-91.442893,W 7th St/7th St
246,35.628086,-91.461884,1st St/Charles St
185,35.627102,-91.463111,Nelse St/Rose Ln
472,35.739481,-91.638772,/Dennison Hts/Triangle Ln/Batesville Blvd
216,35.770502,-91.604887,Harrison St/Mill Hts
216,35.766365,-91.652167,S Central Ave
276,35.766605,-91.653325,/S State St
185,35.702196,-91.789776,Marce Ln/Radio Tower Rd/Heber Springs Rd
160,35.631477,-91.461815,Moore St/1st St
160,35.599793,-91.792174,/Floral Rd
185,35.780290,-91.661883,N State St/W Morrow St
160,35.790924,-91.664265,/N Central Ave
160,35.829395,-91.610686,Aeby Rd/Abey Rd/Chimmey Rd
216,35.758961,-91.608796,Oak Meadow Cove
185,35.699709,-91.624478,Scott Dr/Batesville Blvd
216,35.771080,-91.646115,Vine St/S 7th St
160,35.750646,-91.600883,Eagle Mountain Blvd/Meadow Wood
160,35.767996,-91.558347,Morgan Rd/Harrison St
185,35.808155,-91.608976,N Saint Louis St
160,35.777471,-91.848683,Oneal Rd
160,35.761561,-91.622554,Franklin St
185,35.775564,-91.631363,E Boswell St/20th St
160,35.696609,-91.598958,Hightower Ln
185,35.870982,-91.544367,Antioch Rd
160,35.762369,-91.622392,Jennings Ln
334,35.767346,-91.622303,Harrison St
160,35.629899,-91.460763,Jones St/2nd St
216,35.550427,-91.626478,Main St/E Wood St
185,35.784057,-91.668123,Davis Ln/Dari Dr
160,35.784406,-91.662688,Addie St
246,35.766518,-91.633440,Hospital Cir/Virginia Dr
160,35.724260,-91.625499,Allen Chapel Rd/Section Ln
216,35.697051,-91.626167,N Gem St
185,35.776771,-91.658426,Bayou St/E Ross St
246,35.702432,-91.445610,6th St W/N Hill St
160,35.769052,-91.651805,Broad St/E Boswell St
185,35.814580,-91.467669,White Dr
160,35.696070,-91.445593,S Oak St
216,35.762635,-91.620371,Dogwood Dr E
246,35.775349,-91.658856,W Pine St/E Pine St/Central Ave N
418,35.700904,-91.625595,Magnolia St/Batesville Blvd
160,35.728102,-91.629074,/Allen Chapel Rd
216,35.758834,-91.608540,Oak Meadow Cv
160,35.737618,-91.631484,Twin Oaks Ln
968,35.763710,-91.641250,St Louis Blvd
160,35.636894,-91.504187,Newport Rd/Private
160,35.632274,-91.461807,North St/1st St
160,35.703706,-91.482704,Harrison St
216,35.771502,-91.635434,Neeley St/S 17th St
160,35.706439,-91.629480,Batesville Blvd
276,35.758021,-91.635295,River Rd/Chaney Dr/Riverbank Rd
185,35.785961,-91.662731,Jean St/Lee Ella Dr
160,35.693273,-91.444079,State Hwy 69
684,35.776459,-91.640790,S Saint Louis St/E College Ave
160,35.768733,-91.646210,Neil St/Bates St
305,35.775530,-91.629409,E Boswell St
160,35.775763,-91.638888,14th St/E Boswell St
160,35.811921,-91.601445,N Saint Louis
579,35.770662,-91.640947,Byers St/S St Louis St/S Saint Louis St
185,35.797338,-91.630633,Enviornmental Dr
579,35.772437,-91.628686,Case St/22nd St
305,35.758074,-91.635463,River Rd/Private
160,35.815203,-91.462484,Moore Cir/White Dr
246,35.770484,-91.628705,Byers St/22nd St
160,35.773559,-91.612053,Lumber Ln
185,35.793639,-91.666314,Chester St/N Central Ave
160,35.680727,-91.446662,Harrison St
216,35.772929,-91.623334,26th St
390,35.776827,-91.627978,22nd St/E College Ave
472,35.765466,-91.619893,Dogwood Dr/Harrison St
499,35.771466,-91.628698,Neeley St/22nd St
185,35.776235,-91.647369,Rock St/N 9th St
160,35.758062,-91.609747,Lake Oak Dr
216,35.719003,-91.621718,Railroad Pl
276,35.771273,-91.647900,S 6th St/E Boswell St
185,35.769222,-91.598963,Harrison St/Gap Rd
216,35.917149,-91.549670,N Saint Louis
160,35.865083,-91.558589,Boone Ln/Davidson Ln
185,35.779046,-91.635878,Highland Dr/Highland Rd/McCaleb St
160,35.717459,-91.619076,Allen Chapel Rd/Sky View St
160,35.785137,-91.570090,White Dr
305,35.774964,-91.641395,S 12th St/E Boswell St
185,35.734926,-91.655727,Zack St/Heber Springs Rd
216,35.769858,-91.590926,Vernon Dr/Shoemaker Dr
276,35.770662,-91.648962,E Boswell St/S 5th St
185,35.696362,-91.599931,Hightower Ln/Allen Chapel Rd
499,35.775805,-91.640150,E Boswell St
160,35.871309,-91.753790,Cush St/N Central Ave
160,35.695783,-91.444420,S Main St
684,35.769446,-91.626060,Harrison St/24th St
552,35.755731,-91.640893,US Hwy 167//Batesville Blvd
160,35.664355,-91.530117,Newport Rd
160,35.791931,-91.643288,Hwy 167 Spr/White Dr
160,35.782379,-91.661916,N State St/Penrod St
160,35.757388,-91.495648,N Wilson St/Kathleen St
246,35.781458,-91.641503,N Saint Louis St
160,35.771612,-91.639568,Neeley St/14th St
160,35.775682,-91.662398,W Baker St/Elsie St
160,35.741216,-91.695289,Heber Springs Rd
160,35.814322,-91.596056,Stone Cir
185,35.864118,-91.597515,Crockett Rd/Cave Creek Rd
160,35.812440,-91.592058,Violet St/Spring Valley Dr
276,35.772038,-91.648563,S 6th St/E College Ave
160,35.754360,-91.767749,/Earnheart Rd
160,35.761866,-91.622401,Jennings Ln
185,35.782420,-91.659216,N Heights Ave/Esther St
552,35.774349,-91.627332,23rd St/Porter St
160,35.701181,-91.441329,6th St E/N Locust St
305,35.774375,-91.630080,21st St/Porter St
160,35.688607,-91.592608,T-Cut Off/Rock Bridge Rd
160,35.870624,-91.515264,Darwin Cir/Antioch Rd
216,35.699120,-91.623927,Dairy Bar Rd/Batesville Blvd
552,35.778892,-91.629152,Bearette St/Highland Rd
472,35.762365,-91.638686,Myers Ave/Chaney Dr
390,35.771741,-91.651219,N 4th St/E Main St/S 4th St
246,35.778973,-91.634272,Highland Dr/Highland Rd/N 18th St
160,35.769599,-91.571706,Moore Ave/Mack St
160,35.792528,-91.609891,Reed Wade Rd/Ashlyn Ln
185,35.788677,-91.658799,N Heights Ave/White Dr
276,35.770516,-91.630080,21st St/Byers St
185,35.807773,-91.611659,N Saint Louis St
160,35.785968,-91.567123,White Dr/Kathy Ln
160,35.817112,-91.714283,N Central Ave
185,35.797536,-91.557380,White Dr
160,35.859365,-91.773267,Franks Rd
160,35.764635,-91.608848,Woodmont Cir
418,35.700473,-91.625193,Upper Twin Fork/Batesville Blvd
160,35.631451,-91.462986,W Moore St/Moore St/Main St
216,35.769349,-91.655314,State St/N State St/W Main St
160,35.703691,-91.627550,Jmi Ln
160,35.735024,-91.653888,Amy Ln/Kelli Cv
185,35.710713,-91.488977,McDoniel Rd/Harrison St
160,35.937850,-91.537830,Jacob Ln
246,35.702482,-91.477206,Brittany St
185,35.771746,-91.654133,Bayou St
160,35.779175,-91.637059,Highland Dr/E Main St
160,35.715834,-91.488337,Kari Rd
526,35.772960,-91.640877,S Saint Louis St/Oak St
216,35.770943,-91.644364,S 8th St/Oak St
185,35.773326,-91.845470,/Copperhead Ln
216,35.718631,-91.621113,Passing Go Trl
631,35.769647,-91.641600,S 9th St/Harrison St
216,35.735713,-91.634361,Dixie St/Allen Chapel Rd
216,35.756762,-91.611764,Aberdeen Dr
160,35.722109,-91.476400,/Cleghorn Chapel Rd
185,35.695814,-91.589140,Tinkle Dr
185,35.776954,-91.632676,S 19th St/E College Ave
160,35.766694,-91.657933,Market St/W College Ave
160,35.698463,-91.622740,Newport Rd
160,35.676846,-91.541026,Newport Rd/
160,35.772534,-91.639534,Case St/14th St
246,35.774984,-91.649508,N 7th St/Rock St
216,35.718713,-91.621191,Monoply/Passing Go Trl
160,35.795046,-91.620323,E Main St/Lawson Dr
160,35.767750,-91.564228,/Harrison St
160,35.734758,-91.655387,Zack St
276,35.773928,-91.645298,S 9th St/E College Ave
185,35.702025,-91.444479,College St/6th St W
160,35.831926,-91.589826,N Saint Louis/Green Ln
160,35.922243,-91.536477,Welcome Ln
216,35.791864,-91.640225,White Dr/Grand Dr
160,35.698935,-91.439692,Pecan St/4th St E
160,35.736201,-91.653017,Amy Ln/Carol Ln
185,35.768758,-91.647562,Bates St/Searcy St
246,35.707075,-91.629754,Jones Dr/Batesville Blvd
185,35.748973,-91.602385,Eagle Mountain Blvd/S Ridge Ct
246,35.772442,-91.630064,Case St/21st St
160,35.776997,-91.636850,E College Ave/16th St
185,35.862463,-91.750469,N Central Ave/Boutwell Ln
160,35.760745,-91.522636,Annex/Watson Rd/W Broadway
160,35.667842,-91.425848,Point Ferry Rd
276,35.791497,-91.621622,White Dr/E Main St
160,35.691218,-91.564456,Newport Rd/Buckeye Ln
445,35.769705,-91.646819,Harrison St/Cook St
185,35.704585,-91.438195,Adams St/E 9th St
390,35.768544,-91.636952,Bates St/16th St
160,35.632429,-91.455897,North St/Newport Rd
160,35.597988,-91.617284,Sample Dr/Mason Ln
445,35.769453,-91.623311,Bryant St/26th St
160,35.691216,-91.573443,Newport Rd/
160,35.647190,-91.510878,Newport Rd
160,35.762574,-91.592761,Quail Valley Dr
362,35.757937,-91.635574,Private
276,35.766687,-91.644346,Ramsey St/Lawrence St
160,35.767744,-91.648930,Allen St/S Broad
160,35.696413,-91.599226,Hightower Ln
160,35.702045,-91.448294,W 5th St/Vine St
276,35.770632,-91.654820,Water St/Central Ave N
1071,35.767594,-91.641045,S Saint Louis St/S Broad
185,35.771872,-91.652898,N 3rd St/Water St
160,35.786932,-91.751972,Bethesda Rd
160,35.791350,-91.611958,/White Dr
160,35.703510,-91.445977,W 7th St/Morgan St
305,35.776116,-91.609113,Mill Run Trl
185,35.772323,-91.643955,Vine St/S 9th St
185,35.772213,-91.610061,Sawmill Rd/Mill Run Trl
246,35.761374,-91.627660,Betty Jean St/Lee St
160,35.716867,-91.604743,Vaughn Ln
160,35.771509,-91.634064,Neeley St/S 18th St
160,35.708035,-91.439563,W 11th St/N Locust St
216,35.735517,-91.646528,Chamblee/Chamblee Dr/Carol Ln
160,35.732759,-91.637867,Knight St
160,35.791785,-91.647580,White Dr
160,35.739273,-91.714698,Heber Springs Rd
390,35.774347,-91.628672,22nd St/Porter St
160,35.728675,-91.415780,Cord Rd
185,35.777018,-91.638869,14th St/E College Ave
160,35.779784,-91.785878,/Gill Rd
160,35.702970,-91.483829,Brittany St/Burns St
246,35.792677,-91.636227,N Saint Louis St
160,35.791681,-91.631356,White Dr
246,35.724383,-91.637069,McHue Rd/Section Ln/Batesville Blvd
246,35.773428,-91.634080,S 18th St/Lyon St
216,35.735409,-91.638644,/Batesville Blvd
216,35.718897,-91.621611,Railroad Pl/Monoply
216,35.786578,-91.642141,N Saint Louis St/Hwy 167 Spr
472,35.772842,-91.649258,S 6th St/N 6th St/E Main St
160,35.937957,-91.542922,Welcome Ln/South
160,35.771598,-91.657273,N State St/W Cherry St
160,35.750207,-91.598931,White Oak Ct
160,35.770641,-91.639587,Byers St/14th St
160,35.791293,-91.607461,J B Hunt Trucking Rd/White Dr
305,35.733252,-91.656977,Barrett Ln/Heber Springs Rd
160,35.730619,-91.637791,Page Ln/Batesville Blvd
216,35.771552,-91.643304,S 9th St/Oak St
246,35.736729,-91.649813,Helen Cir
160,35.775960,-91.643816,E Main St/S 11th St/N 11th St
445,35.768566,-91.638271,15th St/Bates St
185,35.863981,-91.596806,Cave Creek Rd
160,35.793450,-91.660760,Warrior Rd
160,35.761738,-91.621827,Dogwood Dr/Juniper Dr
185,35.769783,-91.618512,Wildwood Cove
246,35.773779,-91.657498,Central Ave N/W Chestnut St/E Chestnut St
160,35.695915,-91.626945,N Gem St/S Gem St/Camp Tahkodah Rd
160,35.758707,-91.622429,Jennings Ln/Goff Dr
185,35.732552,-91.632111,Allen Chapel Rd/Bond St
216,35.780058,-91.658170,Arch St/E Morrow
185,35.798876,-91.666657,Denny Cir
160,35.787495,-91.586196,White Dr
185,35.740666,-91.646330,Chamblee Cir/Chamblee Dr/Heber Springs Rd
160,35.559620,-91.621778,Hayes/Batesville Blvd
736,35.764696,-91.617143,Harrison St
305,35.769739,-91.649500,Harrison St/S 4th St
185,35.870905,-91.549921,N Saint Louis/Antioch Rd
276,35.776872,-91.629318,E College Ave
276,35.762295,-91.637687,Myers Ave/Sidney St
185,35.694150,-91.444703,S Main St
160,35.779589,-91.786181,Earnheart Rd
160,35.694114,-91.589761,Nascar Ln
160,35.701922,-91.452719,B St/Village St
160,35.774498,-91.639483,14th St/Porter St
216,35.737559,-91.652358,Amy Ln
160,35.760983,-91.639298,Cottonwood St
160,35.769350,-91.609535,Stone Flag Rd/Harrison St
305,35.765267,-91.613259,Eagle Mountain Dr/Harrison St
185,35.749944,-91.600113,Eagle Mountain Blvd/White Oak Ct
160,35.759737,-91.541546,Leatherwood Cir/Plantation Ln
160,35.708676,-91.626833,Bowman Ln
276,35.772366,-91.623683,Case St
160,35.764163,-91.631557,Briar Dr
160,35.730650,-91.636792,Page Ln
160,35.624258,-91.782427,Townsley Dr
246,35.773412,-91.627350,23rd St/Lyon St
216,35.785075,-91.665367,Broadwater Ln/Lynn
185,35.728060,-91.635822,Pepsi Cola Rd/Muffler St
160,35.758988,-91.622425,Jennings Ln/Timberland Dr
160,35.781117,-91.625817,E Main St
185,35.820432,-91.595067,N Saint Louis
334,35.762506,-91.641212,St Louis Blvd/Myers Ave/Southerland Dr
160,35.716853,-91.756219,Fulbright Rd/Heber Springs Rd
160,35.773487,-91.638176,15th St/Lyon St
246,35.772534,-91.651857,N 4th St/Water St
160,35.778590,-91.655508,Gaston Dr/N Hill St
658,35.776852,-91.640123,E College Ave
160,35.834391,-91.588803,/N Saint Louis
526,35.771464,-91.627360,Neeley St/23rd St
216,35.630968,-91.458445,4th St/Private
185,35.777266,-91.560337,/Morris Ave
185,35.798060,-91.820694,Lyndon Ln
160,35.797447,-91.621621,General St
160,35.533846,-91.609316,Wilf Dr
160,35.748833,-91.601967,Eagle Mountain Blvd/S Ridge Ct
185,35.777168,-91.647239,/Elm St
185,35.772507,-91.645727,S 8th St/E Boswell St
160,35.847899,-91.737290,/N Central Ave
160,35.777003,-91.634528,S 18th St/E College Ave
160,35.636790,-91.504104,/Newport Rd/Maple Springs Access Rd
216,35.769387,-91.726126,Bracy Mountain Dr/Westwood Dr
160,35.794301,-91.666538,Kenneth St/N Central Ave
305,35.773548,-91.640858,Lyon St/S Saint Louis St
185,35.768746,-91.646872,Bates St/Cook St
160,35.777592,-91.680457,Winkle Ln
216,35.619291,-91.655869,Circle R Rd
216,35.794911,-91.611230,Lackey Ln
185,35.767080,-91.617734,Kay St/30th St
160,35.878647,-91.550161,N Saint Louis/Coots Ln
160,35.558582,-91.785484,/Biram Rd
160,35.728421,-91.629370,Allen Chapel Rd/Haynie Dr
160,35.616995,-91.481126,Blackland Rd
160,35.793228,-91.656355,N Heights Ave
185,35.758586,-91.528104,Harris Trl/Park Cove
160,35.687593,-91.552327,Newport Rd
185,35.791311,-91.608778,Barball Ln/White Dr
160,35.735677,-91.633046,Dixie St/Ring Cove
160,35.697067,-91.441676,2nd St E/Maple St
418,35.758905,-91.630206,Bogey St/Goff Dr
246,35.771517,-91.632779,Neeley St/S 19th St
185,35.769401,-91.727621,Bracy Mountain Dr
160,35.777988,-91.679467,Bethesda Rd/Ruddell Hill Cir/W Ross St
160,35.698590,-91.443315,3rd St E/3rd St W/N Main St
631,35.770547,-91.631424,Byers St/20th St
552,35.773084,-91.650928,N 5th St/Water St
276,35.757972,-91.635114,Chaney Dr
334,35.764593,-91.639654,Ems Dr
160,35.772500,-91.635418,Case St/S 17th St
160,35.760192,-91.622409,Jennings Ln/Shade Tree Dr
160,35.629858,-91.463046,Jones St/Main St
160,35.874435,-91.549240,N Saint Louis/Misty Ln
185,35.735564,-91.651211,Luster Dr/Carol Ln
216,35.756501,-91.623879,Chaney Dr
160,35.777190,-91.643721,N 12th St/12th St/Water St/Elm St
762,35.769689,-91.627437,23rd St
160,35.777291,-91.686859,Bethesda Rd/Sutton Ln
160,35.695703,-91.443535,Front/Front St/N Locust St
160,35.939959,-91.747397,Mountain Valley Rd/N Central Ave
160,35.916036,-91.549601,Forest Ln/N Saint Louis
160,35.791958,-91.644440,White Dr
216,35.774532,-91.644226,S 10th St/E College Ave
216,35.720378,-91.617747,Edger Rd
499,35.766548,-91.635678,Hospital Dr/Virginia Dr
160,35.768882,-91.617644,Alice Dr/30th St
160,35.730627,-91.635857,Page Ln
526,35.773663,-91.649909,N 6th St/Water St
185,35.760175,-91.631307,Fairway Dr
160,35.698365,-91.623229,Newport Rd/Batesville Blvd
216,35.882274,-91.751370,Woods Rd/Woops Rd
185,35.703043,-91.448766,Long St/6th St W
246,35.703080,-91.476755,Harrison St/Oak St
185,35.807404,-91.605947,Miller Dr
305,35.773409,-91.630023,21st St/Lyon St
362,35.774500,-91.641009,S 12 St
418,35.769497,-91.628737,22nd St/Harrison St
185,35.796715,-91.632138,Shirrell Ln
276,35.772370,-91.625071,Case St
160,35.728054,-91.629395,Pepsi Cola Rd
160,35.680902,-91.447498,Harrison St
216,35.736087,-91.677084,Lester Rd/Heber Springs Rd
185,35.746760,-91.591575,Mountain Ridge Rd
185,35.767138,-91.659093,/W Main St
305,35.772470,-91.632766,Case St/S 19th St
276,35.758609,-91.631358,Fairway Dr/Goff Dr
216,35.812261,-91.606640,Brewer Hill Rd/Kyle St
160,35.800497,-91.526816,White Dr
305,35.759797,-91.636990,River Rd/
160,35.785416,-91.576531,White Dr/Laramie Rd
276,35.783492,-91.663079,Addie St/Hawkins St
160,35.698249,-91.621868,Newport Rd
216,35.775638,-91.635376,S 17th St/E Boswell St
216,35.776446,-91.622457,E College Ave
216,35.812856,-91.600234,Spring Valley Dr/N Saint Louis
246,35.694183,-91.626899,S Gem St
160,35.769200,-91.653580,S Central Ave/E College Ave/W College Ave
160,35.786178,-91.622207,E Main St
160,35.775915,-91.672878,N Gainer Ferry Rd/W Ross St
185,35.699562,-91.442923,4th St E/W 4th St/N Main St
445,35.770027,-91.641937,Byers St/S 9th St
185,35.696154,-91.626939,N Gem St
160,35.784182,-91.603881,Mill Heights Rd
160,35.777462,-91.679724,Ruddell Hill Cir/Winkle Ln
160,35.811170,-91.495835,White Dr
160,35.872389,-91.549195,/N Saint Louis
185,35.758613,-91.527475,Hadden
160,35.792501,-91.608842,Ashlyn Ln
160,35.736801,-91.656124,Kimberly Ln/Amanda Dr
305,35.768501,-91.628648,22nd St/Fitzhugh St
160,35.788502,-91.655536,White Dr
160,35.857418,-91.749411,N Central Ave
160,35.781425,-91.663163,W Rich St/Addie St
160,35.935672,-91.550262,McCleod/Park Ave
246,35.807717,-91.606566,Miller Dr/E Main St
185,35.704572,-91.439617,E 9th St/N Locust St
185,35.811300,-91.602227,Ashley Dr/N Saint Louis
160,35.761621,-91.624985,Franklin St/Chadwick Dr
160,35.766668,-91.630393,21st St
160,35.936950,-91.746434,/N Central Ave
160,35.859475,-91.559144,N Saint Louis
185,35.767504,-91.555654,Harrison St/Harrison Street Annex
418,35.769495,-91.628650,22nd St/Harrison St
246,35.706972,-91.631358,Jones Dr/Wrcc Ln
684,35.771630,-91.640915,Neeley St/S St Louis St/S Saint Louis St
160,35.788875,-91.652959,White Dr
334,35.770333,-91.645474,S 7th St/Oak St
246,35.534639,-91.611596,Wilf Dr
276,35.770269,-91.655129,Water St
160,35.792361,-91.657726,N Heights Ave
160,35.768384,-91.570540,Cossey St
246,35.770421,-91.608438,Dry Kiln Rd/Harrison St
710,35.772411,-91.627360,Case St/23rd St
160,35.858041,-91.551329,Rocky Top Rd
160,35.772130,-91.620567,Boles St/28th St
160,35.767713,-91.647593,Searcy St/S Broad
185,35.550218,-91.627601,4th St/Westwood St
160,35.700769,-91.451378,A St
160,35.688526,-91.592726,T-Cut Off
185,35.673208,-91.613643,Nelly Belle Ln/Batesville Blvd
185,35.768680,-91.571461,Nance St
160,35.772534,-91.620563,28th St
160,35.772021,-91.804762,Linden Ln
305,35.733127,-91.657076,Heber Springs Rd
160,35.732202,-91.657016,Jasper Ln/Boyd Rd
216,35.532107,-91.637964,Sunny Dale Rd
160,35.700919,-91.452737,Gravel Dr/B St
160,35.813229,-91.490034,Oak Bluff Rd/White Dr/Mount Herman Rd
160,35.589265,-91.761392,Floral Rd
246,35.758370,-91.631341,Fairway Dr/Chaney Dr/Pioneer Dr
246,35.772642,-91.647516,S 7th St/E College Ave
185,35.587078,-91.757320,Wagon Wheel Rd/Big Creek Rd/Floral Rd
160,35.862797,-91.589070,Gum Ln/Cave Creek Rd
160,35.790654,-91.635036,McGuire St/Buckeye St/Buckeye Dr
185,35.769677,-91.643804,Ramsey St/Harrison St
185,35.767871,-91.652425,S Central Ave/E Fowler/W Fowler
160,35.762556,-91.592485,Thunderbird Dr/S Quail Valley Dr/Quail Valley Dr
160,35.734162,-91.627770,Haynie Dr/Campbell Ln
160,35.534680,-91.610020,Wilf Dr
276,35.780168,-91.628082,E Main St
185,35.779330,-91.661933,N State St/W Mark St
160,35.939756,-91.747373,/N Central Ave
160,35.674376,-91.659671,Kyler Rd/Camp Tahkodah Rd
160,35.775808,-91.694707,/Bethesda Rd
160,35.762511,-91.541877,Big Oak Ln
276,35.760061,-91.637136,River Rd
216,35.774411,-91.634077,S 18th St/Porter St
160,35.783922,-91.603154,/Mill Heights Rd
160,35.871232,-91.515236,Darwin Cir
185,35.797466,-91.630172,N Saint Louis St
160,35.726565,-91.635861,Muffler St
160,35.767915,-91.554646,Leggett Ln
362,35.764643,-91.639810,14th St/Ems Dr
160,35.623864,-91.606399,Huff Ln/Batesville Blvd
499,35.777364,-91.640776,/S Saint Louis St
185,35.601789,-91.614556,/Batesville Blvd
305,35.700407,-91.631416,Quail Ln
160,35.783160,-91.624207,E Main St
185,35.758731,-91.494975,N Wilson St
216,35.776973,-91.633232,S 19th St/E College Ave
185,35.771467,-91.630074,Neeley St/21st St
216,35.756553,-91.624186,/Chaney Dr/Pioneer Dr
305,35.770610,-91.638234,15th St/Byers St
160,35.722417,-91.509335,Gap Rd
185,35.769871,-91.692713,Brown Ln
305,35.707967,-91.630134,Bowman Ln/Batesville Blvd
305,35.722556,-91.637084,Harmony House Ln/Batesville Blvd
865,35.769476,-91.627476,23rd St/Harrison St
390,35.771366,-91.622115,Neeley St/Row St
362,35.771394,-91.623277,Neeley St/26th St
276,35.768903,-91.578501,S Goodwin St/Harrison St
185,35.557621,-91.620580,Blackland Rd
160,35.864809,-91.557217,Wilderness Dr
160,35.753035,-91.458416,E Wright St/Shug Rd
185,35.784778,-91.661515,N State St/N State
216,35.788237,-91.588726,Massey Ln/White Dr
160,35.778953,-91.633161,Highland Dr/N 19th St/19th St
362,35.769730,-91.648871,Allen St/Harrison St
185,35.774707,-91.645990,E Main St/S 9th St/N 9th St
216,35.764543,-91.631773,20th St
160,35.870945,-91.547143,Antioch Rd
390,35.774280,-91.640826,S Saint Louis St/S 12 St
160,35.888227,-91.525267,Sunset Ridge/Bishop Ln
160,35.843555,-91.583026,Lesley Hollow Rd/N Saint Louis
160,35.760411,-91.641122,US Hwy 167/St Louis Blvd
160,35.774879,-91.661706,Elsie St/W Ross St
216,35.764588,-91.598193,Oriole St/Gap Rd
160,35.832879,-91.589209,Sweet Gum Rd/Victory Ln/N Saint Louis
160,35.765626,-91.568633,David St
305,35.769975,-91.654252,S Central Ave/E Main St/Central Ave N/W Main St
185,35.693509,-91.444539,/S Main St
160,35.781050,-91.630907,E Main St
246,35.775548,-91.630058,21st St/E Boswell St
160,35.714825,-91.489841,Kari Rd
160,35.772215,-91.656154,E Cherry St/Central Ave N/W Cherry St
160,35.834985,-91.588750,N Saint Louis
246,35.782358,-91.663132,Penrod St/Addie St
216,35.735520,-91.648055,Melissa Ln/Carol Ln
216,35.769688,-91.644914,S 7th St/Harrison St
185,35.776995,-91.634039,S 18th St/E College Ave
160,35.832086,-91.589719,/N Saint Louis
526,35.768561,-91.631471,20th St/Fitzhugh St
160,35.587788,-91.761024,Floral Rd
185,35.781811,-91.655488,Arnold Dr/N Hill St
305,35.766619,-91.652158,S Central Ave/Lawrence St
160,35.768426,-91.652908,S Central Ave/W Boswell St/E Boswell St
334,35.774528,-91.640808,S Saint Louis St/Porter St
160,35.732762,-91.638172,Knight St/Batesville Blvd
552,35.755481,-91.640881,Batesville Blvd
246,35.756373,-91.623238,Chaney Dr/Pioneer Dr
276,35.768900,-91.578397,N Goodwin St/Harrison St
160,35.767963,-91.557676,Harrison St
185,35.816967,-91.596853,Townsend's Rd/N Saint Louis
185,35.732930,-91.669547,Fred St/Heber Springs Rd
160,35.764887,-91.525189,Welch Ln
160,35.784647,-91.661421,Central Ave N/E Craig St/N Central Ave
418,35.757732,-91.635410,River Rd
362,35.776468,-91.608846,Trestle Ct
185,35.753661,-91.542258,Leatherwood Cir
160,35.714431,-91.439108,14th St/14th/N Locust St
185,35.807891,-91.611512,/Valley Ln
185,35.784259,-91.668122,Davis Ln
526,35.769538,-91.631903,Harrison St
246,35.772033,-91.631401,20th St
216,35.756626,-91.640944,US Hwy 167//Batesville Blvd
418,35.787563,-91.641247,N Saint Louis St/Ramada Dr
276,35.789132,-91.662111,Warrior Rd/N Central Ave
160,35.768448,-91.570514,Nance St/Cossey St
185,35.769685,-91.644636,Neeley St/Harrison St
160,35.763426,-91.632264,20th St
160,35.792612,-91.609890,Reed Wade Rd
185,35.758555,-91.527537,Harris Trl/Hadden
185,35.727956,-91.635823,Muffler St
276,35.756403,-91.612846,Aberdeen Cir
185,35.760686,-91.622402,Jennings Ln
216,35.720388,-91.618531,Edger Rd
160,35.757249,-91.512353,Harrison St/W Broadway
160,35.695600,-91.443577,N Locust St
276,35.766809,-91.653318,S State St/Lawrence St
160,35.781350,-91.660532,W Rich St/E Rich St/Central Ave N
160,35.795614,-91.621651,General St
160,35.697226,-91.445142,S Oak St
276,35.769545,-91.632793,Hospital Cir/Harrison St
216,35.557583,-91.621767,Blackland Rd/Batesville Blvd
185,35.689094,-91.623713,Tanya Trl/Angela Trl
160,35.730693,-91.676708,Park St/Taylor St
160,35.586041,-91.509036,/Blackland Rd
160,35.757657,-91.622463,Jennings Ln
185,35.786054,-91.665538,Jean St
216,35.691517,-91.623605,Angela Trl
160,35.782893,-91.666909,Hawkins St
160,35.779297,-91.660601,E Mark St/W Mark St/Central Ave N
185,35.791190,-91.637678,N Saint Louis St/Buckeye St
160,35.780877,-91.626010,E Main St
390,35.769726,-91.648486,Harrison St/S 5th St
276,35.774220,-91.648895,Water St/N 7th St
160,35.765121,-91.569463,Paul St
185,35.767591,-91.638297,15th St/S Broad
160,35.612230,-91.369260,Newport Rd/Pear Ln
160,35.890866,-91.555267,Rim Rock Rd/N Saint Louis
160,35.791228,-91.594039,Reed Wade Rd/White Dr/Harry Rd
246,35.585504,-91.739201,Thompson Dr/Floral Rd
216,35.770543,-91.634797,Moore St/Byers St
216,35.550189,-91.626479,Main St/Westwood St
160,35.587844,-91.761681,Floral Rd/Peach Orchard Rd
334,35.707808,-91.630066,/Batesville Blvd
185,35.721385,-91.618673,Edger Rd
185,35.768711,-91.644844,Bates St/Long St
160,35.779875,-91.632964,Park St/N 19th St
185,35.784204,-91.722765,Bethesda Rd
276,35.773060,-91.622096,Row St
185,35.697723,-91.622640,Newport Rd/Camp Tahkodah Rd/Batesville Blvd
216,35.762733,-91.620496,Cedar Dr/Dogwood Dr E
160,35.726749,-91.669894,Fred St/Carlile St
185,35.758823,-91.627262,Douglas St/Goff Dr
160,35.722979,-91.524901,Futurefuel Rd
160,35.733308,-91.650001,Jill Cir
160,35.812309,-91.566565,Bearclaw Rd/Rosewood Rd
160,35.784566,-91.661406,Central Ave N
216,35.780059,-91.658102,Arch St/E Morrow
334,35.762173,-91.638519,River Rd/Chaney Dr
160,35.772496,-91.636786,Case St/16th St
276,35.674457,-91.532759,Wyatt Ln/Bend Rd
160,35.807441,-91.689998,N Central Ave
390,35.774084,-91.640836,Vine St/S Saint Louis St
246,35.771710,-91.645017,S 8th St/Vine St
185,35.653985,-91.605458,Audubon St/Batesville Blvd
445,35.768659,-91.642293,Bates St/S Slater St
499,35.765573,-91.641140,Grays Ave/S Saint Louis St
185,35.772828,-91.655062,E Cherry St/Bayou St
185,35.792034,-91.594004,/Reed Wade Rd
160,35.789609,-91.621720,E Main St/Forestry Ln
710,35.769639,-91.640956,S Saint Louis St/Harrison St
185,35.631507,-91.460694,Moore St/2nd St
334,35.769443,-91.622721,Tanglewood Dr/Bryant St
160,35.698394,-91.622180,Newport Rd/Flag Ln
246,35.768949,-91.597947,Harrison St/Redbird Dr/Big Pine Rd
472,35.777352,-91.641293,/E Main St/Ball
160,35.827155,-91.611622,Cave Creek Rd
390,35.757839,-91.635368,River Rd/Riverbank Rd
160,35.588029,-91.758197,Bowren Dr
658,35.778856,-91.626371,Highland Rd
216,35.758334,-91.607247,Oak Ridge Cv
305,35.771418,-91.624681,Neeley St/25th St
160,35.865053,-91.557206,Wilderness Dr/Davidson Ln
185,35.756292,-91.605783,Dundee Cv
185,35.704095,-91.621754,T&j Circle Dr
472,35.765193,-91.641159,St Louis Blvd/S Saint Louis St/S St Louis
160,35.765802,-91.659514,W College Ave
160,35.688921,-91.593036,Bull-Cut-Off/Rock Bridge Rd
160,35.865053,-91.557386,Davidson Ln
276,35.627112,-91.461910,Shelly St/Nelse St
276,35.765558,-91.639742,14th St/Grays Ave
246,35.772150,-91.622115,Boles St/Row St
160,35.764527,-91.637567,Ems Dr/Sidney St
216,35.737971,-91.647953,Melissa Ln/Lindsay Cir
216,35.768696,-91.644004,Bates St/Ramsey St
160,35.702105,-91.483550,Waldrip Rd
160,35.824140,-91.596448,/Cave Creek Rd
160,35.797710,-91.544228,White Dr
185,35.674457,-91.532444,Bend Rd
160,35.789372,-91.652045,/White Dr
160,35.761447,-91.621613,Juniper Dr
160,35.935137,-91.539378,W Jaret Ln
160,35.773722,-91.643558,S 10th St/E Boswell St
160,35.781252,-91.641412,N Saint Louis St
160,35.768766,-91.571859,Mack St
160,35.533826,-91.611616,Wilf Dr
246,35.702352,-91.445643,6th St W/N Hill St
216,35.767668,-91.644888,Long St/S Broad
160,35.786204,-91.659847,Carol St
160,35.765420,-91.569463,Paul St
276,35.791817,-91.637066,N Saint Louis St/White Dr
160,35.631712,-91.462987,Main St
276,35.774437,-91.635399,S 17th St/Porter St
185,35.762433,-91.621761,Cedar Dr/Dogwood Dr
160,35.793105,-91.618687,la Croix Dr
579,35.769416,-91.624679,Harrison St/25th St
160,35.728664,-91.415606,Cord Rd
160,35.720827,-91.476980,Hughes Ln/Cleghorn Chapel Rd
605,35.769611,-91.636901,Harrison St/16th St
160,35.672054,-91.600031,Nelly Belle Ln
160,35.787652,-91.576299,Laramie Rd
276,35.761942,-91.638321,River Rd/Cottonwood St
185,35.902662,-91.555006,N Saint Louis
185,35.772061,-91.804269,Linden Ln
185,35.755293,-91.612875,Aberdeen Cir
160,35.695928,-91.625490,Bobbye Ln/Camp Tahkodah Rd
160,35.769885,-91.617625,Bluff View Dr/30th St
160,35.757107,-91.603760,Eagle Mountain Blvd/Iona Way
160,35.770806,-91.642644,Neeley St/S 9th St
185,35.741325,-91.707497,/Heber Springs Rd
160,35.759871,-91.626551,Edward Dr/Janetta St
216,35.767583,-91.630150,21st St/Reynolds St
160,35.777070,-91.688428,Brashears Ln
160,35.939287,-91.747268,/N Central Ave
160,35.775743,-91.636927,Sydney/E Boswell St/16th St
160,35.865053,-91.557231,Davidson Ln
160,35.762139,-91.645866,Southerland Dr/Ramsey St/Stadium Dr
160,35.760471,-91.612534,Eagle Mountain Dr
246,35.758393,-91.641031,US Hwy 167/Batesville Blvd
185,35.699121,-91.622845,Dairy Bar Rd
160,35.737262,-91.636110,Allen Chapel Rd/Ring Cove
160,35.730460,-91.631003,Billie Jean Dr/Allen Chapel Rd
185,35.771120,-91.595534,Big Pine Rd
185,35.800542,-91.666179,Leslie Cir
185,35.714833,-91.490550,Lindsey Ln/Harrison St/Kari Rd
472,35.769540,-91.632161,Harrison St
160,35.740172,-91.642928,/Triangle Ln
160,35.533811,-91.610163,Wilf Dr
185,35.778771,-91.641237,Marywood Dr/Ball
334,35.766703,-91.644953,Long St/Lawrence St
160,35.785948,-91.643001,Furniture Ln
185,35.807807,-91.611554,/N Saint Louis St
160,35.871291,-91.754952,S 2nd St
216,35.756077,-91.611730,Aberdeen Dr/Cruz Ct
160,35.555976,-91.626428,Main St/Roberson Dr
246,35.935841,-91.553607,McCleod
362,35.774373,-91.631391,20th St/Porter St
160,35.692716,-91.618890,Linda Dr/Batesville Blvd
185,35.862444,-91.750346,Boutwell Ln
160,35.759789,-91.518711,Harrison St/W Broadway
185,35.775338,-91.644911,S 10th St/N 10th St/E Main St
160,35.752871,-91.556726,Wolford Ln/Storey Ln
246,35.775143,-91.643146,E College Ave/S 11th St
185,35.808166,-91.608783,N Saint Louis St
160,35.769954,-91.655819,N State St/Water St
185,35.770495,-91.617585,Wildwood Cove/30th St
160,35.768251,-91.558363,Morgan Rd
160,35.830375,-91.734755,Punch Ln
185,35.726893,-91.635854,Raye St/Muffler St
160,35.699307,-91.442071,4th St E/N Locust St
160,35.681993,-91.391298,Paraquett Rd
160,35.831220,-91.734406,N Central Ave
276,35.759385,-91.631320,Fairway Dr/Slyvia St
160,35.762235,-91.632979,Pioneer Dr/20th St
362,35.774388,-91.632712,S 19th St/Porter St
658,35.770602,-91.640949,Byers St/S St Louis St/S Saint Louis St
246,35.859934,-91.569845,Tamera Ln/Weaver Chapel Rd
305,35.791736,-91.633939,White Dr
160,35.759885,-91.627735,Betty Jean St/Lee St
185,35.700214,-91.441709,Akron Cir/N Locust St
160,35.809739,-91.604118,Miller Dr/N Saint Louis St
185,35.806035,-91.608603,E Main St
631,35.772372,-91.626012,Case St/24th St
605,35.764757,-91.617527,Harrison St
185,35.798928,-91.666920,Denny Cir
160,35.764885,-91.569215,Paul St
246,35.769666,-91.642262,Harrison St/S Slater St
160,35.775287,-91.613734,Willow St/Bluff View Dr
160,35.706649,-91.445852,W 10th St/Morgan St
445,35.773418,-91.632707,S 19th St/Lyon St
160,35.835545,-91.588677,/N Saint Louis
185,35.739445,-91.654741,Kimberly Ln/Ponderosa Dr
160,35.769497,-91.609637,Sawmill Rd/Harrison St
185,35.797499,-91.557748,Indian Springs Rd/White Dr
160,35.726804,-91.787628,Mountain View Rd
160,35.759680,-91.607543,Eagle Mountain Dr/Lake Oak Dr
865,35.768634,-91.640993,Bates St/S Saint Louis St
185,35.774572,-91.658189,Central Ave N/W Carter St/E Carter St
160,35.767889,-91.614336,Debra St/Amy St
216,35.770549,-91.635459,Byers St/S 17th St
160,35.702405,-91.449423,Long St
160,35.787640,-91.576088,Carma Dr
216,35.770540,-91.634549,Byers St
160,35.811570,-91.597030,/Stacey Dr
185,35.722157,-91.491536,State Hwy 394/Gap Rd
305,35.766507,-91.612334,Harrison St
160,35.690850,-91.595657,Calvary Rd/Rock Bridge Rd
160,35.797090,-91.670872,Bubba Ln/N Central Ave
334,35.798759,-91.664514,Melton Dr
185,35.547698,-91.626533,/Main St
160,35.717429,-91.661101,Brushy Rd/Rick Rd
160,35.762305,-91.632966,Myers Ave/20th St
160,35.795029,-91.663847,James St/Chester St
160,35.776143,-91.621968,Ridgecrest Dr
160,35.815643,-91.593001,Louise Cir
216,35.628845,-91.463144,Main St/Rose Ln/W Main St
185,35.792259,-91.665598,N Central Ave
160,35.681096,-91.448013,Harrison St
160,35.787444,-91.660760,Hatfield Dr
216,35.701735,-91.447173,W 5th St/Morgan St
246,35.773127,-91.644607,S 9th St/E Boswell St
185,35.703287,-91.445262,W 7th St/N Hill St
160,35.785397,-91.576177,White Dr
160,35.703471,-91.487911,Waldrip Rd/Ferrel St
160,35.732049,-91.651312,Luster Dr/Boyd Rd
216,35.823893,-91.591232,Pfeiffer Rd
216,35.867748,-91.557363,Wilderness Dr/Running Deer
160,35.768789,-91.648895,Bates St/Allen St
160,35.628353,-91.605236,Batesville Blvd
362,35.768494,-91.630104,21st St/Fitzhugh St
185,35.760954,-91.631422,Fairway Dr
160,35.768094,-91.570657,Harrison St/Cossey St
160,35.647305,-91.510942,Newport Rd/Will H Wyatt Rd
160,35.759475,-91.605767,Eagle Mountain Blvd/
276,35.773553,-91.641818,Vine St/S 11th St
185,35.756717,-91.606264,Dundee Cv/Iona Way
160,35.733929,-91.632971,Allen Chapel Rd
160,35.698021,-91.441292,3rd St E/Maple St/Maple
185,35.596756,-91.615665,Lynn Dale Dr/Batesville Blvd
185,35.764558,-91.638412,15th St/Ems Dr
305,35.758655,-91.636329,River Rd/Chaney Dr
185,35.717700,-91.670051,Brushy Rd
276,35.767604,-91.629346,Reynolds St
160,35.875046,-91.553618,Pleasant Hills Rd/Beller Lake Ln
216,35.785982,-91.663680,Jean St
160,35.806813,-91.613966,N Saint Louis St
160,35.787426,-91.661463,Meadowlark St/Central Ave N
160,35.778006,-91.635891,Maple St/McCaleb St
160,35.772680,-91.616002,Josephine Dr/Barbara Dr
216,35.703010,-91.476055,Harrison St
631,35.768827,-91.631462,/20th St
160,35.694712,-91.443918,Lower Front St/N Locust St
160,35.704709,-91.632473,Wrcc Ln
160,35.762298,-91.619563,Dogwood Dr E
160,35.807942,-91.691309,N Central Ave
160,35.789691,-91.621716,E Main St/Forestry Rd
390,35.771417,-91.641543,Neeley St/S 10th St
160,35.801232,-91.353383,Otter Lake Rd/Cord Rd/Anderson Hill Rd
276,35.766606,-91.638336,15th St/Lawrence St
185,35.938130,-91.549280,W South St
160,35.769701,-91.610089,Sawmill Rd
160,35.713995,-91.606384,Sherrill Dr/Richardson Rd
185,35.535209,-91.617010,Transport Ln/Batesville Blvd
160,35.861143,-91.556648,Wilderness Dr/N Saint Louis
185,35.795028,-91.634561,Shirrell Ln/Industrial Dr
185,35.767263,-91.653515,State St/W Fowler/S State St
185,35.737503,-91.640105,Runway Rd/Heber Springs Rd
362,35.776801,-91.627283,23rd St/E College Ave
160,35.739698,-91.651758,Simpson Rd/Heber Springs Rd
160,35.786945,-91.661477,/Central Ave N
472,35.771442,-91.626233,Neeley St
160,35.703624,-91.446381,W 7th St/Morgan St
160,35.858495,-91.586836,Ash Ln
362,35.714248,-91.633722,Southfork Rd/Batesville Blvd
160,35.742152,-91.648960,Kolony Dr/Chamblee Cir
216,35.697623,-91.443719,2nd St W/2nd St E/N Main St
334,35.771123,-91.652271,N 3rd St/S 3rd St/E Main St
499,35.773413,-91.626832,Lyon St
160,35.837374,-91.587772,N Saint Louis
160,35.777308,-91.679773,Ruddell Hill Cir
185,35.694091,-91.444058,State Hwy 69/N Locust St
160,35.776303,-91.661291,N State St/W Baker St
526,35.777890,-91.628684,22nd St/Maple St
160,35.771328,-91.617624,/Neeley St
305,35.628061,-91.463134,Rose Ln/Charles St
160,35.759245,-91.498408,Rockwood Dr
276,35.768652,-91.632794,Hospital Dr/Hospital Cir
160,35.573265,-91.619282,Main St/Batesville Blvd
160,35.775501,-91.660609,N State St/W Ross St
185,35.722151,-91.491036,State Hwy 394/Harrison St
658,35.769630,-91.638257,15th St/Harrison St
185,35.776395,-91.647500,/N 9th St
160,35.718913,-91.621047,Monoply
216,35.823954,-91.593238,Pfeiffer Rd/N Saint Louis/Cave Creek Rd
160,35.681625,-91.672769,Baker School Rd
160,35.739401,-91.652242,Ponderosa Dr/Heber Springs Rd
160,35.533841,-91.612151,Wilf Dr
160,35.811104,-91.496002,White Dr
160,35.767604,-91.639731,14th St/S Broad
160,35.708069,-91.440708,W 11th St/N Oak St
160,35.777045,-91.648031,N 9th St/Elm St
160,35.765361,-91.569394,Paul St
472,35.772248,-91.650305,N 5th St/E Main St/S 5th St
185,35.766536,-91.660244,W Main St
160,35.841980,-91.735495,/N Central Ave
334,35.761709,-91.627600,Franklin St/Betty Jean St
160,35.833040,-91.589126,N Saint Louis
305,35.771499,-91.631402,Neeley St/20th St
305,35.761693,-91.626475,Franklin St/Janetta St
216,35.629067,-91.463089,Main St/South St
185,35.783539,-91.659171,N Heights Ave/King St
160,35.765514,-91.637248,Grays Ave/Sidney St
216,35.630742,-91.458462,4th St/Center St
185,35.767569,-91.636990,16th St/S Broad
185,35.769670,-91.643263,S 8th St/Harrison St
160,35.813686,-91.504103,Nothern Ln
160,35.592930,-91.614572,/Batesville Blvd
185,35.721112,-91.637096,Luscombe Ln/Batesville Blvd
216,35.758374,-91.495612,N Wilson St
160,35.855595,-91.567851,N Saint Louis/Weaver Chapel Rd
305,35.768444,-91.628651,22nd St
160,35.695278,-91.443706,N Locust St
246,35.937920,-91.541540,South
865,35.769478,-91.627617,Harrison St
276,35.774422,-91.650468,N 6th St/Rock St
276,35.771439,-91.649620,E College Ave/S 5th St
160,35.870887,-91.753950,N Central Ave
362,35.759206,-91.636648,River Rd//Chaney Dr
216,35.759750,-91.606727,Eagle Mountain Dr/Eagle Mountain Blvd/Woodmont Cir
185,35.626268,-91.540569,Private
526,35.764812,-91.617876,Harrison St/30th St
160,35.938133,-91.549855,W South St/Park Ave
160,35.805844,-91.603144,Miller Dr
160,35.749179,-91.602238,S Ridge Ct
418,35.771438,-91.626023,Neeley St/24th St
185,35.873683,-91.549094,N Saint Louis
160,35.791271,-91.648636,N Park Rd/White Dr
788,35.770435,-91.626035,Byers St/24th St
185,35.718855,-91.621080,Monoply
160,35.736758,-91.647997,Melissa Ln/Helen Cir
160,35.817272,-91.714363,/N Central Ave
160,35.703510,-91.627962,Hardin Ln/Jmi Ln/Batesville Blvd
160,35.712678,-91.489766,Harrison St
160,35.705535,-91.445923,W 9th St/Morgan St
160,35.739324,-91.647907,Melissa Ln/Atchison Pl
216,35.775748,-91.642060,S 12th St/E College Ave
390,35.771369,-91.622296,Neeley St
160,35.805962,-91.608693,E Main St
276,35.771880,-91.646851,S 7th St/E Boswell St
160,35.736842,-91.654293,Carol Ln/Heber Springs Rd
160,35.758756,-91.624526,Goff Dr
160,35.725251,-91.682253,McGuire St/Hulsey St
216,35.772846,-91.623330,26th St
305,35.766692,-91.644513,Ramsey St/Lawrence St
160,35.806814,-91.598354,Mt Zion Ln
362,35.774362,-91.629740,Porter St
160,35.827757,-91.497594,Lucky Ln
160,35.728490,-91.654857,Runway Rd
160,35.718951,-91.620753,Monoply
305,35.772369,-91.624675,Case St/25th St
160,35.696087,-91.789827,Sparks Ln/Radio Tower Rd
160,35.795076,-91.619240,Lawson Dr
160,35.716643,-91.612859,Williford Rd
185,35.767051,-91.659293,Walnut St/W Main St
305,35.770396,-91.623295,Byers St/26th St
305,35.776135,-91.659530,Central Ave N/E Ross St/W Ross St
276,35.778292,-91.641255,12th St/Ball
160,35.783201,-91.642272,N Saint Louis St
185,35.773410,-91.628683,22nd St/Lyon St
160,35.614281,-91.409017,Roy Ln/Six Mile Ln
246,35.766733,-91.650577,River Rd/Lawrence St
160,35.630711,-91.460724,2nd St/Center St
216,35.781389,-91.661652,W Rich St/N State St
160,35.807438,-91.690142,Hillcrest Ln
160,35.759391,-91.541578,Leatherwood Cir
246,35.784036,-91.667118,Dari Dr
276,35.790346,-91.638506,N Saint Louis St/Ramada Dr
526,35.778884,-91.628715,22nd St/Highland Rd
185,35.763480,-91.621167,Cedar Dr//Dogwood E
160,35.764779,-91.590602,Mockingbird St
390,35.739683,-91.639353,Triangle Ln
160,35.763549,-91.598028,Robin St/Gap Rd
160,35.786866,-91.750750,/Bethesda Rd
185,35.702983,-91.449185,Long St/6th St W
276,35.714680,-91.634048,Batesville Blvd
185,35.776201,-91.617888,Ridgecrest Dr/Bluff View Dr
552,35.770400,-91.624676,Byers St/25th St
185,35.766133,-91.615804,Peggy St/Anna St
160,35.742358,-91.649065,Kolony Dr
160,35.779814,-91.786129,Earnheart Rd/Gill Rd
160,35.763905,-91.631973,20th St
160,35.777383,-91.659389,N Heights Ave/Bayou St/E Baker St
160,35.721247,-91.491041,Harrison St
185,35.766182,-91.617789,Peggy St/30th St
160,35.702974,-91.444151,W 7th St/College St
160,35.777560,-91.680260,Winkle Ln
185,35.734873,-91.646570,Chamblee
334,35.766629,-91.642358,S Slater St/Lawrence St
160,35.577559,-91.725612,Floral Rd/Camp Tahkodah Rd/Cedar Grove Rd
160,35.796702,-91.663776,James St/Francis St
160,35.765987,-91.597314,Mockingbird St/Redbird Dr
334,35.775508,-91.628667,22nd St/E Boswell St
160,35.762392,-91.775161,Earnheart Rd/Chinquapin Loop
160,35.630656,-91.463010,Main St/Center St
334,35.762241,-91.634794,Myers Ave
246,35.758833,-91.607520,Oak Ridge Cv/Lake Oak Dr
334,35.766623,-91.631559,/20th St
276,35.759914,-91.630124,Bogey St
160,35.714857,-91.491006,Lindsey Ln
216,35.744076,-91.442147,N Hill St/Shug Rd
160,35.823841,-91.575215,Pfeiffer Rd
160,35.723772,-91.524851,Futurefuel Rd
185,35.768344,-91.571724,Ottinger St/Harrison St
160,35.700890,-91.451372,Gravel St/A St/Gravel Dr
216,35.631543,-91.458430,4th St/Moore St
185,35.703993,-91.487772,Ferrel St
472,35.938030,-91.547584,W South St/South/Main
185,35.874972,-91.549353,N Saint Louis/Beller Lake Ln
472,35.776750,-91.626245,/E College Ave
160,35.796804,-91.666271,Francis St/Melton Dr
160,35.793089,-91.621520,E Main St/la Croix Dr
160,35.779261,-91.655512,N Hill St
246,35.703043,-91.476756,Brittany St/Harrison St
160,35.855354,-91.568475,N Saint Louis
160,35.751522,-91.461159,/E Wright St
418,35.769855,-91.648268,Vine St/S 5 St/S 5th St
216,35.758824,-91.608618,Oak Meadow Cove/Oak Meadow Cv
160,35.797654,-91.664746,James St/Melton Dr
160,35.807751,-91.690588,N Central Ave
160,35.720394,-91.618998,Edger Rd/Sky View St
160,35.778735,-91.712861,Bethesda Rd/Buck Ln
160,35.777509,-91.680052,Winkle Ln
160,35.761724,-91.622400,Jennings Ln/Juniper Dr
160,35.770202,-91.643717,S 8th St/Neeley St
305,35.739985,-91.638394,Triangle Ln/Batesville Blvd
160,35.797650,-91.664507,James St
246,35.762261,-91.636762,Myers Ave
216,35.759373,-91.627250,Douglas St
160,35.776161,-91.673550,Robin Ln/W Ross St
160,35.778016,-91.620293,Crestview Dr/Bluff View Dr
160,35.697009,-91.445227,1st St W/S Oak St
362,35.547658,-91.623968,Stadium Dr
185,35.767197,-91.659380,/W Main St
526,35.769295,-91.623980,Bryant St/Harrison St
160,35.863117,-91.750754,/N Central Ave
362,35.758589,-91.636266,River Rd
160,35.871293,-91.754848,Cush St
160,35.753533,-91.498319,E Broadway/N College St
334,35.769642,-91.639620,14th St/Harrison St
216,35.773006,-91.656827,W Charles St/Central Ave N/E Charles St
160,35.934502,-91.550456,Park Ave/Hill Dr
160,35.758595,-91.515207,W Broadway
160,35.714493,-91.445175,14th St
246,35.734561,-91.651248,Kelli Cv/Luster Dr
305,35.773442,-91.648199,S 7th St/E Main St/N 7th St
246,35.772365,-91.623312,Case St/26th St
185,35.708933,-91.474854,Sheley Ln
246,35.777974,-91.634529,S 18th St/Maple St
216,35.742946,-91.639632,Batesville Blvd
185,35.763204,-91.612367,Eagle Mountain Dr/Woodmont Cir
160,35.731257,-91.635823,Rising Fast Rd
160,35.768495,-91.651317,Broad St/E Fowler/S Broad
305,35.765405,-91.613101,Harrison St
185,35.762292,-91.633765,Myers Ave
160,35.797592,-91.549951,/White Dr
185,35.750202,-91.602151,Meadow Wood/S Ridge Ct
160,35.703497,-91.488216,Waldrip Rd
185,35.849480,-91.574637,N St Louis
160,35.765781,-91.786771,/Dowell Ln
160,35.760731,-91.626511,Rosa St/Janetta St
579,35.772887,-91.626001,24th St
160,35.755737,-91.612184,Aberdeen Cir
160,35.631635,-91.462986,Main St
160,35.771586,-91.638200,Neeley St/15th St
276,35.775297,-91.640788,E Boswell St/S Saint Louis St
160,35.788438,-91.589296,White Dr
160,35.772484,-91.634071,Case St/S 18th St
216,35.717197,-91.635959,Community Dr/Batesville Blvd
276,35.706974,-91.630828,Jones Dr
160,35.704246,-91.439619,W 9th St/N Locust St
499,35.764978,-91.620217,Dogwood Dr/Lakewood Ct
185,35.703090,-91.477399,Harrison St
160,35.701897,-91.449621,Long St/Village St
160,35.780292,-91.626710,E Main St/Mill Heights Rd
216,35.766175,-91.617356,Peggy St
216,35.737872,-91.639937,Runaway Rd
