Estimated daily crossings,Latitude,Longitude,Name
943,36.625380,-88.331697,Battlefield Dr
216,36.500591,-88.327097,Ally
160,36.740048,-88.293179,Lane St/Elm St
418,36.612688,-88.304449,N 6th St/Olive St
160,36.594295,-88.333629,Plainview Dr/S 18th St
5197,36.612368,-88.321812,Olive Blvd/N 15th St
1123,36.625965,-88.318511,Lowes Dr
334,36.503922,-88.325842,Old Main St/Main St
185,36.633988,-88.307520,Globemaster/Fleetwood Cir
160,36.588393,-88.328938,Wiswell Rd W/Martin Chapel Rd
390,36.614985,-88.327082,Calloway Ave/Kentucky Ave
1982,36.630483,-88.334561,Princeton Dr/Welch Dr
216,36.734040,-88.296380,Fern Ln/Toskana Dr
246,36.634823,-88.319492,Connor Dr
390,36.614281,-88.301186,N 3rd St/Ray Coursey Jr Dr/Spruce St
246,36.612621,-88.310626,Olive St/N 9th St
246,36.584073,-88.328798,Tabard Dr
160,36.588063,-88.323397,Oxford Dr/Cs-1191
185,36.599967,-88.312085,Story Ave
276,36.588946,-88.318657,Roberson St
160,36.594024,-88.321044,Kirkwood Dr/Glendale Rd
185,36.612614,-88.311831,N 10th St/Olive St
185,36.594574,-88.337506,Westgate Dr
160,36.585319,-88.347465,Falwell Dr
276,36.645802,-88.324241,N 16th St/Poor Farm Rd
160,36.651009,-88.271870,State Hwy 80/Bethel Rd
891,36.606952,-88.315216,S 12th St/Elm St
160,36.587410,-88.325203,Coach Estates Dr
216,36.729796,-88.299484,US Hwy 641
160,36.511695,-88.326100,US Hwy 641
160,36.698425,-88.373528,Kirksey Almo Rd
246,36.610092,-88.296280,Industrial Rd/Maple St
1929,36.613123,-88.326330,/Hamilton Ave
160,36.736257,-88.123332,Lance Rd
160,36.652903,-88.351732,State Hwy 80/Graham Rd
445,36.602704,-88.305132,Sycamore St/Lafollette Dr
579,36.634327,-88.322317,/Diuguid Dr
185,36.645614,-88.190656,Turner Rd/Irvin Cobb Rd
216,36.734054,-88.296671,Toskana Dr
160,36.578451,-88.342177,Gibbs Store Rd
216,36.742620,-88.299034,US Hwy 641/Roosevelt Rd
3419,36.610732,-88.322998,University Dr
1123,36.611000,-88.319969,Hughes St/N 14th St
1824,36.610571,-88.315225,N 12th St/S 12th St/Main St
160,36.549245,-88.442933,Rayburn Rd/Humphrey Rd
246,36.645805,-88.323488,Poor Farm Rd
160,36.646826,-88.360509,Indian Trl/Poor Farm Rd/Airport Rd
160,36.526971,-88.325277,US Hwy 641
185,36.652208,-88.387792,State Hwy 80/Peach Orchard Rd
216,36.601574,-88.298216,Shelter Ln
160,36.584893,-88.328888,Martin Chapel Rd
246,36.612774,-88.299515,N Lp Miller St
185,36.606939,-88.356328,Stonegate Dr/Belle Meade Dr
160,36.501909,-88.321443,Gilbert St E/1st St
246,36.591545,-88.323630,Clayshire Dr/Belmont Dr
185,36.614319,-88.296461,Spruce St
246,36.611991,-88.332154,N 18th St/Lincoln Ave
445,36.616392,-88.300211,N Cherry St/Ash St
185,36.620708,-88.304977,Cs-1261/Cs-1262
160,36.592122,-88.302178,S 4th St/Ky-121
160,36.655556,-88.483062,Bendefield Ln
362,36.614301,-88.300315,N Cherry St/Spruce St
216,36.655833,-88.423100,State Hwy 80
185,36.619020,-88.308283,Cs-1279/Cs-1274
526,36.604185,-88.328763,Sunset Dr
305,36.599329,-88.331630,Johnson Blvd/Minerva Pl
1097,36.608505,-88.315220,Poplar St/S 12th St
160,36.642893,-88.303414,Melvin Henley Dr
185,36.583878,-88.357131,Angelia Dr/Paul Bradley Dr
276,36.620373,-88.334112,N 20th St
276,36.587713,-88.319277,Spring Hill Ct
605,36.604661,-88.315212,S 12th St/Mulberry St
6763,36.619034,-88.321445,Ic-8101G/N 15th St
605,36.598356,-88.315271,Circarama Dr/S 12th St
160,36.659002,-88.396237,Alex Forks Dr
185,36.596500,-88.307923,Goodman St/Guthrie Dr
160,36.584224,-88.322643,Beckett Dr/Tabard Dr
3280,36.617007,-88.316206,N 13th St/Chestnut St
472,36.602890,-88.316529,S 13th St/Sycamore St
216,36.597396,-88.329093,Magnolia Dr/S 17th St
160,36.690547,-88.254083,Duncan Trl
160,36.658884,-88.486718,State Hwy 121
160,36.619853,-88.351763,Robertson Rd N
216,36.611314,-88.318277,Farris Ave
216,36.595109,-88.310634,S 9th St
3475,36.617044,-88.324722,Coldwater Rd
160,36.592669,-88.424347,State Hwy 94/J W Williams Ln/Lawrence Rd
5881,36.615126,-88.318555,Ic-8101J/Payne St
1459,36.613863,-88.316611,N 13th St/Wells Blvd
160,36.675933,-88.361064,Coles Campground Rd
160,36.693680,-88.277713,1st St/Almo Rd
160,36.606660,-88.297431,Old Concord Rd
390,36.630443,-88.324428,Campus Suits Blvd
185,36.657144,-88.440752,State Hwy 80
185,36.640453,-88.396586,State Hwy 121/Kirksey Rd
160,36.614357,-88.333919,Oakdale Dr/Monroe Ave
160,36.608638,-88.487751,Burnetts Chapel Rd
160,36.581046,-88.314794,US Hwy 641
160,36.593598,-88.148560,Mazurek Cir
185,36.656936,-88.438752,State Hwy 80/Cook Store Trl
788,36.612402,-88.319976,Olive Blvd/N 14th St
185,36.598453,-88.309162,Fairlane Dr/Bagwell Blvd
160,36.596930,-88.310616,S 9th St/Goodman St
185,36.607359,-88.346962,Carolwood Way
917,36.626116,-88.333045,General Jackson Dr/Gettysburg Dr
216,36.657876,-88.306094,Bison Ln
246,36.502319,-88.326637,Ally/Center St
1174,36.602847,-88.315211,S 12th St/Sycamore St
160,36.728510,-88.153673,State Hwy 94
185,36.529106,-88.237012,Christian Ln/New Providence Rd
3197,36.610993,-88.321816,N 15th St/Hughes St
1329,36.605581,-88.313028,Vine St/S 11th St
216,36.600081,-88.319723,Sunny Ln/Story Ave
160,36.654355,-88.317618,State Hwy 80/Oppurtunity Dr
216,36.692924,-88.303270,US Hwy 641
305,36.595529,-88.309217,Bagwell Blvd/Glendale Rd/Bagwell Dr
160,36.609792,-88.338393,Jameswood Dr/Glenwood Dr
418,36.616381,-88.302121,Ash St/N 4th St
160,36.563138,-88.319421,US Hwy 641
160,36.638480,-88.228066,State Hwy 94
160,36.617350,-88.337499,College Farm Rd
185,36.589073,-88.324398,S 16th St/Ky-1550
499,36.624438,-88.333497,Bailey Rd
1071,36.605531,-88.315214,Vine St/S 12th St
185,36.583312,-88.343796,Knightsway Dr/Merlin Dr
390,36.635505,-88.316069,Crystal Brook Ln/Bourland Ln
185,36.504644,-88.082803,Willow Cir
216,36.584332,-88.350967,Wiswell Rd W
362,36.596042,-88.337547,Gatesborough Cir/Westgate Dr
160,36.598550,-88.326370,The Lane
305,36.611620,-88.311850,Walnut St/N 10th St
160,36.598136,-88.313197,Circarama Dr/Fairlane Dr
185,36.580568,-88.339360,Country Rd/Villa Square Dr
160,36.576812,-88.313987,/Brandon Ln
552,36.619419,-88.327124,/Parks St
246,36.582349,-88.321842,Beckett Dr/London Dr
160,36.585849,-88.337990,Oak Hill Dr S/Wiswell Rd W
216,36.595280,-88.324322,Kirkwood Dr/S 16th St
605,36.624791,-88.332957,Logan Dr/Kathy Dr
160,36.617385,-88.276515,Maplewood Cir/State Hwy 94
216,36.616938,-88.277278,State Hwy 94/Knight Rd
160,36.550817,-88.324210,US Hwy 641
305,36.617386,-88.338120,College Farm Rd
418,36.617463,-88.300109,N Cherry St/Chestnut St
160,36.584073,-88.360566,Chickory Dr/Wiswell Rd W
160,36.748894,-88.158661,State Hwy 80
160,36.593806,-88.346300,Quail Creek Dr
472,36.626252,-88.330757,Transit Way
185,36.665847,-88.486941,State Hwy 80
526,36.633314,-88.314313,Stadium View Dr/Center Dr
1563,36.625913,-88.319120,Lowes Dr/Wal-Mart Dr
246,36.591682,-88.338532,Oak Hill Dr/Oak Hill Ct
160,36.498178,-88.104613,State Hwy 121
2009,36.612574,-88.315202,N 12th St/Olive St
185,36.611236,-88.332144,N 18th St/Miller St
4353,36.616603,-88.322156,Chestnut St
160,36.683695,-88.392480,Palmer Rd
246,36.614313,-88.297022,Spruce St
160,36.652686,-88.360490,State Hwy 80/Airport Rd
605,36.606637,-88.325218,Vaughn Dr/Locust St
246,36.584066,-88.328432,Tabard Dr
185,36.592673,-88.333611,Melrose Dr/S 18th St
160,36.689388,-88.342042,Sharmae Ln/Turkey Ln
185,36.584244,-88.323778,Canterberry Dr/Tabard Dr
185,36.645707,-88.308050,N 12th St
994,36.603031,-88.321889,S 15th St
160,36.594389,-88.416041,State Hwy 94
160,36.594560,-88.352239,Edinborough Dr W/Edinborough Dr/Robertson Rd S
160,36.621862,-88.305932,Washington St/N 7th St
216,36.655777,-88.423527,State Hwy 80/Potts Rd
160,36.613114,-88.296497,Briggs & Stratton Rd
160,36.582076,-88.328874,Martin Chapel Rd
160,36.645883,-88.321244,Poor Farm Rd
246,36.634259,-88.320817,Diuguid Dr
362,36.592633,-88.338640,Melrose Dr
185,36.606930,-88.356774,Stonegate Dr
305,36.595233,-88.321140,Kirkwood Dr/Meadow Ln
160,36.506153,-88.098905,Harrison Dr/Norris Dr
216,36.618540,-88.351748,Robertson Rd N
160,36.634295,-88.405476,Butterworth Rd
216,36.622074,-88.478714,Browns Grove Rd/Jones Rd
185,36.600488,-88.131115,Lakehurst Ln/Passage Dr/Riverview Blvd/Panorama Dr
216,36.502203,-88.079944,Lakeview Cabins Dr
246,36.596387,-88.324347,Dudley Dr/S 16th St
305,36.588422,-88.325201,Wiswell Rd W/Coach Estates Dr/Ky-1550
160,36.601395,-88.301687,S 3rd St
276,36.584190,-88.319270,Tabard Dr/Spring Creek Dr
160,36.662019,-88.305092,US Hwy 641
160,36.584837,-88.293817,Murray-Paris Rd
216,36.617206,-88.334527,College Farm Rd
684,36.620072,-88.317994,Ic-8101A/Gilbert Graves Dr/Racer Dr
334,36.613606,-88.308491,N 8th St
160,36.617598,-88.346032,College Farm Rd
1020,36.610278,-88.327201,N Broach Ave/Farmer Ave
160,36.726915,-88.176241,State Hwy 80/Palestine Church Rd
185,36.601236,-88.318864,Cardinal Dr/Shady Ln
160,36.638587,-88.318799,Utterback Rd
216,36.603087,-88.302509,Back St/S 4th St
1355,36.610442,-88.316485,S 13th St/Main St
579,36.615544,-88.311830,N 10th St/Payne St
1956,36.615503,-88.315127,N 12th St/Payne St
334,36.629892,-88.360738,State Hwy 121/Airport Rd
472,36.629116,-88.333485,Bailey Rd
445,36.628187,-88.307787,Park Dr
160,36.505452,-88.083339,Willow Cir
216,36.611534,-88.332148,N 18th St
160,36.640203,-88.324282,N 16th St
1982,36.617689,-88.324357,N 16th St/
1563,36.613131,-88.326912,Hamilton Ave
185,36.585520,-88.333281,Greenbriar Dr
472,36.606611,-88.329251,Locust St/Hickory Ave
185,36.668375,-88.303890,/US Hwy 641/Coles Campground Rd
160,36.598952,-88.302065,S 3rd St/Woods Rd
160,36.585587,-88.255633,Chickadee Dr/Old Salem Rd
185,36.598434,-88.309254,Bagwell Blvd/Fairlane Dr
710,36.620673,-88.327830,Clark St/Parks St
276,36.620349,-88.334112,N 20th St/Sherry Ln
160,36.597010,-88.343552,Carol Dr
305,36.590309,-88.337436,Azalea Ct
160,36.583887,-88.317769,Misty Creek Dr
185,36.621286,-88.307807,Cs-1279
185,36.601205,-88.320249,Cardinal Dr
185,36.605220,-88.351891,State Hwy 94/Robertson Rd N/Robertson Rd S
185,36.706692,-88.302407,US Hwy 641
160,36.595095,-88.335236,Gatesborough Cir
160,36.655737,-88.177576,Old Newburg Rd
305,36.616124,-88.332055,N 18th St/Ryan Ave
246,36.615077,-88.329578,Calloway Ave/N 17th St
579,36.629337,-88.324295,N 16th St/
160,36.675546,-88.321720,Cody Dr/Walston Rd
246,36.610717,-88.474704,Acorn Ln
1149,36.613725,-88.319985,Wells Blvd/N 14th St
216,36.598768,-88.311454,Earl Ct/Fairlane Dr
216,36.650318,-88.482906,/Bazzell Cemetery Rd
160,36.507282,-88.099269,Lax Dr
418,36.611631,-88.302985,Walnut St/N 5th St/S 5th St
160,36.590102,-88.327342,Fox Meadow Dr
185,36.697450,-88.279570,3rd St
2569,36.624570,-88.321977,Lowes Dr/Paramount Dr
160,36.675116,-88.083984,Little Oaks Ln/Cr-1035F
334,36.608672,-88.302968,Poplar St/S 5th St
160,36.640303,-88.324281,N 16th St/Pine Meadow Dr
276,36.610615,-88.297297,Main St
160,36.618117,-88.307108,Cs-1278/Beale St
1097,36.627365,-88.335023,Megan Dr/Cambridge Dr
418,36.597161,-88.333676,Magnolia Dr/S 18th St
1459,36.610809,-88.324392,N 16th St/University Dr
216,36.652514,-88.369956,State Hwy 80/Indian Trl
1982,36.612847,-88.325941,N Broach Ave
185,36.619312,-88.305922,Cs-1259/N 7th St
185,36.610297,-88.332136,Farmer Ave/N 18th St
160,36.506461,-88.099007,Harrison Dr
246,36.681349,-88.091368,/Paradise Dr
2168,36.621295,-88.321444,Valentine St/N 15th St
1097,36.603712,-88.312189,10th St/S 10th St
185,36.502325,-88.327113,4th St/Center St
445,36.614779,-88.302999,Pine St/N 5th St
160,36.607556,-88.300343,Cherry St/Elm St
185,36.620312,-88.305914,Cs-1266/N 7th St/Cs-1260
185,36.529050,-88.236726,Ky-893/New Providence Rd
216,36.502322,-88.326876,Center St
216,36.624765,-88.344101,Astoria Ct/Country Club Ln
305,36.595656,-88.335740,Gatesborough Cir/Stratford Dr
160,36.502059,-88.320825,Gilbert St E/State Line Rd E
160,36.737826,-88.316517,Pondview Ln/Joseph Dr
216,36.676550,-88.316073,Metcalf Ln/Walston Rd/Point Dr
160,36.662581,-88.201421,State Hwy 94/Ky-94C
362,36.633215,-88.311279,N 12th St/Fleetwood Cir
160,36.738745,-88.299873,Shamrock Ln
216,36.613147,-88.329768,Hamilton Ave
185,36.639808,-88.324286,N 16th St
185,36.588802,-88.134185,Lakeway Dr
185,36.687108,-88.298364,Lindsey Ln/Radio Rd
160,36.593549,-88.303686,S 4th St/Chantilly Dr
390,36.628574,-88.305384,Michelle Ct
216,36.598128,-88.331773,Audubon Dr/Minerva Pl
499,36.585602,-88.324896,Coach Estates Dr
160,36.624362,-88.234972,Pottertown Rd
185,36.633580,-88.308329,Vagabond Dr
160,36.594645,-88.317017,Mimosa Ln
185,36.606541,-88.343419,Murray Estates Dr
246,36.636638,-88.315997,Bourland Ln/Mission Valley Dr
185,36.586707,-88.325170,Coach Estates Dr
472,36.631722,-88.333507,Bailey Rd
305,36.589049,-88.338433,Oak Hill Dr/Rugby Dr
185,36.734177,-88.170414,State Hwy 80
160,36.640304,-88.324167,Pine Meadow Dr
216,36.580710,-88.348439,Sherwood Dr/Scarlett Dr
160,36.586381,-88.322071,Beckett Dr/London Dr
3005,36.615778,-88.324387,N 16th St/Ryan Ave
788,36.605503,-88.320112,Vine St/Woodlawn Ave
160,36.502299,-88.321468,1st St
185,36.579670,-88.338232,Southwest Dr/Kingswood Ln
216,36.612681,-88.305872,N 7th St/Olive St
185,36.605127,-88.351904,Robertson Rd S
160,36.645640,-88.217120,State Hwy 94
185,36.593795,-88.319789,Dogwood Dr W/Mimosa Ln
160,36.600569,-88.371611,Haynes Creek Dr/Oak Estates Dr/Wildwood Dr
160,36.502256,-88.322414,2nd St
246,36.676581,-88.315290,Wells Purdom Rd/Walston Rd
390,36.614153,-88.329593,Wells Exd/N 17th St
160,36.630421,-88.246196,State Hwy 94/Colonial Rd
216,36.734030,-88.296008,Fern Ln/Toskana
305,36.603480,-88.349506,Bambi Ct N
216,36.609717,-88.297331,Maple St
334,36.592657,-88.336546,Melrose Dr/Fleetwood Dr
160,36.695022,-88.336702,Pocahontas Ln
160,36.727090,-88.117902,Hamilton Ln/Harbor Hill Ln
762,36.602916,-88.320831,Meadow Ln/Sycamore St
185,36.581730,-88.358354,Kandi Kay Ln
418,36.634356,-88.318003,Red Oaks Apartments/Diuguid Dr
160,36.685123,-88.291057,Boggess Dr/Candlelite Dr
710,36.602897,-88.319530,Stone Ridge Ln/Sycamore St
185,36.568754,-88.216672,/Ky-121
445,36.605550,-88.318831,Vine St/Irvan St
334,36.610626,-88.308542,S 8th St/N 8th St/Main St
276,36.607783,-88.333322,Main St
917,36.625622,-88.331695,Lee Dr/Battlefield Dr
185,36.600033,-88.316761,S 13th St/Story Ave
216,36.609719,-88.297273,Maple St
2408,36.623019,-88.322890,State Hwy 121
160,36.651115,-88.232352,Todd Spr
160,36.579354,-88.334941,Ridgewood Dr
276,36.607839,-88.340971,Jameswood Dr/Crossfield Dr
445,36.634854,-88.323006,Northwinds Mobile Home Park
160,36.741223,-88.293227,Church St/Lane St
246,36.596203,-88.333667,S 18th St/Keenland Dr
160,36.646345,-88.216267,State Hwy 94
160,36.613136,-88.285377,State Hwy 94
605,36.626726,-88.331749,General Grant Dr/Battlefield Dr
185,36.585523,-88.333448,Greenbriar Dr/Doran Rd S
390,36.611633,-88.313553,Walnut St
362,36.605047,-88.324427,S 16th St
3981,36.618017,-88.319891,/Ic-8101G
160,36.651960,-88.287858,State Hwy 80
185,36.652492,-88.311116,State Hwy 80/
736,36.606866,-88.323138,Brentwood Ave
160,36.589977,-88.336493,Azalea Ct/Azalea Dr/Fleetwood Dr
658,36.625264,-88.332976,Kathy Dr
246,36.501317,-88.325901,Gilbert St E/Gillbert/Main St
160,36.696750,-88.190850,State Hwy 80
160,36.536252,-88.209919,/Shoemaker Rd
418,36.610601,-88.300378,N Cherry St/Main St/S Cherry St
2061,36.620174,-88.321441,N 15th St/Ic-8101F
160,36.633104,-88.360638,Airport Rd
185,36.600571,-88.130147,Lakehurst Ln
5582,36.618530,-88.320224,Ic-8101H/Ic-8101H-30 X
185,36.582001,-88.322097,Beckett Dr/London Dr
160,36.591166,-88.300481,Ky-121
216,36.618487,-88.351747,Jones Sparkman Rd/Robertson Rd N
1046,36.626528,-88.333490,Bailey Rd
185,36.649046,-88.249714,State Hwy 80/Van Cleave Rd
185,36.668176,-88.314190,/Coles Campground Rd
185,36.609815,-88.347932,Grayson Dr/Mitchell Dr
216,36.735179,-88.306912,Charley Miller Rd/Charlie Miller Rd
160,36.676213,-88.317653,Stonecrest Dr/Walston Rd
185,36.621497,-88.307741,Cs-1278/Polk St
216,36.602659,-88.302608,S 4th St/Sycamore St
185,36.582399,-88.370313,Oaks Country Club Rd/Wiswell Rd W
2301,36.610653,-88.323666,University Dr
160,36.585353,-88.328892,Martin Chapel Rd
472,36.629019,-88.305358,Michelle Dr/Northwood Dr/Michelle Ct
216,36.652380,-88.369959,State Hwy 80/Indian Trl
160,36.675713,-88.361187,Airport Rd
160,36.592658,-88.302055,River Rd
160,36.650340,-88.450867,State Hwy 121/Morgan Dr
160,36.596588,-88.396657,Erwin Rd
246,36.601199,-88.320861,Cardinal Dr/Meadow Ln
3170,36.624085,-88.321819,/Paramount Dr
160,36.636032,-88.379570,State Hwy 121/Rob Mason Rd
839,36.620376,-88.327612,/Parks St
160,36.624013,-88.487455,Browns Grove Rd
185,36.644334,-88.308444,N 12th St/Dinker Dr
160,36.592837,-88.317079,Crestwood Pl/Cs-1199
276,36.701341,-88.294027,Radio Rd/Pleasant Hill Dr
418,36.616146,-88.304473,Ash St/N 6th St
160,36.687204,-88.306597,Flint Rd
185,36.502657,-88.259927,Harmon Rd/State Line Rd E
1746,36.616892,-88.319373,Gilbert Graves Dr/Chestnut St
1772,36.624204,-88.324323,N 16th St
185,36.500450,-88.327431,4th St/State Str
762,36.608545,-88.314086,Poplar St/Embassy Apartment
160,36.659447,-88.465379,State Hwy 80
305,36.608604,-88.310682,Poplar St/S 9th St
216,36.585487,-88.330201,Greenbriar Dr
160,36.654229,-88.342943,Hale Rd/State Hwy 80/
305,36.592970,-88.332116,Melrose Ct
526,36.634298,-88.322993,/Diuguid Dr
276,36.586672,-88.333484,Westwood Dr/Doran Rd S
160,36.739438,-88.165810,State Hwy 80
390,36.631810,-88.333510,Bailey Rd
216,36.626305,-88.379610,Rob Mason Rd
160,36.640584,-88.399590,State Hwy 121
160,36.646030,-88.317119,Oppurtunity Dr/Poor Farm Rd/Cs-1223
2114,36.614661,-88.324390,N 16th St
160,36.624280,-88.255215,Pottertown Rd/Outland School Rd
185,36.595190,-88.337529,Westgate Dr
994,36.629328,-88.313123,N 12th St
216,36.503248,-88.324793,3rd St/Dees St
160,36.613152,-88.297537,Briggs & Stratton Rd
762,36.609869,-88.301259,S 3rd St/Maple St
552,36.602693,-88.306702,Broad St/Sycamore St
246,36.676657,-88.302920,Walston Rd
246,36.600425,-88.310606,S 9th St/Story Ave
160,36.646161,-88.317310,Blackbird Ln
160,36.505816,-88.327049,4th St
216,36.632096,-88.369004,State Hwy 121
160,36.599964,-88.313069,Story Ave/S 11th St
160,36.619659,-88.351761,Robertson Rd N
788,36.610588,-88.302972,Main St/S 5th St
362,36.633020,-88.311363,N 12th St/Riviera Ct
390,36.585646,-88.323769,Canterberry Dr
305,36.584246,-88.324916,Tabard Dr/Mockingbird Dr
605,36.624528,-88.331705,Taylor Dr
246,36.626293,-88.347291,Graham Rd/State Hwy 121
160,36.588558,-88.368875,Oakwood Ln
1772,36.630889,-88.334563,Wilshire Dr/Vassar Dr/Welch Dr
334,36.588316,-88.315198,S 12th St/Riverwood Rd
160,36.676581,-88.314163,North Dr/Walston Rd
160,36.586649,-88.324889,Coach Estates Dr
334,36.604143,-88.324418,S 16th St/Sunset Dr
185,36.619198,-88.331830,Sha-Wa Ct/Sha Wa Ct
185,36.620048,-88.307093,Beale St/Cs-1267
185,36.658943,-88.487033,State Hwy 121/State Hwy 1124
943,36.625423,-88.337195,Shady Oaks Ct
160,36.675935,-88.361197,Carlton Rd/Airport Rd/Coles Campground Rd
216,36.655697,-88.423139,State Hwy 80
943,36.625646,-88.314636,N 12th St
1459,36.627992,-88.326188,/Tiffany Ln
276,36.597252,-88.341330,Elmbrook Ln
160,36.690217,-88.254006,Almo-Shiloh Rd
276,36.636375,-88.310048,E Frontage Rd
305,36.605892,-88.308567,Vine St/S 8th St
160,36.544277,-88.325338,US Hwy 641/Huberts Ln
160,36.533396,-88.303141,Murray-Paris Rd
160,36.660378,-88.216866,Warbler Ln/Old Purdom Rd
246,36.612727,-88.299559,Olive St
185,36.651646,-88.292146,State Hwy 80
658,36.609937,-88.319961,Main St/N 14th St
246,36.617259,-88.307194,Beale St/Chestnut St
1252,36.629155,-88.336208,Harvard Dr/Cs-1218/Welch Dr
160,36.502196,-88.320021,State Line Rd E
788,36.608935,-88.327274,N Broach Ave/Main St
185,36.594847,-88.345392,Cr-1276N
276,36.640820,-88.309213,N 12th St
185,36.706552,-88.302128,US Hwy 641
185,36.502347,-88.328307,Center St
160,36.619798,-88.307782,Cs-1278/Cs-1271
160,36.524415,-88.117773,Marr Ln/Cypress Trl
185,36.651655,-88.291854,State Hwy 80
813,36.602752,-88.310736,S 9th St/Sycamore St
185,36.633530,-88.370189,Fairground Rd
813,36.611383,-88.316619,N 13th St/Farris Ave
185,36.588832,-88.442274,Doris Lee Ln/State Hwy 94
216,36.667717,-88.203799,State Hwy 80/Ky-94C
185,36.586010,-88.317802,Sandy Pine Dr
276,36.639124,-88.309457,N 12th St
216,36.676263,-88.302693,US Hwy 641
185,36.651855,-88.291829,State Hwy 80
185,36.679390,-88.319262,Breezeway Dr/Stonecrest Dr/Birchtree Dr
185,36.596892,-88.325684,Magnolia Dr/Richland Dr/Keenland Dr
246,36.676661,-88.302405,US Hwy 641/Radio Rd
246,36.672581,-88.319216,Sheba Dr
276,36.608589,-88.311871,Poplar St/S 10th St
160,36.578959,-88.342176,Gibbs Store Rd
246,36.584147,-88.328881,Martin Chapel Rd
1719,36.626285,-88.324316,N 16th St/Brittnay Ridge Apartment
1046,36.624183,-88.329056,Lowes Dr/Transit Way
160,36.643055,-88.409323,State Hwy 121
839,36.625753,-88.333499,Bailey Rd
160,36.585367,-88.344380,Wiswell Rd W
246,36.612728,-88.299515,N Lp Miller St/Olive St
185,36.593753,-88.337503,Gatesborough Cir/Westgate Dr
160,36.506028,-88.324726,3rd St/Maple St
472,36.607916,-88.318823,Irvan St
160,36.581665,-88.314829,US Hwy 641
160,36.644957,-88.253822,Van Cleave Rd/Colonial Rd
160,36.539749,-88.304159,Murray-Paris Rd
160,36.581781,-88.338022,Enix Dr
160,36.581704,-88.355576,Kandi Kay Ln
185,36.594676,-88.148254,Creek Dr/Skimmer Dr
4468,36.618984,-88.320188,/Ic-8101G
160,36.732194,-88.455583,Downing Rd
2274,36.625630,-88.324321,N 16th St/Forest View Apartment
2569,36.623031,-88.322833,State Hwy 121/Waldrop Dr
216,36.600489,-88.311905,Story Ave
216,36.598517,-88.305600,Cs-1163
3391,36.623635,-88.321686,Paramount Dr
246,36.597181,-88.331905,Magnolia Dr/Minerva Pl
160,36.634998,-88.441811,Coopertown Rd
276,36.598528,-88.306625,Broad St/Fairlane Dr
160,36.584046,-88.342481,Queensway Dr/Gibbs Store Rd
160,36.588974,-88.320253,Mildred St/Roberson St
216,36.668886,-88.303781,US Hwy 641
762,36.607548,-88.308544,S 8th St/Elm St
1149,36.609329,-88.315222,S 12th St/Embassy Apartment
246,36.609857,-88.351908,Mitchell Dr/Robertson Rd N
1877,36.621703,-88.321420,N 15th St
362,36.603048,-88.349512,Bambi Ln/Bambi Ct N/Bambi Ct S
216,36.620072,-88.305920,N 7th St/Cs-1267
160,36.613086,-88.296142,Briggs & Stratton Rd/Industrial Rd
216,36.630449,-88.310652,Hillwood Dr/Northwood Dr
472,36.609874,-88.304425,S 6th St/Maple St
160,36.624417,-88.254954,Pottertown Rd/Outland School Rd
762,36.609282,-88.314051,Embassy Apartment
185,36.618378,-88.405551,Jones Sparkman Rd/Butterworth Rd
160,36.624494,-88.254623,Pottertown Rd
216,36.652772,-88.461363,State Hwy 121/Shadetree Ln
185,36.500571,-88.325990,Main St
160,36.607070,-88.343530,Murray Estates Dr
160,36.632096,-88.306091,Shasta Ln
185,36.606394,-88.343389,Murray Estates Dr/State Hwy 94
216,36.625880,-88.310218,Park Dr Lp/Park Dr
445,36.630869,-88.312008,Northwood Dr/E Frontage Rd
185,36.673421,-88.302781,US Hwy 641
160,36.581776,-88.068046,Red Water Dr/Waterway Trl
160,36.606780,-88.340621,Crossfield Dr/State Hwy 94
160,36.676190,-88.336507,Thrush Ln
246,36.676653,-88.302708,US Hwy 641/Radio Rd/Walston Rd
684,36.619654,-88.318203,Gilbert Graves Dr/Gilbert Grave S Dr
160,36.657688,-88.473520,State Hwy 121
185,36.614054,-88.296094,Industrial Rd
160,36.591796,-88.327080,Belmont Ct
185,36.613978,-88.282573,State Hwy 94/Clayton Dr
276,36.596506,-88.309163,Bagwell Blvd/Goodman St
185,36.692730,-88.296570,Almo Rd/Radio Rd
160,36.501676,-88.322364,Gilbert St E/2nd St
305,36.622631,-88.309998,Gil Hobson Dr
160,36.611761,-88.351928,Research Field Trl/Robertson Rd N
160,36.598947,-88.303011,Woods Rd
160,36.644732,-88.324247,N 16th St
788,36.608465,-88.316481,Poplar St/S 13th St
1798,36.617732,-88.318949,/Gilbert Graves Dr
185,36.650068,-88.448515,Lamb Dr/Morgan Dr
390,36.634459,-88.316030,Diuguid Dr
305,36.596543,-88.335076,Stratford Dr
472,36.614191,-88.330326,Wells Exd
160,36.619644,-88.272580,State Hwy 94
185,36.594999,-88.328617,Kirkwood Dr/Catalina Dr
499,36.585002,-88.324929,Coach Estates Dr E/Coach Estates Dr
246,36.596209,-88.330745,Keenland Dr/Perrin Dr
445,36.592883,-88.308948,Bagwell Dr
160,36.741973,-88.270712,Roosevelt Rd/Nanny Neal Rd
185,36.608968,-88.351903,Hal Dr/Hunters Horn/Robertson Rd N
499,36.631561,-88.336812,Stanford Dr
1046,36.602788,-88.313027,Sycamore St/S 11th St
216,36.651229,-88.455315,State Hwy 121
185,36.598303,-88.143015,Speaker Trl/Steephill Dr
216,36.584019,-88.351689,King Dr
216,36.531619,-88.324741,US Hwy 641
276,36.634546,-88.314327,Stadium View Dr/Diuguid Dr
185,36.505092,-88.082558,Willow Cir/Newman Dr
710,36.625444,-88.333503,Bailey Rd/Williamsburg Ln/Gettysburg Dr
579,36.628588,-88.307974,Southwood Dr/Valleywood Dr
1667,36.609692,-88.321816,Main St/N 15th St
334,36.602986,-88.327058,Sycamore St/Blair St
526,36.634885,-88.322311,Northwinds Mobile Home Park
418,36.624534,-88.309921,Gil Hopson Dr
1097,36.609880,-88.302088,S 4th St/Maple St
1071,36.613963,-88.315163,N 12th St/Sharpe St
276,36.610617,-88.297426,Main St/Railroad Ave
216,36.711653,-88.301367,Nix St/US Hwy 641/Rockhouse Dr
160,36.622556,-88.351789,Robertson Rd N
185,36.592674,-88.335214,Melrose Dr/Larkspur Dr
362,36.624029,-88.316912,State Hwy 121
445,36.611631,-88.301254,N 3rd St/Walnut St
3005,36.625828,-88.326602,Murray Place Blvd/Daniel Way/Murray Place Dr
305,36.588396,-88.325929,Wiswell Rd W/Danbury Dr
160,36.597398,-88.341863,Elmbrook Ln
185,36.596486,-88.342063,County Cork Dr
246,36.676797,-88.303393,Flint Rd/Walston Rd
185,36.500447,-88.326058,Main St/State Line E/State Str
160,36.636902,-88.441776,Coopertown Rd
334,36.620322,-88.332963,N 19th St/Sherry Ln
216,36.617381,-88.298222,N 1st St/Chestnut St
160,36.584908,-88.315005,US Hwy 641
1071,36.629653,-88.312966,N 12th St/Stadium View Dr/Southwood Dr
185,36.594922,-88.345393,Edinborough Dr/Cr-1276N
185,36.602578,-88.351587,Robins Ct
968,36.608288,-88.324431,Poplar St/Ky-822/S 16th St
160,36.587102,-88.323759,Canterberry Dr/Chaucer Dr
160,36.505245,-88.324762,3rd St/Calloway St
472,36.601996,-88.320847,Meadow Ln
160,36.581460,-88.326703,Whipporwill Cir
684,36.609882,-88.302961,S 5th St/Maple St
445,36.628143,-88.313693,N 12th St
305,36.634310,-88.321572,/Diuguid Dr
246,36.599553,-88.310610,S 9th St/Nash St
1355,36.617135,-88.311827,N 10th St/Chestnut St
334,36.612619,-88.300370,N Cherry St
216,36.607538,-88.303050,Elm St
160,36.587893,-88.358292,Saratoga Dr N/Fontana Dr
185,36.616933,-88.276313,Crown Ln/Maplewood Cir
185,36.612210,-88.305860,N 7th St
160,36.594542,-88.415303,State Hwy 94/Thurman Rd
1956,36.627131,-88.314160,N 12th St
160,36.522305,-88.302185,Murray-Paris Rd/Meyers St
160,36.517509,-88.388910,Hub Erwin Rd
762,36.628014,-88.319172,Wal-Mart Dr
160,36.617243,-88.296063,Industrial Rd/Chestnut St
185,36.655287,-88.306350,/N 12th St
185,36.594420,-88.345386,Cr-1276N
472,36.605889,-88.306665,Vine St/Broad St
160,36.651663,-88.369979,Indian Trl/Coleman Trl
216,36.598816,-88.310606,S 9th St/Fairlane Dr
499,36.595565,-88.315317,S 12th St/Glendale Rd
276,36.614003,-88.311848,N 10th St/Sharpe St
160,36.588351,-88.358117,Saratoga Dr N/Rippling Creek Dr
185,36.600246,-88.348475,Tanglewood Dr
1355,36.611204,-88.325960,N Broach Ave/Miller Ave
185,36.619031,-88.307811,Cs-1274
160,36.594633,-88.320072,Dogwood Dr W/Glendale Rd
160,36.584334,-88.290040,Creek Side Ln/Ky-121
1020,36.621867,-88.330442,State Hwy 121/Lowes Dr/N 18th St
185,36.597602,-88.370521,Oaks Country Club/Oaks Country Club Rd
160,36.654540,-88.317737,State Hwy 80
2274,36.610531,-88.321818,N 15th St/University Dr
2868,36.624422,-88.318837,Wal-Mart Dr
160,36.565234,-88.209609,Drury Ln/Ky-121
160,36.632745,-88.309838,Fleetwood Cir/Fleetwood Dr/Riviera Ct
216,36.614029,-88.309223,Sharpe St
8715,36.614992,-88.321388,Payne St
216,36.606318,-88.343944,State Hwy 94
246,36.618486,-88.351851,Jones Sparkman Rd
216,36.603460,-88.351922,Bambi Ln/Robertson Rd S
246,36.596226,-88.329106,S 17th St/Keenland Dr
276,36.632180,-88.307114,Ritzcraft/Fleetwood Cir
160,36.596278,-88.349073,Brookhaven Dr
305,36.614779,-88.304468,Pine St/N 6th St
185,36.619353,-88.307092,Beale St/Cs-1273
390,36.615436,-88.300254,Pine St/N Cherry St
216,36.581729,-88.357109,Kandi Kay Ln/Paul Bradley Dr
1982,36.622854,-88.321411,Ic-8101D/Ic-8101C
246,36.617805,-88.307111,Beale St/Cs-1280
1046,36.602237,-88.315210,/S 12th St
362,36.628799,-88.304190,Michelle Dr/Northwood Dr
579,36.633197,-88.311635,Frontage Rd/Center Dr
968,36.602929,-88.321783,Sycamore St
160,36.729438,-88.296169,Radio Rd
216,36.586646,-88.315097,US Hwy 641/S 12th St
276,36.617013,-88.330439,N 18th St/College Farm Rd
185,36.563774,-88.205360,Ky-121
160,36.620042,-88.307783,Cs-1278/Cs-1267
1020,36.602804,-88.314283,/Sycamore St
216,36.583438,-88.319258,Misty Creek Dr/Spring Creek Dr
185,36.597186,-88.324371,S 16th St/Henry St
246,36.584180,-88.320389,Oxford Dr/Tabard Dr
160,36.577586,-88.271072,Arbor Dr/Astor Dr
445,36.598989,-88.317800,Whitnell Ave/Johnson Blvd
246,36.584075,-88.328881,Tabard Dr/Martin Chapel Rd
246,36.583210,-88.333967,Deepwood Dr/Doran Rd S
160,36.739640,-88.165907,State Hwy 80
526,36.623623,-88.329848,Lowes Dr
334,36.596331,-88.337559,Westgate Dr
185,36.651847,-88.292119,State Hwy 80
185,36.590114,-88.326375,Fox Meadow Dr
160,36.514959,-88.301538,Craig Rd/Murray-Paris Rd
305,36.616509,-88.343093,/Research Field Trl
216,36.600270,-88.326657,Blair St
160,36.652699,-88.359821,State Hwy 80
160,36.657071,-88.438791,State Hwy 80/Cook Store Trl
3005,36.618899,-88.322883,Ic-8101H/Waldrop Dr
185,36.742627,-88.301502,/Wadesboro Rd
185,36.595242,-88.333663,Gatesborough Cir/Holiday Dr/S 18th St
276,36.627490,-88.351723,State Hwy 121/Robertson Rd N
160,36.668829,-88.316536,Marina Way/Drew Dr
362,36.629456,-88.311134,Hillwood Dr/Southwood Dr
160,36.640440,-88.322447,Pine Meadow Dr
160,36.676579,-88.313620,Washington Dr/Walston Rd
362,36.596102,-88.317762,Dudley Dr/Whitnell Ave
160,36.585440,-88.328893,Greenbriar Dr/Martin Chapel Rd
160,36.572113,-88.388534,Crossland Rd
185,36.589046,-88.338958,Rugby Dr
160,36.607567,-88.301236,S 3rd St/Elm St
160,36.624440,-88.249800,Pottertown Rd/Tile Dr
658,36.613674,-88.327162,Kentucky Ave
160,36.507020,-88.099031,Harrison Dr/Lax Dr
185,36.669494,-88.303639,/US Hwy 641
216,36.511476,-88.325948,Lavender St
552,36.613751,-88.319283,Wells Blvd
160,36.736583,-88.318549,Hopkins Rd/Justin Dr
160,36.596855,-88.310617,S 9th St/Goodman St
185,36.505776,-88.082541,McNutt Way
3727,36.625833,-88.327126,Rebecca Run/Murray Place Blvd
246,36.514504,-88.061112,Spencer Dr/Rodgers Dr
185,36.617548,-88.351746,Robertson Rd N/College Farm Rd
185,36.619208,-88.310209,Gil Hobson Dr/Arcadia Cir
160,36.674105,-88.319985,Karnes Ct
216,36.609826,-88.344730,Glenwood Dr
418,36.624622,-88.309881,/Gil Hopson Dr
246,36.597178,-88.329097,Magnolia Dr/S 17th St
216,36.609792,-88.340450,Birchwood Dr/Glenwood Dr
917,36.625371,-88.337194,/Shady Oaks Ct
1641,36.609681,-88.321893,S 15th St/Main St
246,36.616943,-88.329076,N 17th St/College Farm Rd
160,36.698225,-88.308281,W Fork Rd/Flint Rd
216,36.655920,-88.423525,State Hwy 80/Potts Rd
216,36.584160,-88.327783,Tabard Dr/Mockingbird Dr
552,36.602726,-88.308591,S 8th St/Sycamore St
160,36.537324,-88.325248,US Hwy 641
160,36.502991,-88.080696,Lakeview Cabins Dr
160,36.625922,-88.239739,White Oak Rd/Rieman Dr
160,36.675586,-88.336546,Coles Campground Rd/Thrush Ln
362,36.605329,-88.328801,Loch Lomond Dr
552,36.625590,-88.338244,Shady Oaks Ct/Shady Oaks Dr
185,36.668143,-88.314876,Wells Purdom Rd/Coles Campground Rd
1020,36.626787,-88.333487,Bailey Rd
160,36.647963,-88.437660,State Hwy 121
160,36.598921,-88.303356,Woods Rd/S 4th St
160,36.583981,-88.361128,Wiswell Rd W
276,36.616005,-88.329562,Ryan Ave/N 17th St
160,36.594026,-88.328447,Parklane Dr
185,36.659006,-88.487033,State Hwy 1124
185,36.646477,-88.087882,Lynnhurst Dr
684,36.602733,-88.309306,Sycamore St/S 8th St Exd
276,36.631084,-88.306627,Mur-Cal Apartment
160,36.566028,-88.264673,Neale Trl
160,36.681956,-88.300014,/Radio Rd
160,36.651552,-88.229161,State Hwy 80/Todd Rd
185,36.615653,-88.344562,Research Field Trl
185,36.579094,-88.338178,Kingswood Ln
246,36.610290,-88.329634,Farmer Ave/N 17th St
276,36.628070,-88.306108,Southwood Dr
160,36.581399,-88.395008,Wiswell Rd W
160,36.593847,-88.348139,Martin Dr/Quail Creek Dr
2247,36.614861,-88.324391,N 16th St/Calloway Ave
185,36.608664,-88.299570,Poplar St/S Lp Miller St
216,36.697967,-88.302645,Stonecrop Dr/Almo Rd
334,36.596056,-88.340918,Elmbrook Ln/Brookhaven Dr
891,36.608242,-88.324433,Poplar St/Ky-822/S 16th St
160,36.680556,-88.090953,Paradise Dr
160,36.570912,-88.316398,US Hwy 641/Steely Ln
216,36.645854,-88.307985,N 12th St
216,36.619145,-88.351755,Robertson Rd N
216,36.654366,-88.449220,Pine Creek Ln
579,36.617423,-88.302112,N 4th St/Chestnut St
216,36.632008,-88.204032,Rockwood Rd
1537,36.619072,-88.315030,N 12th St/N 13th St/Arcadia Cir
185,36.635016,-88.307763,Fleetwood Cir/Vagabond Dr
1200,36.608513,-88.314985,Poplar St
160,36.619029,-88.305922,N 7th St/Reagon St
185,36.634199,-88.374793,State Hwy 121/
3531,36.616743,-88.322923,Waldrop Dr/Chestnut St
579,36.619065,-88.327134,Coldwater Rd/Parks St
276,36.608670,-88.301244,Poplar St/S 3rd St
160,36.626261,-88.351739,Robertson Rd N
160,36.620712,-88.305904,Cs-1261/N 7th St
246,36.602137,-88.302730,S 4th St/Sycamore Industrial Rd
631,36.610596,-88.301257,N 3rd St/S 3rd St/Main St
185,36.657008,-88.440710,State Hwy 80
185,36.731500,-88.173411,State Hwy 80
160,36.741094,-88.164538,State Hwy 80/Burkeen Rd
552,36.614268,-88.302100,N 4th St/Spruce St
160,36.648156,-88.424242,Rainbow Ln/State Hwy 121
216,36.646414,-88.307872,N 12th St/Poor Farm Rd E/Poor Farm Rd
246,36.660493,-88.305379,N 12th St/US Hwy 641
160,36.613418,-88.280948,Bucy Dr/Clayton Dr
160,36.582171,-88.281885,Locust Grove Rd
362,36.584768,-88.325641,Coach Estates Dr
185,36.717263,-88.299485,Cr-1424-80/Stewart Cemetery Dr
246,36.595443,-88.318441,Glendale Rd
1355,36.605699,-88.311894,Vine St/S 10th St
160,36.600728,-88.351982,Robertson Rd S
185,36.617196,-88.334309,College Farm Rd
160,36.525952,-88.325601,/US Hwy 641
334,36.611626,-88.300376,N Cherry St/Walnut St
185,36.601660,-88.303935,S 6th St Exd
160,36.618795,-88.307811,Cs-1275
552,36.625555,-88.337912,Shady Oaks Ct
185,36.649212,-88.249642,State Hwy 80/Van Cleave Rd
1693,36.629748,-88.313255,Stadium View Dr/Frontage Rd
160,36.632720,-88.307737,Globemaster
160,36.716304,-88.160991,State Hwy 94
2650,36.623306,-88.321579,State Hwy 121/Ic-8101C/Paramount Dr
160,36.599391,-88.433233,Old Lynn Grove Rd
185,36.600104,-88.388156,State Hwy 94/Crossland Rd/Crawford Trl
390,36.617362,-88.304497,N 6th St/Chestnut St
472,36.601265,-88.324420,Cardinal Dr/S 16th St
305,36.587021,-88.319042,Chaucer Dr
305,36.591436,-88.337602,Oak Hill Ct
362,36.628828,-88.333484,Bailey Rd/Cambridge Dr
216,36.593533,-88.305713,Chantilly Dr
185,36.609722,-88.297151,/Railroad Ave/Maple St
362,36.636024,-88.310250,N 12th St/Frontage Rd
579,36.602898,-88.318823,Irvan St/Sycamore St
579,36.599543,-88.307300,Broad St/Ellis Dr/Nash St
185,36.628607,-88.251087,Heather Ln/State Hwy 94
160,36.584901,-88.357197,Chickory Dr/Rippling Creek Dr
160,36.654187,-88.342139,State Hwy 80/
276,36.580561,-88.340680,Concord Dr/Country Rd
185,36.669925,-88.486888,State Hwy 1124
1563,36.621299,-88.322876,Valentine St/Waldrop Dr
1982,36.621293,-88.321806,Valentine St/Ic-8101E
472,36.623193,-88.330244,Lowes Dr
216,36.614273,-88.332103,Wells Exd/N 18th St/Monroe Ave
526,36.630977,-88.312325,N 12th St/Northwood Dr
185,36.590904,-88.300013,Ky-121
736,36.619998,-88.316963,Ic-8101A
160,36.742578,-88.297072,Roosevelt Rd
418,36.608382,-88.320101,Poplar St/Woodlawn Ave
160,36.647939,-88.421903,State Hwy 121/Potts Rd
185,36.658897,-88.487034,State Hwy 121/County Line Rd
305,36.609787,-88.299552,Maple St/S Lp Miller St
216,36.620298,-88.304976,Cs-1262/Cs-1260
216,36.742624,-88.299333,US Hwy 641/Roosevelt Rd/Wadesboro Rd
160,36.650362,-88.262768,State Hwy 80/Rowland Rd
160,36.618804,-88.308266,Cs-1279/
185,36.651861,-88.291611,State Hwy 80
160,36.680923,-88.316040,Gentle Dr/Metcalf Ln
160,36.505255,-88.328207,/Calloway St
160,36.645084,-88.216308,Rockwood Rd/Irvin Cobb Rd
605,36.617206,-88.308969,N 8th St/Chestnut St
160,36.646227,-88.261902,Kays Rd/Rowland Rd
160,36.620944,-88.304999,Cs-1262/Cs-1256
160,36.583847,-88.323783,Canterberry Dr
276,36.604468,-88.302268,Cross St/S 4th St
160,36.634842,-88.235557,State Hwy 94
8330,36.617680,-88.322137,Ic-8101I/Ic-8101H
160,36.587694,-88.338379,Oak Hill Dr/Larkspur Dr
185,36.617188,-88.334116,N 20th St/College Farm Rd
216,36.648958,-88.244747,State Hwy 80
160,36.618225,-88.408608,Jones Sparkman Rd
246,36.658686,-88.305538,Max Hurt Dr
160,36.645823,-88.323009,Poor Farm Rd
390,36.636010,-88.310149,Frontage Rd/E Frontage Rd
160,36.608241,-88.269019,Clayton Dr
160,36.698078,-88.303457,W Fork Rd/US Hwy 641/Almo Rd
185,36.603693,-88.301445,S 3rd St/Mulberry St
160,36.625545,-88.351745,Robertson Rd N
276,36.617936,-88.329065,N 17th St
246,36.602968,-88.325834,Richardson St/Sycamore St
865,36.612545,-88.316621,Olive Blvd/N 13th St/Olive St
160,36.616359,-88.298284,Ash St/N 1st St
160,36.583508,-88.286712,Camden Cir/Ky-121
216,36.598088,-88.320936,Meadow Ln/Oak St
160,36.675526,-88.322530,Walston Rd
3280,36.625097,-88.318991,/Wal-Mart Dr
160,36.584202,-88.321530,London Dr/Tabard Dr
160,36.605071,-88.299671,Garden St/S Lp Miller St
246,36.650577,-88.451911,State Hwy 121/Medye Ln
160,36.583809,-88.322650,Beckett Dr
2408,36.611193,-88.324399,N 16th St/Miller Ave
160,36.532348,-88.053393,Bayridge Rd/Bayridge Ct/Bay Ct
526,36.624918,-88.338138,Shady Oaks Ct/Cr-1500C
276,36.658684,-88.305719,N 12th St/Max Hurt Dr
445,36.593652,-88.308929,Bagwell Ct/Bagwell Dr
160,36.585223,-88.347458,Wiswell Rd W/Falwell Dr
160,36.613184,-88.285189,State Hwy 94
788,36.634526,-88.310392,Duiguid Rd/E Frontage Rd
1278,36.627445,-88.326367,Brooklyn Dr/
160,36.626082,-88.310714,Park Dr Lp/Park Dr
362,36.604416,-88.301411,S 3rd St/Cross St
246,36.583783,-88.320390,Oxford Dr
472,36.611899,-88.302988,N 5th St
160,36.660997,-88.216837,Warbler Ln/Purdom Rd
390,36.610627,-88.305849,S 7th St/N 7th St/Main St
160,36.652308,-88.321983,N Elementery Way
160,36.659019,-88.395884,Alex Forks Dr/Kirksey Rd
334,36.607974,-88.332092,Main St/N 18th St
160,36.582600,-88.319270,Spring Creek Dr/Garland Ct
160,36.581601,-88.326508,Whipporwill Dr/Whipporwill Cir
246,36.632158,-88.308466,Fleetwood Cir/Windsor Dr
185,36.594833,-88.342700,Edinborough Dr
160,36.636902,-88.370980,/Fairground Rd
216,36.717341,-88.299865,US Hwy 641/Stewart Cemetery Dr
276,36.607532,-88.305822,S 7th St/Elm St
246,36.616968,-88.329549,N 17th St/College Farm Rd
216,36.681922,-88.090911,Paradise Dr
185,36.736662,-88.316505,Justin Dr/Jamie Ln/Joseph Dr
160,36.582472,-88.328873,Martin Chapel Rd/Greenhills Dr
185,36.633414,-88.306992,Ritzcraft
305,36.601578,-88.312084,Pogue Ave
1772,36.620037,-88.320009,/Ic-8101F
445,36.634398,-88.317048,Red Oaks Apartments/Diuguid Dr
788,36.603701,-88.313020,10th St/S 11th St
185,36.579232,-88.338190,Kingswood Ln
160,36.595522,-88.306666,Broad St/Glendale Rd
891,36.627966,-88.324300,N 16th St/Campbell St
788,36.613136,-88.327197,Kentucky Ave/Hamilton Ave
216,36.607528,-88.304422,S 6th St/Elm St
246,36.657718,-88.305902,N 12th St
305,36.635516,-88.306196,N 4th St/Schutz Ave
185,36.599219,-88.392056,W Grove Dr/State Hwy 94
216,36.595541,-88.313457,Fairlane Dr/Glendale Rd
1304,36.606613,-88.326915,S Broach Ave/Locust St
160,36.580967,-88.322110,London Dr
246,36.612194,-88.332152,Olive St/N 18th St
736,36.628980,-88.312883,Frontage Rd
276,36.594755,-88.340476,Edinborough Dr/Gatesborough Cir
472,36.608185,-88.325193,Vaughn Dr/Poplar St
1746,36.625830,-88.325841,Rebecca Run/Lowes Dr/Murray Place Dr
160,36.588772,-88.460864,Scott Rd/Ky-94
185,36.606300,-88.451340,Browns Grove Rd/Squire Miller Rd
185,36.531814,-88.053900,Bayridge Ct
185,36.649461,-88.448534,State Hwy 121/Lamb Dr
216,36.733565,-88.296382,Fern Ln
160,36.663193,-88.211944,/Orion Ct/Graves Burkeen Ln
160,36.504239,-88.326601,Barnett St
160,36.646787,-88.340488,Bailey Rd/Poor Farm Rd
160,36.613134,-88.297045,Briggs & Stratton Rd
472,36.634650,-88.311059,Frontage Rd/Diuguid Dr
216,36.609810,-88.344122,Murray Estates Dr/Glenwood Dr
160,36.698053,-88.303147,US Hwy 641/Almo Rd
216,36.632084,-88.333514,Bailey Rd
160,36.646018,-88.317430,Poor Farm Rd
472,36.608807,-88.328074,Main St/Williams Ave
185,36.654254,-88.465028,State Hwy 121/Mark Duncan Ln
1407,36.605707,-88.313028,Vine St/S 11th St
185,36.529081,-88.236421,Providence Ln/New Providence Rd
160,36.596498,-88.405904,State Hwy 94/Butterworth Rd
160,36.544194,-88.325551,Huberts Ln
3503,36.619099,-88.322881,Ic-8101G/Waldrop Dr
216,36.605017,-88.300419,Garden St/S Cherry St
185,36.573981,-88.314795,/Brandon Ln
185,36.598510,-88.312815,Fairlane Dr/S 11th St
839,36.626731,-88.333041,General Grant Dr/Gettysburg Dr
813,36.601738,-88.315210,S 12th St/Pogue St
185,36.593414,-88.348069,Martin Dr
605,36.602693,-88.306383,Sycamore St/Ellis Dr
216,36.609713,-88.297475,Poplar St/Railroad Ave/Maple St
160,36.715666,-88.161588,Hico Rd/State Hwy 94
5138,36.612483,-88.321811,Olive Blvd/N 15th St
160,36.690695,-88.252671,Duncan Trl
185,36.620265,-88.331335,Sherry Ln
160,36.594234,-88.327882,Parklane Dr/Catalina Dr
160,36.528672,-88.129612,/Ky-121
276,36.635259,-88.307788,Schutz Ave/Fleetwood Cir
246,36.611611,-88.304440,Walnut St/N 6th St
160,36.652564,-88.359917,State Hwy 80
160,36.651766,-88.287954,State Hwy 80
216,36.615193,-88.332083,Calloway Ave/N 18th St
684,36.631524,-88.336374,Stanford Dr/Harvard Dr
526,36.615894,-88.327018,Kentucky Ave/Ryan Ave
160,36.621722,-88.305929,N 7th St/Cs-1263
160,36.650179,-88.260683,State Hwy 80
160,36.625025,-88.306429,Park Dr
631,36.625405,-88.337683,/Shady Oaks Ct
160,36.660380,-88.216137,Old Purdom Rd
499,36.629759,-88.333487,Bailey Rd
185,36.600915,-88.303004,Memory Ln/S 4th St
185,36.691676,-88.335862,Timber Ridge Dr/
185,36.656049,-88.306213,N 12th St
246,36.583796,-88.321531,London Dr
160,36.609708,-88.298205,Maple St
160,36.730838,-88.296874,Radio Rd/Sunset Dr
160,36.538332,-88.127221,Cr-1190-20/Jim Wilson Rd
160,36.501617,-88.106985,Lax Dr/Ky-121
216,36.607628,-88.334451,State Hwy 94/Main St
160,36.731952,-88.126343,Tina Dr
445,36.621653,-88.334101,N 20th St
216,36.507564,-88.326250,W Main St
605,36.611629,-88.302062,Walnut St/N 4th St
1097,36.610269,-88.325970,N Broach Ave/Farmer Ave
246,36.535742,-88.208025,Glendenmere Ln
1693,36.615181,-88.316636,N 13th St/Payne St
305,36.601280,-88.326556,Cardinal Dr/Blair St
160,36.514891,-88.326036,US Hwy 641/Brandon Rd
185,36.652413,-88.392959,State Hwy 80
246,36.607745,-88.333592,S 18th St/Main St
185,36.621814,-88.308940,/Gil Hobson Dr
579,36.607304,-88.313032,S 11th St
160,36.595312,-88.411544,Furches Trl/State Hwy 94
185,36.585299,-88.293705,Murray-Paris Rd/Ky-121
246,36.504226,-88.325917,E Main St/Cs-2007/Main St/Barnett St
185,36.621511,-88.309159,/Gil Hobson Dr
160,36.687295,-88.341168,Denny Ln
160,36.578129,-88.342178,Gibbs Store Rd
445,36.606589,-88.323790,Locust St
160,36.499182,-88.096597,Cypress Harbor Ct/Cr-1239A2
160,36.585175,-88.315019,US Hwy 641/Tabard Dr
1667,36.623388,-88.318908,Ic-8101B
160,36.638300,-88.385426,State Hwy 121/Red Trl
362,36.587017,-88.318639,Chaucer Dr/Spring Hill Ct
160,36.517472,-88.388518,/Hub Erwin Rd
160,36.604966,-88.286581,Old Salem Rd
390,36.611617,-88.299512,Walnut St/N Lp Miller St
216,36.617092,-88.332022,N 18th St/College Farm Rd
160,36.670850,-88.199668,State Hwy 80
216,36.589404,-88.333550,S 18th St/Azalea Dr
160,36.588826,-88.458747,Kelso Rd/Ky-94
334,36.606243,-88.302159,S 4th St
185,36.689364,-88.341172,Chaden Ln/Turkey Ln
579,36.625542,-88.338011,Shady Oaks Ct
160,36.655061,-88.333542,/Grant Rd
160,36.596260,-88.478896,Hutchins Rd/Watson Rd
216,36.624112,-88.339116,State Hwy 121/Shady Oaks Dr
2678,36.625587,-88.326609,Rebecca Run/Daniel Way
160,36.725125,-88.118387,Elizabeth Ln
362,36.600431,-88.308153,Story Ave
736,36.602699,-88.319620,Stone Ridge Ln
552,36.606944,-88.311876,S 10th St
160,36.569428,-88.171860,Speaker Trl
160,36.598424,-88.074476,Dunbar Rd
185,36.619818,-88.307095,Beale St/Cs-1271
334,36.600110,-88.306369,Riley Ct/Ellis Dr
185,36.581404,-88.358159,Saratoga Dr
160,36.577596,-88.272412,Lynnwood Dr/Arbor Dr
839,36.622009,-88.331229,State Hwy 121/Coldwater Rd
160,36.681816,-88.089885,Leisure Acres Ln/Paradise Dr
246,36.596057,-88.341434,Brookhaven Dr
216,36.580891,-88.348369,Sherwood Dr
216,36.604824,-88.333612,S 18th St
185,36.505265,-88.327103,4th St/Calloway St
160,36.655420,-88.333590,State Hwy 80/
552,36.629604,-88.311811,Southwood Dr
185,36.582504,-88.340976,Camelot Dr/Lancelot Dr
160,36.660486,-88.227585,Purdom Rd
160,36.688137,-88.308330,Timberwolf Dr/Wrather Rd
246,36.645813,-88.323276,Poor Farm Rd
160,36.619245,-88.309090,N 8th St/Arcadia Cir
216,36.628726,-88.303400,Northwood Dr
276,36.603720,-88.300538,Mulberry St/S Cherry St
1459,36.610026,-88.323296,Ic-8101
216,36.676275,-88.395805,Norsworthy Rd/Kirksey Rd
276,36.579385,-88.271025,Mint Dr/Astor Dr
305,36.604187,-88.324418,S 16th St/Sunset Dr
1929,36.626292,-88.325088,Brittnay Ridge Apartment
4845,36.616596,-88.321564,Chestnut St
185,36.500450,-88.327284,State Str
160,36.654438,-88.317866,State Hwy 80
390,36.615426,-88.299546,Pine St
605,36.617455,-88.301179,N 3rd St/Chestnut St
788,36.625137,-88.333500,Bailey Rd
216,36.658624,-88.480429,State Hwy 121/Sand Lick Rd
185,36.622776,-88.249582,Scenic Acres Dr/Cr-1122G
160,36.599285,-88.350009,Birnamwood Ln/Woodgate Dr/Nancy Dr
185,36.672834,-88.320277,Stoneside Dr
185,36.588250,-88.324058,Oxford Dr/Cs-1191
216,36.690870,-88.246601,Duncan Trl/Peeler Rd
499,36.600066,-88.318902,Shady Ln/Story Ave
362,36.633130,-88.311315,N 12th St/Center Dr
160,36.624511,-88.253957,Pottertown Rd
390,36.635518,-88.315831,Crystal Brook Ln
1304,36.602831,-88.314695,/Sycamore St
305,36.595621,-88.317621,Whitnell Ave/Glendale Rd
246,36.601498,-88.306353,Ellis Dr/Lafollette Dr
305,36.629327,-88.306545,Northwood Dr/Mur-Cal Apartment
1278,36.627985,-88.325275,Chris Dr/Campbell St
160,36.739024,-88.299380,US Hwy 641
185,36.602113,-88.301590,S 3rd St/Sycamore Industrial Rd
362,36.652044,-88.306130,State Hwy 80
160,36.726908,-88.176157,Palestine Church Rd
185,36.589964,-88.321067,Clayshire Dr/Roberson St/Kirkwood Dr
246,36.583216,-88.334419,Deepwood Dr
216,36.528897,-88.236526,Ky-893/New Providence Rd
185,36.647922,-88.443252,State Hwy 121/
1563,36.629981,-88.313141,Frontage Rd/Stadium View Dr
552,36.617427,-88.338911,College Farm Rd
2868,36.617685,-88.322896,Ic-8101H/Waldrop Dr
499,36.631093,-88.312622,Frontage Rd/Northwood Dr
160,36.690533,-88.253752,Duncan Trl
185,36.592662,-88.324333,Catalina Dr/S 16th St
160,36.598975,-88.301115,/Woods Rd
362,36.598136,-88.329091,Audubon Dr/S 17th St
1304,36.631379,-88.334565,Vassar Dr/Cs-1220/Stanford Dr
160,36.624295,-88.205945,Pottertown Rd/Hidden Hills Ln
305,36.502302,-88.325886,Main St/Center St
418,36.612655,-88.302987,N 5th St/Olive St
246,36.610611,-88.297096,/Main St
917,36.612531,-88.319974,Olive Blvd/N 14th St
160,36.639148,-88.152720,Geurin Rd
216,36.594833,-88.342046,Edinborough Dr/County Cork Dr
445,36.653038,-88.306713,N 12th St
246,36.603414,-88.302434,S 4th St/Sycamore St
246,36.663058,-88.304897,/US Hwy 641
185,36.581508,-88.322119,Oxford Dr/London Dr/Canterberry Dr
160,36.597193,-88.343260,Carol Dr
499,36.630199,-88.312327,E Frontage Rd
1174,36.605670,-88.315214,Vine St/S 12th St
160,36.619352,-88.307810,Cs-1273
1877,36.626072,-88.324318,N 16th St/Lowes Dr
160,36.663612,-88.211673,State Hwy 80/
160,36.576002,-88.123387,Dunbar Rd
216,36.602091,-88.351947,Robertson Rd S
499,36.611926,-88.302067,N 4th St
246,36.716671,-88.300314,US Hwy 641
185,36.590243,-88.324350,S 16th St/Fox Meadow Dr
185,36.602709,-88.304381,S 6th St/Sycamore St
160,36.734719,-88.295542,Obryan Cir/Toskana
160,36.551604,-88.324074,Tobacco Rd/US Hwy 641/Midway Rd
1149,36.621816,-88.328984,/State Hwy 121
4670,36.625836,-88.327453,Murray Place Blvd/Murray Place Dr
160,36.505242,-88.325798,Calloway St/Old Main St
185,36.599101,-88.320913,Meadow Ln/Johnson Blvd
160,36.652610,-88.395909,State Hwy 80/Kirksey Rd
185,36.692901,-88.304144,Flint Ct
160,36.620775,-88.270613,State Hwy 94/Van Cleave Rd
185,36.654419,-88.306493,N 12th St
185,36.639226,-88.324292,N 16th St
185,36.734297,-88.170579,State Hwy 80
160,36.596501,-88.306653,Broad St/Goodman St
246,36.596040,-88.329106,S 17th St/Catalina Dr
160,36.741145,-88.164803,State Hwy 80/Burkeen Rd
246,36.625106,-88.345285,Astoria Ct
185,36.590118,-88.326448,Fox Meadow Dr
160,36.597405,-88.342109,Elmbrook Ln
4353,36.618568,-88.320005,Ic-8101G/Ic-8101H-30 X
334,36.601290,-88.328311,Lynnwood Ct/Cardinal Dr
160,36.646023,-88.317310,Blackbird Ln/Poor Farm Rd
246,36.735139,-88.299423,US Hwy 641/Wind Dr/Charlie Miller Rd
160,36.649613,-88.237533,State Hwy 80/Miller Cemetery Rd
216,36.504726,-88.326247,E Main St
1433,36.609994,-88.315224,S 12th St/Embassy Apartment
891,36.625278,-88.331700,Taylor Dr
736,36.624855,-88.337256,Covey Dr/Shady Oaks Ct
216,36.622588,-88.299270,Solar Dr
160,36.613094,-88.296225,Briggs & Stratton Rd
160,36.641050,-88.403311,State Hwy 121//Stella Dr
185,36.632474,-88.370235,State Hwy 121/Fairground Rd
276,36.597090,-88.319810,Sunny Ln/Henry St
185,36.595381,-88.303948,S 4th St/Glendale Rd
160,36.715725,-88.413636,Beach Rd/Cavett Rd
1278,36.610423,-88.316617,N 13th St/Main St
216,36.601546,-88.351961,Robertson Rd S
9558,36.617709,-88.321539,Ic-8101H
185,36.588428,-88.324345,Oxford Dr/Wiswell Rd W/S 16th St
160,36.500400,-88.300823,Murray-Paris Rd
185,36.598115,-88.322370,Oak St
418,36.610613,-88.304438,S 6th St/N 6th St/Main St
865,36.602930,-88.321885,S 15th St/Sycamore St
160,36.634276,-88.324305,N 16th St/Diuguid Dr
216,36.511467,-88.326106,US Hwy 641/Lavender St/W Main St
246,36.618485,-88.351917,Jones Sparkman Rd
246,36.600430,-88.309319,S 8th St Exd/Story Ave
1278,36.623526,-88.318604,Ic-8101A/Ic-8101B
472,36.602342,-88.318768,Shady Ln
216,36.598541,-88.307924,Fairlane Dr/Guthrie Dr
160,36.623972,-88.487511,County Line Rd
1615,36.629800,-88.334628,Welch Dr
160,36.686135,-88.291039,Boggess Dr/
160,36.618792,-88.307924,/Cs-1275
246,36.530997,-88.324743,US Hwy 641/Green Plain Rd
305,36.609886,-88.305851,S 7th St/Maple St
390,36.622741,-88.316507,Ic-8101A/
185,36.602599,-88.351934,Robins Ct/Robertson Rd S
185,36.636680,-88.309892,E Frontage Rd
160,36.592841,-88.318163,Dogwood Dr W/Dogwood Dr E/Crestwood Pl
246,36.579452,-88.272414,Lynnwood Dr/Mint Dr
160,36.511770,-88.322137,Meyers St
216,36.676713,-88.301878,Boggess Dr/Radio Rd
445,36.624095,-88.309997,/Gil Hopson Dr
390,36.610611,-88.299536,N Lp Miller St/Main St/S Lp Miller St
362,36.601298,-88.328788,Cardinal Dr
216,36.514284,-88.060848,Kline Trl/Spencer Dr
185,36.584271,-88.327321,Bluebird Dr/Tabard Dr
2977,36.617636,-88.322897,Waldrop Dr
216,36.581152,-88.336209,Valley Dr
684,36.607051,-88.310675,S 9th St
160,36.690772,-88.271014,Elm Grove Rd/Almo Rd
499,36.614162,-88.327131,College Ter/Kentucky Ave
472,36.602699,-88.305629,S 7th St/Sycamore St
216,36.590126,-88.325909,Fox Meadow Dr
160,36.628933,-88.423768,Lonesome Ln
160,36.720763,-88.360785,Tidwell Rd/Airport Rd
216,36.632561,-88.204265,/Rockwood Rd
160,36.588319,-88.332014,Hermitage Pl/Wiswell Rd W
160,36.603143,-88.301466,Back St/S 3rd St
160,36.654071,-88.342940,State Hwy 80/Hale Rd
216,36.595534,-88.310628,S 9th St/Glendale Rd
216,36.586672,-88.325639,Coach Estates Dr
418,36.629349,-88.328866,Chris Dr
160,36.650945,-88.453840,State Hwy 121
185,36.588300,-88.320201,Mildred St
499,36.608410,-88.318832,Poplar St/Irvan St
362,36.616145,-88.305903,Ash St/N 7th St
334,36.601704,-88.313035,Pogue St/S 11th St
160,36.511514,-88.323286,3rd St/Lavender St
305,36.601285,-88.327081,Cardinal Dr/Blair St
246,36.653630,-88.306621,N 12th St/Squire Holland Rd
160,36.617275,-88.296751,Chestnut St
246,36.601277,-88.325807,Cardinal Dr/Richardson St
276,36.592682,-88.332125,Melrose Dr/Melrose Ct
185,36.591866,-88.324368,S 16th St
160,36.638180,-88.385117,State Hwy 121
160,36.638593,-88.318597,Utterback Rd
160,36.599907,-88.345789,Lee St
246,36.716462,-88.300049,US Hwy 641
185,36.619367,-88.305922,N 7th St/Cs-1273
160,36.728380,-88.299197,US Hwy 641
390,36.617615,-88.342873,/College Farm Rd
160,36.653036,-88.351735,State Hwy 80/Graham Rd
160,36.502215,-88.319863,State Line Rd E
216,36.589063,-88.333544,S 18th St
160,36.585048,-88.281794,Meadow Green Cir/Applewood Rd
160,36.647321,-88.438972,Higgins Dr
1278,36.623886,-88.318691,Ic-8101A/State Hwy 121//Wal-Mart Dr
276,36.610616,-88.297369,Main St
305,36.614309,-88.299546,N Lp Miller St/Spruce St
160,36.620237,-88.351768,Robertson Rd N
1020,36.626686,-88.333488,Bailey Rd
160,36.587036,-88.320372,Oxford Dr/Chaucer Dr
160,36.673234,-88.326012,Seth Ln
1824,36.622708,-88.324332,State Hwy 121/N 16th St
736,36.620070,-88.318193,Gilbert Graves Dr/Racer Dr/Gilbert Grave S Dr
472,36.602891,-88.316663,S 13th St/Sycamore St
185,36.634254,-88.320581,/Diuguid Dr
185,36.599905,-88.374336,Haynes Creek Dr/Wildwood Dr
185,36.591512,-88.324200,Belmont Dr
390,36.619928,-88.302035,N 4th St/Andrus Dr
472,36.625707,-88.338308,/Shady Oaks Ct
246,36.507428,-88.326263,E W Miller St/W Main St
160,36.726934,-88.176469,State Hwy 80/Palestine Church Rd
160,36.638787,-88.314926,Utterback Rd
526,36.621213,-88.334105,N 20th St
246,36.659427,-88.305579,N 12th St
160,36.650194,-88.262763,State Hwy 80/Rowland Rd
2542,36.610728,-88.321816,N 15th St/University Dr
1693,36.609499,-88.323258,Ic-8101/Main St
631,36.625496,-88.337683,Shady Oaks Ct
216,36.587785,-88.311669,Cs-1195/Riverwood Rd
160,36.661638,-88.138724,Rowlett Trl/Liberty Rd/Irvin Cobb Rd
160,36.586931,-88.325924,Coach Estates Dr
160,36.516542,-88.326010,US Hwy 641
185,36.734056,-88.295547,Easy St/Toskana
160,36.580716,-88.272405,Lynnwood Dr/Ky-121
2009,36.625624,-88.325063,Forest View Apartment
185,36.701949,-88.360887,W Fork Rd/Kirksey Almo Rd/Airport Rd
185,36.605869,-88.303123,/Vine St
160,36.738809,-88.299073,US Hwy 641
276,36.596508,-88.309248,Bagwell Blvd/Goodman St
185,36.589450,-88.324357,S 16th St/Fox Meadow Dr
185,36.634051,-88.374411,State Hwy 121
216,36.652495,-88.460671,State Hwy 121
160,36.544223,-88.325348,US Hwy 641/Madrey Ln
305,36.622606,-88.333502,Bailey Rd/State Hwy 121
1511,36.608310,-88.323147,Poplar St/Brentwood Ave
1329,36.620062,-88.319732,Racer Dr/Ic-8101F
160,36.531997,-88.053023,Bay Ct
246,36.651033,-88.451873,/Medye Ln
160,36.592213,-88.302330,River Rd/S 4th St
216,36.599921,-88.305130,Sunbury Cir
968,36.610586,-88.302078,N 4th St/Main St/S 4th St
526,36.612654,-88.302078,N 4th St/Olive St
305,36.627901,-88.347241,Graham Rd
579,36.618789,-88.329055,Dodson St/N 17th St
418,36.618640,-88.326630,Coldwater Rd
160,36.593809,-88.087119,Dunbar Rd
1719,36.615226,-88.315135,N 12th St/Payne St
160,36.505142,-88.081439,Newman Dr/McNutt Way
216,36.599002,-88.319748,Sunny Ln/Johnson Blvd
185,36.585811,-88.335571,Ridgewood Dr/Westwood Dr
160,36.618566,-88.307781,Cs-1278/Harrison St
390,36.614234,-88.329589,College Ter/N 17th St
185,36.596058,-88.342054,County Cork Dr/Brookhaven Dr
216,36.583202,-88.333438,Deepwood Dr
216,36.602719,-88.303841,Sycamore St/S 6th St Exd
160,36.597845,-88.073438,Dunbar Rd/Bluepine Dr
185,36.619032,-88.307783,Cs-1274/Cs-1278
216,36.619549,-88.304983,Cs-1262/Cs-1259/Roosevelt St/Cs-1256
305,36.622859,-88.310015,Gil Hobson Dr/Gil Hopson Dr
216,36.613151,-88.329593,Hamilton Ave/N 17th St
917,36.631705,-88.334563,Cs-1220
185,36.505422,-88.083010,Newman Dr
917,36.628909,-88.336393,Cs-1218
390,36.503304,-88.325855,Main St/Dees St
246,36.681414,-88.091376,Paradise Dr
185,36.744107,-88.299012,US Hwy 641
185,36.575418,-88.415436,Wiswell Rd W
305,36.597180,-88.319808,Sunny Ln
526,36.628499,-88.307650,Southwood Dr/Park Dr
334,36.616371,-88.301197,Ash St/N 3rd St
246,36.617262,-88.307106,Beale St/Chestnut St
216,36.583951,-88.336667,Greenbriar Dr/Oak Hill Dr S
4095,36.616721,-88.324383,N 16th St/Coldwater Rd/Chestnut St/College Farm Rd
185,36.651668,-88.298168,State Hwy 80
216,36.735136,-88.299118,US Hwy 641/Wind Dr
216,36.633129,-88.310959,Fleetwood Cir/E Frontage Rd
185,36.702154,-88.329484,W Fork Rd/Short Rd
160,36.743236,-88.296860,Radio Rd
276,36.579691,-88.340647,Concord Dr/Southwest Dr
185,36.674571,-88.196773,State Hwy 80/Cassidy Ln
185,36.581888,-88.319264,Spring Creek Dr
160,36.621264,-88.309450,/Gil Hobson Dr
1433,36.629195,-88.335771,Welch Dr
605,36.619180,-88.327106,/Parks St
362,36.624733,-88.309778,Gil Hopson Dr
305,36.593311,-88.315294,S 12th St
943,36.621897,-88.331016,Coldwater Rd
160,36.606926,-88.340651,Crossfield Dr
185,36.591121,-88.324359,S 16th St/Belmont Dr
160,36.620771,-88.307783,Cs-1278/Cs-1270
160,36.583878,-88.355541,/Angelia Dr
160,36.711089,-88.183907,State Hwy 80
185,36.587754,-88.333532,S 18th St/Wiswell Rd W/Doran Rd S
160,36.693739,-88.278163,5th St/Almo Rd
246,36.602971,-88.333625,S 18th St/Sycamore St
160,36.505243,-88.325936,Calloway St
185,36.501340,-88.327253,4th St/Gilbert St W
185,36.663073,-88.478387,State Hwy 80/Haskins Ln
160,36.681393,-88.448304,Asbury Cemetery Rd
160,36.582945,-88.331825,Hermitage Pl
185,36.604563,-88.316508,S 13th St/Overby St
216,36.619524,-88.305920,N 7th St/Roosevelt St
160,36.670733,-88.303343,US Hwy 641
390,36.652193,-88.306206,State Hwy 80
185,36.652085,-88.387792,State Hwy 80/Peach Orchard Rd
1278,36.627003,-88.326227,Tiffany Ln/Campbell St
246,36.504230,-88.325807,Cs-2007/Old Main St/Barnett St
185,36.524643,-88.325820,/US Hwy 641/Lawring Dr
160,36.667148,-88.190515,Faxon Rd/Turner Rd
160,36.628015,-88.353703,State Hwy 121
216,36.583225,-88.335009,Deepwood Dr/Ridgewood Dr
185,36.617311,-88.305904,N 7th St/Chestnut St
246,36.610194,-88.351910,Robertson Rd N
994,36.630885,-88.333512,Bailey Rd/Wilshire Dr
216,36.604507,-88.318155,Overby St
246,36.585042,-88.337420,Oak Hill Dr S/Westwood Dr
160,36.725014,-88.118810,Elizabeth Ln/Anderson Shore Dr
216,36.601392,-88.298223,Shelter Ln
499,36.614784,-88.302100,Pine St/N 4th St
276,36.612712,-88.300372,N Cherry St/Olive St
362,36.610644,-88.296262,Main St/Industrial Rd
160,36.685820,-88.328813,Short Rd
160,36.620168,-88.309982,Gil Hobson Dr/Gil Hopson Dr
185,36.536985,-88.303723,White Oak School Ln/Murray-Paris Rd
276,36.592645,-88.337461,Melrose Dr/Westgate Dr
788,36.602750,-88.310591,S 9th St/Sycamore St
185,36.620590,-88.305905,Adams St/N 7th St
160,36.696802,-88.191066,State Hwy 80
552,36.629597,-88.307548,Northwood Dr/Valleywood Dr
762,36.627532,-88.333499,Megan Dr/Bailey Rd
185,36.741220,-88.295208,Church St/Sycamore St
160,36.674120,-88.319369,Karnes Ct/Sheba Dr
216,36.649145,-88.244757,State Hwy 80
160,36.698104,-88.303881,/W Fork Rd
472,36.608392,-88.319478,Poplar St/S 14th St
305,36.611222,-88.329611,Miller Ave/N 17th St/Miller St
216,36.500449,-88.327157,Ally/State Str
246,36.662728,-88.304959,US Hwy 641
160,36.585014,-88.318051,Tabard Dr
710,36.624900,-88.337711,Shady Oaks Ct/Cr-1500C
8394,36.618855,-88.321454,Ic-8101H/N 15th St
185,36.665717,-88.486943,State Hwy 80
160,36.582319,-88.281878,Applewood Rd/Locust Grove Rd/Ky-121
305,36.602965,-88.324419,S 16th St/Sycamore St
390,36.619156,-88.311867,N 10th St/Arcadia Cir
1563,36.629149,-88.326162,Chris Dr/Tiffany Ln
472,36.608595,-88.329237,Main St/Hickory Ave
160,36.618072,-88.423950,Adams Dr/Old Lynn Grove Rd
305,36.586875,-88.318145,Chaucer Dr/Sandy Pine Dr
216,36.734998,-88.299120,US Hwy 641
185,36.656589,-88.430131,State Hwy 80
499,36.605881,-88.305623,Vine St/S 7th St
185,36.546899,-88.152576,Bluebell Cir/Ky-121
216,36.581851,-88.279980,Ky-121/Shropshire Dr
334,36.598630,-88.329091,The Lane/S 17th St
762,36.608025,-88.326906,Poplar St/S Broach Ave
276,36.584830,-88.333420,Doran Rd S
445,36.652080,-88.306862,State Hwy 80/N 12th St
1174,36.608721,-88.315221,S 12th St
1877,36.609351,-88.324399,N 16th St/Main St/S 16th St
160,36.606669,-88.297530,Old Concord Rd
216,36.603619,-88.351920,Austin Ct/Robertson Rd S
185,36.580556,-88.336229,Country Rd/Valley Dr
160,36.646980,-88.208574,Grove Ln
160,36.586913,-88.335556,Wiswell Rd W/Fleetwood Dr
160,36.603408,-88.365974,State Hwy 94/Gregory Ln
160,36.585819,-88.351836,Robertson Rd S
216,36.634487,-88.305328,N 4th St
246,36.617210,-88.334628,College Farm Rd
160,36.607934,-88.355122,Hunters Horn/Turnbridge Dr
185,36.591386,-88.324361,S 16th St
185,36.651661,-88.291638,State Hwy 80
216,36.632948,-88.311029,Riviera Ct/E Frontage Rd
185,36.593687,-88.340514,Berkshire Ct
499,36.608514,-88.329635,Main St/N 17th St
276,36.608151,-88.340401,Jameswood Dr/Birchwood Dr
3447,36.611640,-88.315212,N 12th St
160,36.579255,-88.342169,Gibbs Store Rd
1123,36.610256,-88.324379,N 16th St/Farmer Ave
185,36.673338,-88.302592,US Hwy 641
160,36.584086,-88.289976,Creek Side Ln
160,36.590514,-88.135269,Hillcrest Dr
813,36.624870,-88.331703,Logan Dr/Taylor Dr
160,36.644242,-88.134186,Highview Ln
160,36.615593,-88.308476,N 8th St/Payne St
1200,36.610595,-88.324383,N 16th St/University Dr
160,36.690457,-88.254064,Duncan Trl
160,36.659255,-88.465289,State Hwy 80
305,36.614027,-88.308507,N 8th St/Sharpe St
185,36.652353,-88.311149,State Hwy 80/
579,36.629901,-88.333488,Bailey Rd
526,36.602897,-88.317671,Whitnell Ave/Sycamore St
216,36.735002,-88.299425,US Hwy 641
813,36.629249,-88.312754,Frontage Rd
160,36.614451,-88.281506,State Hwy 94
216,36.657547,-88.305934,N 12th St
994,36.612136,-88.326959,Olive St
160,36.630762,-88.363972,State Hwy 121/Wallace Dr
160,36.683857,-88.299406,Sue Ln/Radio Rd
160,36.597505,-88.073552,Mussel Ln
185,36.621307,-88.307785,Cs-1279/Cs-1278
246,36.514852,-88.061788,Spencer Dr
160,36.652554,-88.360489,State Hwy 80/Airport Rd
605,36.605884,-88.304394,Vine St/S 6th St
160,36.586467,-88.338311,Oak Hill Dr/Oakhill Ct
185,36.680935,-88.314103,Gentle Dr/North Dr
160,36.558898,-88.321223,Barber Dr/US Hwy 641
160,36.636987,-88.317338,Haven Meadow Ct
216,36.667846,-88.203897,State Hwy 80/Ky-94C
185,36.601560,-88.310602,S 9th St/Pogue Ave
246,36.594227,-88.340094,Gatesborough Cir/Berkshire Ct
276,36.596190,-88.318850,Dudley Dr
472,36.608332,-88.321898,Poplar St/S 15th St
160,36.553576,-88.479462,Protemus Rd/Killdeer Trl/Howard Rd
185,36.661989,-88.475022,State Hwy 80
160,36.582151,-88.255681,Old Salem Rd
276,36.617619,-88.343227,College Farm Rd
3391,36.616724,-88.324761,College Farm Rd
160,36.504439,-88.081918,Lakeview Cabins Dr/Shoreline Dr
160,36.582364,-88.322388,Beckett Dr
160,36.590779,-88.141796,Willis Dr/Lakeway Dr
362,36.623848,-88.338132,State Hwy 121/Shady Oaks Ct
160,36.621069,-88.270098,State Hwy 94
160,36.585339,-88.343766,Wiswell Rd W
160,36.647946,-88.438981,State Hwy 121/Higgins Dr
185,36.591510,-88.324362,S 16th St/Belmont Dr
9591,36.617717,-88.321323,Ic-8101G/Ic-8101H
160,36.574086,-88.315177,US Hwy 641/Brandon Ln
216,36.598542,-88.307832,Fairlane Dr/Guthrie Dr
762,36.602904,-88.320102,Woodlawn Ave/Sycamore St
1641,36.623165,-88.320650,Ic-8101D
362,36.592632,-88.338570,Oak Hill Dr/Melrose Dr
216,36.605648,-88.316510,Vine St/S 13th St
216,36.585551,-88.331910,Greenbriar Dr/Hermitage Pl
160,36.591590,-88.315274,S 12th St/Peggy Ann Dr
185,36.656094,-88.324205,State Hwy 80/N 16th St
216,36.642573,-88.308840,N 12th St
185,36.511528,-88.322122,Lavender St/Meyers St
216,36.504250,-88.324788,3rd St/Barnett St
246,36.612522,-88.287803,State Hwy 94
160,36.619589,-88.307780,Cs-1272/Cs-1278
216,36.621610,-88.342890,Country Club Ln
160,36.600608,-88.347876,Traci Dr
160,36.676608,-88.395803,/Kirksey Rd
445,36.612601,-88.301260,N 3rd St
276,36.596887,-88.309162,Bagwell Blvd/Goodman St
160,36.559123,-88.306069,Dodd Rd/Murray-Paris Rd
160,36.590496,-88.141002,Lakeway Dr/Wickham Dr
160,36.505272,-88.326491,Calloway St/E Main St/W Main St
160,36.612633,-88.308491,N 8th St/Olive St
160,36.738729,-88.295058,Walnut St/Vine St
160,36.587556,-88.257744,Countryside Dr
1174,36.605437,-88.321894,Vine St/S 15th St
305,36.596173,-88.320972,Dudley Dr/Meadow Ln
185,36.674618,-88.196995,State Hwy 80/Cassidy Ln
246,36.672889,-88.319249,Stoneside Dr/Sheba Dr
216,36.727703,-88.299208,US Hwy 641/Sunset Dr
2786,36.615053,-88.319992,Payne St/N 14th St
246,36.582468,-88.343819,Camelot Dr/Merlin Dr
185,36.587066,-88.322063,London Dr/Chaucer Dr
418,36.599602,-88.306524,Riley Ct/Ellis Dr
216,36.717374,-88.300167,US Hwy 641/Stewart Cemetery Dr
1252,36.627431,-88.326206,Brooklyn Dr/Tiffany Ln
216,36.662443,-88.305012,US Hwy 641
445,36.600051,-88.317737,Whitnell Ave/Story Ave
160,36.638678,-88.317020,Utterback Rd/Cs-1223
160,36.608986,-88.347903,Hal Dr/Grayson Dr
160,36.529092,-88.238884,Christian Ln/Rome Ln
185,36.600971,-88.305468,Memory Ln
160,36.632412,-88.306510,Fleetwood Cir/Shasta Ln
185,36.614323,-88.296081,Industrial Rd/Spruce St
276,36.596868,-88.324364,Richland Dr/S 16th St
160,36.617687,-88.379600,Jones Sparkman Rd/Rob Mason Rd
246,36.606627,-88.324444,S 16th St/Locust St
160,36.649978,-88.260352,State Hwy 80
276,36.635550,-88.317273,Haven Meadow Ct/Crystal Brook Ln
3643,36.630650,-88.326004,Campus Suits Blvd
185,36.601386,-88.382489,State Hwy 94
160,36.646296,-88.317123,Oppurtunity Dr
1020,36.626858,-88.333495,Bailey Rd/Gettysburg Dr
160,36.584856,-88.351750,Robertson Rd S
246,36.622994,-88.334953,State Hwy 121
160,36.606638,-88.297187,Old Concord Rd/Railroad Ave
160,36.598112,-88.073929,Dunbar Rd
445,36.618842,-88.326870,Dodson St/Coldwater Rd
216,36.729710,-88.299184,US Hwy 641
185,36.600615,-88.348110,Traci Dr
160,36.651197,-88.271867,State Hwy 80/Bethel Rd
246,36.612639,-88.307861,Olive St
160,36.581349,-88.314811,US Hwy 641
160,36.693755,-88.278783,4th St/Almo Rd/2nd St
185,36.607539,-88.302958,S 5th St/Elm St
216,36.598756,-88.311657,Earl Ct/Fairlane Dr
160,36.645837,-88.322592,Poor Farm Rd
185,36.683480,-88.255041,Temple Hill Rd
185,36.514341,-88.062423,Kitty Ln
185,36.497987,-88.088303,Cypress Trl
216,36.581554,-88.280015,Shropshire Dr
160,36.596073,-88.343343,Brookhaven Dr/Carol Dr
968,36.619875,-88.327349,/Parks St
185,36.619215,-88.310021,Arcadia Cir/Gil Hopson Dr
160,36.619353,-88.307779,Cs-1278/Cs-1273
839,36.625563,-88.333039,Lee Dr/Gettysburg Dr
994,36.621512,-88.330415,Coldwater Rd/N 18th St
276,36.614332,-88.294161,Spruce St
160,36.597173,-88.322843,Henry St/Oak St
160,36.666641,-88.486931,State Hwy 1124
552,36.593265,-88.306688,Broad St
762,36.620204,-88.318195,Gilbert Graves Dr
1149,36.630229,-88.336364,Princeton Dr/Harvard Dr
216,36.599810,-88.305646,Riley Ct
185,36.596926,-88.303693,River Rd/S 4th St
305,36.610613,-88.297201,Main St
160,36.536292,-88.208884,Shoemaker Rd
216,36.581868,-88.349341,King Dr
160,36.668766,-88.318077,White Eagle Dr/Jordyn Bailey Dr/Drew Dr
1355,36.612130,-88.325948,N Broach Ave/Olive St
216,36.501334,-88.326835,Ally/Gillbert
334,36.623047,-88.310012,/Gil Hopson Dr
160,36.587772,-88.323764,Oxford Dr/Canterberry Dr
334,36.604421,-88.300538,Cross St/S Cherry St
185,36.616837,-88.276304,Maplewood Cir
160,36.656415,-88.306145,N 12th St/
185,36.504237,-88.327132,4th St/Barnett St
216,36.636679,-88.317346,Haven Meadow Ct/Mission Valley Dr
185,36.643141,-88.308719,N 12th St/Schwartz Rd
160,36.612175,-88.329604,Olive St/N 17th St
2759,36.626085,-88.326611,Rebecca Run/Daniel Way
216,36.712014,-88.300981,US Hwy 641
185,36.614770,-88.305909,Pine St/N 7th St
943,36.624091,-88.314837,State Hwy 121/N 12th St
246,36.617550,-88.307110,Beale St/Cs-1280
185,36.609816,-88.347768,Mitchell Dr
160,36.523564,-88.117896,Ky-121
839,36.617502,-88.340395,/College Farm Rd
276,36.623492,-88.333507,Bailey Rd
160,36.498628,-88.096950,Cypress Harbor Ct/Cr-1239A2
1459,36.627050,-88.326781,Campbell St
1667,36.616896,-88.319251,Chestnut St
216,36.620144,-88.271709,State Hwy 94/Garland Ln
160,36.654759,-88.333522,Grant Rd
216,36.599032,-88.311677,Earl Ct
160,36.614975,-88.164106,Poplar Springs Rd
160,36.645876,-88.321456,Poor Farm Rd
160,36.624111,-88.487508,Browns Grove Rd/County Line Rd
1746,36.620630,-88.318532,Ic-8101A/Gilbert Graves Dr
160,36.649801,-88.237563,/State Hwy 80/Miller Cemetery Rd
160,36.579668,-88.342149,Southwest Dr/Gibbs Store Rd
185,36.656737,-88.430177,State Hwy 80
160,36.639127,-88.153366,Skylark Rd/Geurin Rd
334,36.610625,-88.310697,S 9th St/Main St/N 9th St
160,36.690307,-88.328533,Short Rd/Wrather Rd
305,36.625877,-88.345732,State Hwy 121
246,36.599347,-88.333674,S 18th St/Johnson Blvd
160,36.676045,-88.369340,Carlton Rd
390,36.605857,-88.302188,Vine St/S 4th St
968,36.626981,-88.333509,Bailey Rd
160,36.618797,-88.307783,Cs-1275/Cs-1278
418,36.652222,-88.306839,State Hwy 80/N 12th St
362,36.600070,-88.319114,Story Ave
362,36.612432,-88.318253,/Olive Blvd
160,36.619095,-88.302050,N 4th St
246,36.602679,-88.349516,Bambi Ct S
185,36.583638,-88.329641,Greenwood Dr
185,36.616374,-88.299216,Ash St/N Lp Miller St
1381,36.625851,-88.336241,Megan Dr/Cambridge Dr
185,36.662907,-88.478389,State Hwy 80/Haskins Ln
160,36.512905,-88.333692,E W Miller Rd
160,36.601788,-88.379672,State Hwy 94/Rob Mason Rd
160,36.625151,-88.212127,Pottertown Rd
1746,36.622237,-88.321600,Ic-8101E
216,36.608682,-88.304416,Poplar St/S 6th St
334,36.625430,-88.344058,State Hwy 121/Country Club Ln
216,36.589452,-88.326393,Fox Meadow Dr
276,36.658711,-88.305713,N 12th St
390,36.616841,-88.326948,Kentucky Ave/College Farm Rd
390,36.618751,-88.330433,Dodson St/N 18th St
390,36.651297,-88.306994,N 12th St
865,36.626129,-88.331719,General Jackson Dr/Battlefield Dr
216,36.612196,-88.289091,E Fork Clarks River Day Use Area/State Hwy 94
185,36.596246,-88.348825,Carol Dr/Brookhaven Dr
246,36.576737,-88.314580,US Hwy 641/Brandon Ln
185,36.731469,-88.173155,State Hwy 80
185,36.622582,-88.301973,N 4th St/Solar Dr
1693,36.629606,-88.313333,Frontage Rd
216,36.598519,-88.305669,Cs-1163/Hurt Dr/Fairlane Dr
185,36.640428,-88.396077,State Hwy 121/Lawson Rd
736,36.621258,-88.324325,N 16th St/Valentine St
160,36.505610,-88.083218,Willow Cir/Newman Dr
160,36.536513,-88.248405,Shoemaker Rd
216,36.609714,-88.297427,Maple St
276,36.636996,-88.315723,Bourland Ln
160,36.608677,-88.300358,Poplar St/Cherry St/S Cherry St
160,36.748906,-88.158970,State Hwy 80
160,36.624436,-88.249522,Pottertown Rd/Scenic Acres Dr
216,36.594322,-88.324322,Parklane Dr/S 16th St
185,36.598064,-88.347190,Kingsway Ct/Creekwood Dr
160,36.615632,-88.307162,Beale St/Payne St
185,36.596368,-88.306650,Hurt Dr/Broad St
160,36.624457,-88.250750,Pottertown Rd
813,36.610617,-88.311876,S 10th St/N 10th St/Main St
185,36.596500,-88.307834,Goodman St/Guthrie Dr
246,36.634297,-88.319521,Diuguid Dr/Connor Dr
276,36.596886,-88.309254,Bagwell Blvd/Goodman St
160,36.624455,-88.257995,Pottertown Rd
160,36.614326,-88.333252,Monroe Ave
246,36.615422,-88.299293,Pine St/N Lp Miller St
160,36.612681,-88.287175,State Hwy 94
552,36.631189,-88.307653,Hillwood Dr/Valleywood Dr
684,36.593649,-88.307804,Bagwell Ct
185,36.497929,-88.088221,Cypress Trl
185,36.644830,-88.216325,Rockwood Rd
160,36.638499,-88.320853,Utterback Rd
246,36.602723,-88.303400,Sycamore St
305,36.600190,-88.324401,S 16th St/Story Ave
216,36.604463,-88.318823,Irvan St
334,36.598952,-88.318976,Johnson Blvd
160,36.593729,-88.321494,Kirkwood Dr/Glendale Rd
160,36.651378,-88.229124,State Hwy 80/Todd Rd
445,36.612691,-88.301261,N 3rd St/Olive St
160,36.651533,-88.451809,Medye Ln/Pine Creek Ln
185,36.656222,-88.324204,N 16th St/State Hwy 80
160,36.691150,-88.335910,Timber Ridge Dr/Wrather Rd
216,36.628543,-88.251265,State Hwy 94
3812,36.612097,-88.324395,N 16th St/Olive St
160,36.646727,-88.339443,Poor Farm Rd
185,36.670926,-88.199320,State Hwy 80
865,36.608887,-88.314081,Embassy Apartment
185,36.693782,-88.335862,Timber Ridge Dr/Rockville Ln
246,36.595340,-88.318700,Dogwood Dr E/Glendale Rd
185,36.619591,-88.307093,Cs-1272/Beale St
334,36.603461,-88.351796,Bambi Ln
552,36.600007,-88.315231,S 12th St/Story Ave
445,36.608662,-88.302061,Poplar St/S 4th St
185,36.595536,-88.311823,Circarama Dr/Glendale Rd
160,36.638764,-88.324297,N 16th St
160,36.506914,-88.324684,3rd St/Peace Ct
1407,36.627467,-88.326603,/Brooklyn Dr
334,36.620339,-88.333480,Sherry Ln
526,36.607999,-88.316480,S 13th St
160,36.686962,-88.339972,Peyton Ln
305,36.612706,-88.300644,Ray Coursey Jr Dr/Olive St
1304,36.610542,-88.324007,University Dr
4381,36.617045,-88.315084,N 12th St/Chestnut St
216,36.583924,-88.326044,Whipporwill Dr
160,36.582150,-88.338317,Enix Dr
362,36.612217,-88.304440,N 6th St
605,36.606977,-88.313027,S 11th St/Elm St
160,36.735180,-88.301480,Cara Lynn Dr E/Charley Miller Rd
418,36.631686,-88.307667,Valleywood Dr
185,36.691423,-88.335868,Timber Ridge Dr/
305,36.598326,-88.391937,W Grove Dr
390,36.596629,-88.340952,Elmbrook Ln
246,36.605702,-88.308565,Vine St/S 8th St
185,36.639500,-88.324289,N 16th St
160,36.518620,-88.325971,/US Hwy 641
246,36.657878,-88.305872,N 12th St/Bison Ln
334,36.587656,-88.318014,Sandy Pine Dr
160,36.584830,-88.358292,Saratoga Dr N/Chickory Dr
160,36.602029,-88.297884,Sycamore Industrial Rd
216,36.607563,-88.302064,S 4th St/Elm St
362,36.609864,-88.300370,Maple St/S Cherry St
160,36.599970,-88.313508,S 11th St/Story Ave
160,36.645724,-88.307992,N 12th St
160,36.580657,-88.267522,Ky-121
276,36.648100,-88.396022,Poor Farm Rd/Kirksey Rd
160,36.742573,-88.296852,Roosevelt Rd/Radio Rd
216,36.623163,-88.335588,State Hwy 121
185,36.584295,-88.351713,King Dr/Wiswell Rd W/Robertson Rd S
1381,36.613782,-88.316610,N 13th St/Wells Blvd
246,36.610318,-88.351911,Robertson Rd N
185,36.634733,-88.305531,/N 4th St
185,36.598996,-88.347199,Kingsway Ct
631,36.609979,-88.319662,Main St/S 14th St
246,36.599311,-88.329092,S 17th St/Johnson Blvd
216,36.581559,-88.341074,Concord Dr/Villa Square Dr
160,36.652480,-88.395910,State Hwy 80/Kirksey Rd
160,36.558968,-88.196339,Ky-121
185,36.594918,-88.345582,Edinborough Dr
160,36.744285,-88.294968,Abilene Ln
160,36.738723,-88.293123,Walnut St/Lane St
185,36.631239,-88.306044,Hillwood Dr
216,36.711619,-88.301064,US Hwy 641/Rockhouse Dr
216,36.592357,-88.324330,S 16th St/Glendale Rd
246,36.583654,-88.328878,Martin Chapel Rd/Greenwood Dr
160,36.640310,-88.323163,Pine Meadow Dr
216,36.603763,-88.302359,S 4th St/Mulberry St
445,36.605707,-88.310707,Vine St/S 9th St
160,36.675503,-88.319525,Sheba Dr
160,36.663745,-88.211786,/State Hwy 80
185,36.601210,-88.319809,Stone Ridge Ln/Cardinal Dr
334,36.617241,-88.307753,Chestnut St
472,36.608652,-88.308542,Poplar St/S 8th St
160,36.624081,-88.225695,Pottertown Rd/McDougal Dr
658,36.634594,-88.310731,N 12th St/Duiguid Rd/Diuguid Dr
160,36.597040,-88.451267,Squire Miller Rd
185,36.651857,-88.298166,State Hwy 80
185,36.505340,-88.081713,McNutt Way
160,36.661765,-88.138119,/Rowlett Trl
160,36.622265,-88.351792,Lipford Ln/Robertson Rd N
216,36.712152,-88.301262,US Hwy 641
216,36.617082,-88.331827,Sha Wa Ct/College Farm Rd
216,36.614712,-88.332093,N 18th St
185,36.581690,-88.326385,Whipporwill Dr/Mockingbird Dr
185,36.618341,-88.307785,Cs-1278/Cs-1277
160,36.642928,-88.409002,State Hwy 121
305,36.651311,-88.455752,State Hwy 121/Snow Rd
185,36.600916,-88.298240,Shelter Ln
246,36.625347,-88.305083,Bee Creek Dr/Park Dr
865,36.625500,-88.334788,Williamsburg Ln
216,36.634984,-88.320106,Northwinds Mobile Home Park
160,36.618323,-88.307103,Beale St/Cs-1277
160,36.599702,-88.303220,Sunbury Cir/S 4th St
710,36.606611,-88.308570,S 8th St
185,36.636937,-88.307265,N 4th St
160,36.609798,-88.341650,Crossfield Dr/Glenwood Dr
1123,36.610319,-88.324379,N 16th St/University Dr
305,36.617218,-88.308485,N 8th St/Chestnut St
160,36.711249,-88.184136,State Hwy 80
185,36.633215,-88.308347,Windsor Dr
160,36.544110,-88.325368,US Hwy 641/Huberts Ln
160,36.622190,-88.268155,State Hwy 94
246,36.600988,-88.303995,Memory Ln/S 6th St Exd
160,36.619343,-88.308274,Cs-1279/Cs-1273
5731,36.613101,-88.324392,N 16th St
185,36.652290,-88.392916,State Hwy 80
334,36.612551,-88.318250,Olive Blvd
246,36.584265,-88.326039,Whipporwill Dr/Tabard Dr
2168,36.622023,-88.319910,Ic-8101C
185,36.602037,-88.298199,Shelter Ln/Sycamore Industrial Rd
160,36.733499,-88.295552,Easy St
390,36.605339,-88.324430,Loch Lomond Dr/S 16th St
1174,36.616915,-88.318699,Ic-8101J/Chestnut St
2408,36.623676,-88.324332,/N 16th St
2841,36.617868,-88.322895,Ic-8101I/Waldrop Dr
418,36.617406,-88.303041,N 5th St/Chestnut St
1097,36.622502,-88.325280,State Hwy 121
216,36.727705,-88.299508,US Hwy 641/Ingram Ln/Sunset Dr
305,36.598538,-88.307348,Broad St/Fairlane Dr
160,36.691418,-88.179067,State Hwy 94/Chapel Rd
185,36.654478,-88.317552,State Hwy 80/Oppurtunity Dr
499,36.625445,-88.338140,Shady Oaks Ct
276,36.640869,-88.308964,N 12th St
185,36.661865,-88.475118,State Hwy 80
216,36.606996,-88.304413,S 6th St
216,36.612607,-88.288352,E Fork Clarks River Day Use Area
185,36.602986,-88.330084,Sycamore St
160,36.636464,-88.441784,Coopertown Rd/Haneline Rd
276,36.639103,-88.309461,N 4th St/N 12th St
526,36.602697,-88.307161,Broad St/Sycamore St
276,36.634305,-88.319327,Diuguid Dr
472,36.608562,-88.313032,Poplar St/S 11th St
246,36.608684,-88.305841,Poplar St/S 7th St
246,36.600479,-88.310607,S 9th St/Story Ave
185,36.581747,-88.358178,Saratoga Dr/Kandi Kay Ln
160,36.599058,-88.303332,S 4th St
305,36.587023,-88.319248,Chaucer Dr/Spring Creek Dr
160,36.536512,-88.248002,Carl Bailey Rd/Shoemaker Rd
160,36.724317,-88.299242,US Hwy 641
160,36.658210,-88.479222,Sand Lick Rd/Tabors Ln
160,36.729053,-88.476970,Doores Trl
160,36.715872,-88.162151,Hico Rd
362,36.634457,-88.316065,Bourland Ln/Diuguid Dr
472,36.620639,-88.329062,/Coldwater Rd/Clark St
160,36.647120,-88.212288,Cr-1099B/Grove Ln
216,36.585078,-88.283362,Meadow Green Cir/Greenview Dr
160,36.701129,-88.099833,Buckbrush Ln
160,36.706645,-88.158961,Highland Rd
160,36.591252,-88.156766,Latin Dr//Thomas Dr
160,36.680912,-88.313076,Gentle Dr/Homeplace Dr
276,36.639037,-88.309477,N 12th St/Utterback Rd
865,36.608982,-88.326945,S Broach Ave/Main St
362,36.595411,-88.339742,Gatesborough Cir/Brookhaven Dr
160,36.500774,-88.327362,4th St
2489,36.623049,-88.322749,State Hwy 121
185,36.583402,-88.388328,Wiswell Rd W/Crossland Rd
246,36.609726,-88.352707,Hunters Glen/Cornwall Dr
736,36.609923,-88.314075,Embassy Apartment
160,36.619015,-88.307093,Cs-1274/Reagon St/Beale St
216,36.589459,-88.327171,Fox Meadow Dr
160,36.639131,-88.395983,Lawson Rd
160,36.618819,-88.264228,Oakcrest Dr/West Dr
246,36.601557,-88.302860,S 4th St
499,36.624521,-88.333496,Bailey Rd/Logan Dr/Covey Dr
160,36.595362,-88.348482,Martin Dr
552,36.602988,-88.328287,Lynnwood Ct/Sycamore St
216,36.594831,-88.341391,Edinborough Dr
160,36.724128,-88.299549,US Hwy 641
246,36.685102,-88.210657,Almo-Shiloh Rd/Old Shiloh Rd
276,36.636476,-88.315551,Mission Valley Dr
631,36.629553,-88.312621,Frontage Rd/Southwood Dr/E Frontage Rd
579,36.625645,-88.337684,/Shady Oaks Ct
362,36.613893,-88.329605,N 17th St
334,36.596192,-88.319838,Sunny Ln/Dudley Dr
160,36.655555,-88.333609,State Hwy 80/
276,36.617445,-88.299203,N Lp Miller St/Chestnut St
917,36.626796,-88.333036,Gettysburg Dr
160,36.705397,-88.395576,Beach Rd/Kirksey Rd
305,36.624050,-88.316293,State Hwy 121/Ic-8101A
185,36.589518,-88.335127,Larkspur Dr/Azalea Dr
526,36.627672,-88.328883,Brooklyn Dr
418,36.599004,-88.315257,S 12th St/Johnson Blvd
334,36.615664,-88.305903,N 7th St/Payne St
736,36.606613,-88.328105,Locust St/Williams Ave
185,36.635662,-88.208655,Rockwood Rd
788,36.604693,-88.313033,Mulberry St/S 11th St
