Estimated daily crossings,Latitude,Longitude,Name
362,39.051001,-84.445077,I- 275
305,39.087920,-84.501263,Woolum Ln
160,39.011885,-84.467638,Pooles Creek Rd
185,39.053542,-84.453537,Crowell Ave/Pleasant Ave
472,39.082317,-84.495255,Hogan Aly/Patterson St
185,38.894483,-84.376235,Sugarmill Dr
185,39.052046,-84.430542,Mary Ingles Hwy/Winters Ln
390,39.112933,-84.472832,Dayton Ave/Sixth Ave
305,39.112027,-84.478432,Vine St/Fourth Ave
185,38.948127,-84.390101,Woodcrest Dr/Broadfield Ct
334,39.057922,-84.451317,/Grant St
160,39.024074,-84.416771,/Pine Hill Dr
362,39.087523,-84.480003,Birch St
499,39.084440,-84.497200,W 9th St/Patterson St
605,39.027772,-84.459579,Johns Hill Rd
605,39.070694,-84.447067,Lockwood Pl/S Fort Thomas Ave
334,39.087520,-84.485840,Washington Ave
526,39.092839,-84.479538,E 10th St/Memorial Pkwy
246,39.023601,-84.450195,Napa Vly/Chardonnay Dr
526,39.085504,-84.496178,Isabella St/Constans Aly
418,39.112009,-84.476135,/Ervin Ter
552,39.036197,-84.449951,5th Ave
305,39.069915,-84.468987,Overlook Dr/Alexandria Pike
185,38.954365,-84.380875,Shaw Dr/Sheridan Dr
334,39.026389,-84.475302,I- 275
526,39.102439,-84.480385,Smith Aly/Taylor Ave
334,39.071216,-84.455055,Edgewood Dr/Burney Ln
276,38.950249,-84.361367,Springwood Dr
552,39.087039,-84.500881,W 6th St
305,39.014469,-84.442540,Granite Spring Dr/Slate Vw
160,39.027608,-84.424377,Andrew Cir/Madonna Ln
160,39.067957,-84.456825,Rainbow Ter/Arcadia Dr
185,39.115617,-84.475701,Dayton Ave
418,39.024770,-84.456627,/Highland Meadows Dr
160,38.827171,-84.365625,/Alexandria Pike
160,39.023953,-84.431664,Walden Ln/Weaver Ln
216,38.882279,-84.388268,Hillview Rd/Alexandria Pike
334,39.069575,-84.457085,Holiday Ln/Summit Ave/Burney Ln
362,38.959938,-84.392975,Alexandria Pike
185,39.019865,-84.429337,Goetz Dr/E Alexandria Pike
160,38.916256,-84.401253,Pleasant Ridge Rd/Lakeview Ln
418,39.083634,-84.486336,John St/E 14th St
305,39.017393,-84.445216,Buning Ln
160,38.897067,-84.375976,Hayfield Dr/Parkside Dr
216,39.082717,-84.486435,15th St/Parkview Ave
216,38.995435,-84.415805,Autumn Ln
631,39.017050,-84.441218,Matinee Blvd
305,39.089176,-84.482216,Park Ave/Center St
418,39.086695,-84.493126,Columbia St/W 9th St
362,39.080983,-84.464615,Churchill Dr
334,39.104934,-84.478181,Ward Ave
216,39.114490,-84.476682,McKinney Ave
526,39.102821,-84.483063,Division St/Lafayette Ave
160,39.110100,-84.476379,Vine St/8th Ave
185,39.013911,-84.439914,Granite Spring Dr
216,39.080241,-84.477112,W Ridge Pl/Parker Rd/E Ridge Pl
160,39.022525,-84.446221,Aqua Dr
246,39.041431,-84.465218,Three Mile Rd/Campbell Dr/Tessenneer Dr
813,39.104401,-84.480118,Washington Ave/Division St
160,39.012787,-84.441985,Charity Hill
185,39.088060,-84.445038,Riverside Pkwy/Oak Rdg
185,38.991266,-84.398926,Aa Hwy/E Alexandria Pike
160,38.824113,-84.365020,Alexandria Pike/Boss Dunaway Rd
246,39.112890,-84.477081,Fourth Ave/Ervin Ter
579,39.077869,-84.470138,I- 471
216,39.051809,-84.446660,Livingston Ln
160,38.892642,-84.272452,Aa Hwy
362,39.030447,-84.470718,I- 275/Johns Hill Rd
526,39.030432,-84.473708,W Johns Hill Rd
418,39.103009,-84.478653,Washington Ave/Walnut St
185,39.018314,-84.442299,Limestone Ct/Granite Spring Dr
499,39.035860,-84.449135,Tammy Ln
216,39.052747,-84.463158,Valley View Dr
185,38.940293,-84.398313,Creektrace Rd
390,39.059351,-84.477264,Woodland Hills Dr
246,39.042444,-84.466345,Three Mile Rd
445,39.073334,-84.482475,Valhalla Dr/Bluegrass Ave
305,38.965443,-84.392960,Alexandria Pike/Thatcher Ct
276,38.943210,-84.400948,Schweitzer Ct
160,38.946059,-84.359059,Redstone Rd
216,38.961705,-84.389778,Washington St/Pete Neiser Dr
276,39.090391,-84.482803,Vine St
185,39.104727,-84.475471,O Fallon Ave
472,39.096534,-84.491684,McIlvain Aly/E 3rd St
305,39.036925,-84.457085,S Main Ave/Sunset Dr
305,38.973673,-84.388741,Ashley Ct
246,39.112513,-84.463705,7th Ave
305,39.100332,-84.460556,W Kimberly Dr/Budde Ct
276,39.026486,-84.459274,Highland Meadows Dr
334,39.109285,-84.477646,Walnut St/8th Ave
445,39.113813,-84.470009,Clay St/Sixth Ave
246,39.079276,-84.499404,W 11th St
276,39.106739,-84.484909,Eden Ave/Taylor Ave
160,38.949982,-84.369391,E Main St
276,39.009375,-84.466917,Aa Hwy
418,39.071881,-84.470813,Alexandria Pike
185,38.944346,-84.393936,Heritage Ct/Alexandria Pike
499,39.083452,-84.492317,Central/W 11th St
185,39.013209,-84.453209,Stonyridge Dr/Charity Hill Dr
160,38.854945,-84.298805,Shaw Goetz Rd
216,39.004316,-84.452645,Ridgepointe Dr/Signalpointe Ct
160,39.104551,-84.473923,Observatory Ave
276,39.092473,-84.485947,E 8th St/Park Ave
917,39.094056,-84.499657,Riverboat Row/Columbia St
334,39.015379,-84.477897,/Gloria Terrell Dr
362,38.955363,-84.354820,Ridgewood Dr/S Blackwood Ct/N Blackwood Ct
216,39.023355,-84.450670,Napa Vly/Arbor View Ln
160,39.051268,-84.431047,Winters Ln
216,39.108584,-84.475624,9th Ave/Maple Ave
216,38.977635,-84.335335,Truesdell Rd
445,39.082796,-84.466347,Gettysburg Square Rd
390,39.080286,-84.464463,Keeneland Dr/Calumet Ct/Spindle Top Ln
334,39.056060,-84.433591,I- 275
185,38.978097,-84.383347,Douglas Dr/Neltner Rd
160,38.961985,-84.382789,/Riley Rd
160,39.016322,-84.450352,Sandstone Rdg
788,38.982183,-84.397850,Alexandria Pike/E Alexandria Pike
160,39.001984,-84.425270,Aa Hwy
579,39.095729,-84.490944,McIlvain Aly/Waters Aly
246,39.078393,-84.496082,Fitzsimmons St/Licking Pike
1304,39.093258,-84.499207,W 2nd St/Columbia St
246,39.081032,-84.488716,Home St
334,38.964558,-84.392597,Washington St
276,39.095946,-84.455216,Capri Dr/Clover Ridge Ave
305,39.096336,-84.475464,Lafayette Ave/Geiger Ave
185,39.064083,-84.444053,Carmel Manor Rd/Boone
185,38.904500,-84.279391,/Aa Hwy
216,39.087854,-84.472183,Ohio Ave
160,39.061313,-84.445938,River Rd/Shawnee Ave
216,39.114070,-84.468338,/Main St
185,39.088203,-84.478691,Hillside Aly/Spring St
418,39.058097,-84.478241,Woodland Hills Dr
762,39.024240,-84.480766,/Licking Pike
631,38.969052,-84.393005,Lakeside Dr/Commercial Cir/Alexandria Pike
579,39.100913,-84.481072,Lafayette Ave/Dimmick Aly
526,38.961598,-84.392853,Pete Neiser Dr/Alexandria Pike/Tollgate Rd
472,39.088704,-84.496086,/W 7th St/Ann St
185,38.908931,-84.387520,Michael Dr/Wellington Dr
160,38.946092,-84.406234,/W Main St
160,39.012091,-84.467438,/Pooles Creek Rd
216,38.999669,-84.408516,/Aa Hwy
658,39.082819,-84.497673,Brighton St/Phillips Aly
216,39.013932,-84.440137,Granite Spring Dr/Boulder Vw
185,39.018520,-84.443893,Buning Ln
246,39.080083,-84.487724,Main St/Home St
246,39.054023,-84.486465,Creekwood Dr
334,39.016418,-84.435410,/Murnan Rd
246,38.959156,-84.388434,/E Main St
305,39.102613,-84.453987,Pleasant Rdg/Winston Hill Rd
185,38.980681,-84.385261,Douglas Dr
160,39.070527,-84.480804,Snow Shoe Dr
246,39.091235,-84.460633,Wessex Pl/Wessex Ct
160,38.891990,-84.369354,Race Track Rd
762,39.029179,-84.458000,Johns Hill Rd/Grey Stable Ln
788,39.104648,-84.486027,Berry Ave
160,38.986417,-84.397438,E Alexandria Pike
968,39.106993,-84.481621,Foote Ave
246,39.102693,-84.473190,Truman Ln/Lincoln Rd
276,39.007976,-84.428380,Alexandria Pike
185,38.998370,-84.431011,Shadow Ridge Dr
276,39.057334,-84.459885,Mulberry Ct
185,39.106565,-84.474785,Walnut St/10th Ave
276,39.091727,-84.487282,Gugel Aly/E 8th St
246,39.049958,-84.449272,Veterans Dr
160,39.022067,-84.435334,Westminster Way
390,39.103425,-84.483688,Poplar St/Lafayette Ave
710,39.086118,-84.487488,Monmouth St/E 11th St
445,39.025587,-84.457306,Dogwood Dr
160,38.975808,-84.381889,Meadowview Dr/Cedarview Dr
160,38.954893,-84.355774,Ridgewood Dr/S Brushwood Ct/N Brushwood Ct
418,39.109604,-84.478004,Walnut St
160,38.855898,-84.313987,/Reis Ln
684,39.085355,-84.489921,York St
472,39.004011,-84.439335,Ridgeline Dr
185,39.033548,-84.390281,W 3rd St/Four Mile Pike/E 3rd St
185,39.113384,-84.464867,6th Ave
185,39.034956,-84.385193,Linden Rd/Mary Ingles Hwy
246,39.057127,-84.477722,View Terrace Dr
160,39.060552,-84.441407,Shamrock Ln/Sergeant Ave
472,39.026503,-84.450966,Neltner Dr
762,39.024263,-84.443130,French St/Alexandria Pike
362,39.089669,-84.457794,Water Works Rd
160,38.933923,-84.312386,/Carthage Rd
334,39.041182,-84.452729,Wilson Ave
185,39.012055,-84.428749,Ripple Creek Rd/Keating Dr
160,39.031359,-84.371849,Campbell Ave
445,39.082195,-84.483330,Harrison St/Parkview Ave
605,39.102125,-84.480057,Walnut St/Taylor Ave
160,38.954104,-84.401650,Gilbert Ridge Rd/Roth Farm Ln
445,39.086815,-84.495361,Central/Hardy Aly
472,39.110833,-84.477150,6th Ave/Vine St/Sixth Ave
658,39.086234,-84.500817,Brighton St/W 7th St
362,39.035597,-84.476616,Spyglass Ct
185,38.873836,-84.393051,Alexandria Pike
246,39.076044,-84.472389,Poplar St/Joyce Ave
499,39.106130,-84.479439,Poplar St/Ward Ave
552,39.047999,-84.457078,I- 275
334,39.113280,-84.468460,/Main St
472,39.095956,-84.479927,Colfax Ave
185,39.058004,-84.444992,Brentwood Pl
631,39.104185,-84.484489,Lafayette Ave/Prospect St
160,38.941422,-84.387070,Quailwood Ct
160,39.019572,-84.461395,Arbor Ct
445,39.082595,-84.465607,Picketts Charge St
160,38.885411,-84.264640,Smith Rd/Flagg Springs Pike
160,39.097448,-84.440237,Mary Ingles Hwy
276,39.113684,-84.468407,Main St/Sixth Ave
994,39.089004,-84.492225,Orchard St/E 8th St
334,39.089281,-84.496697,W 6th St
160,38.957366,-84.378700,Lake Park Dr
160,38.994099,-84.403969,Backus Dr
246,39.058336,-84.479469,Moock Rd/Beverly Dr
390,39.084112,-84.484703,15th St/Monmouth St
305,39.047355,-84.458051,I- 471
418,39.089408,-84.495689,Columbia St
305,39.091789,-84.470810,Woodlawn Ter/Forest Ln
445,39.095639,-84.486130,Linden Ave/E 6th St
526,39.029654,-84.459732,Clearview Dr
160,39.053973,-84.489578,South St
160,38.945484,-84.397631,/Oak Ln
160,39.019544,-84.439934,Millstone Ct/Springhouse Dr
160,39.002103,-84.425268,Aa Hwy
160,38.999780,-84.424062,Aa Hwy
631,39.101240,-84.481422,Walnut St/Lafayette Ave
917,39.038648,-84.450386,Alexandria Pike/Bordeaux Dr
216,39.008094,-84.460978,Aa Hwy
552,38.961672,-84.393562,Tollgate Rd
160,38.988563,-84.399042,E Alexandria Pike
246,39.105559,-84.476349,10th Ave/O Fallon Ave/Center St
276,39.100587,-84.464813,Rossford Ave/Covert Run Pike
7321,39.094851,-84.494698,L and N Pedestrian Bridge/E 3rd St
1174,39.098071,-84.493023,Park Ave
1798,39.096889,-84.494291,Dave Cowens Dr
216,39.095933,-84.470854,Memorial Pkwy
276,39.025183,-84.417389,Terrace Ave/Skyview Ter
160,38.996380,-84.437813,Ruschman Rd
160,39.087427,-84.469910,Ohio Ave
185,39.033444,-84.390266,Four Mile Pike/Uhl Rd
445,39.005890,-84.439761,Valley Brook Cir
185,38.991803,-84.398642,E Alexandria Pike
160,39.034747,-84.370339,Anderson Ln
246,39.101320,-84.473862,Bellpointe Cmns
160,38.976256,-84.385466,Neltner Rd
472,39.082112,-84.498924,Lowell St/Phillips Aly
7854,39.029890,-84.464600,Grant Dr/University Dr
839,39.082188,-84.482170,Monmouth St
246,38.958184,-84.343161,Grandview Rd
334,39.103743,-84.478187,Foote Ave
362,39.046692,-84.457306,I- 471/
1355,39.028636,-84.457275,Grey Stable Ln
185,39.083375,-84.489158,W 12th St/Putnam St
362,39.055653,-84.433832,I- 275/Mary Ingles Hwy
185,39.052370,-84.430752,Mary Ingles Hwy
216,39.052669,-84.465576,Tracy Ln
813,39.023855,-84.442581,Alexandria Pike
185,39.012430,-84.449772,Dry Creek Rd
472,39.047580,-84.445992,Main Ave/Alexandria Pike/Maple Ave
185,39.109480,-84.472503,10th Ave/Ervin Ter
1071,39.107218,-84.483078,Washington Ave/Union St
684,39.097729,-84.489052,Providence Way/Lexington Ave
216,39.060925,-84.448784,Alpine Dr/Margarete Ln
216,39.071817,-84.444031,Bivouac Ave/Crown Ave
185,38.947169,-84.390618,Constable Dr/Southwood Dr
185,39.099337,-84.446541,Carrington Pt/Carrington Ct
526,39.082502,-84.497383,Brighton St/W 10th St
216,39.078200,-84.489807,Ash St/Main St
185,39.016520,-84.457145,Pooles Creek Rd
160,39.029916,-84.380982,Saint Anne Dr
246,38.954407,-84.360169,N Cottonwood Ct
362,39.047973,-84.459038,I- 471/I- 275
160,39.004841,-84.356724,/Nine Mile Rd
305,39.067322,-84.485260,Aspen Dr/Grandview Ave
160,39.030908,-84.372032,Mary Ingles Hwy/Campbell Ave
216,39.114710,-84.471466,Fifth Ave/Greendevil Ln
631,39.017346,-84.440022,Matinee Blvd/Boulder Vw
160,38.958811,-84.389091,E Main St/S Jefferson St/N Jefferson St
160,39.046861,-84.484200,/St Johns
160,39.073232,-84.489426,Kentucky Dr/Grandview Ave
185,39.086719,-84.465088,Huntemann Ln/Boardwalk St/Newman Ave
216,39.023071,-84.452719,Monterey Ln
305,39.053493,-84.488419,South St/Licking Pike
305,39.081511,-84.492539,Isabella St/W 12th St
1097,39.106808,-84.482651,Washington Ave/Fairfield Ave
160,39.040969,-84.420439,Dodsworth Ln
390,38.999803,-84.409691,Rocky View Dr
276,39.035129,-84.477605,Telescope Vw
418,39.071260,-84.463059,/I- 471
418,39.076245,-84.452263,/W Vernon Ln
305,39.066637,-84.448792,Cherry Ln/Tower Pl
526,39.039055,-84.449845,Alexandria Pike
499,39.035311,-84.449783,Elblaine Dr
305,39.113282,-84.463570,6th Ave/Benham St
334,39.053072,-84.453239,Crowell Ave/Eustace Ave
472,39.033589,-84.452225,Alexandria Pike/Pleasant Dr
160,39.041033,-84.446342,/Blange Rd
216,39.021242,-84.434799,Victoria Way/Downing St/Queensway Ct
246,38.848600,-84.379460,Alexandria Pike
160,38.893393,-84.375252,/Race Track Rd/Sugarmill Dr
362,39.103815,-84.478261,Foote Ave
552,39.092749,-84.478968,Memorial Pkwy
6335,39.094933,-84.494552,Saratoga St/E 3rd St
305,39.071512,-84.450455,W Villa Pl
418,39.022856,-84.489302,I- 275
276,39.013492,-84.451616,Stonyridge Dr
445,39.090822,-84.456993,Clover Ridge Ave/Memorial Pkwy
246,39.009274,-84.466999,Aa Hwy
418,39.081819,-84.492821,Gosney Aly/Isabella St
160,39.110578,-84.473900,Chesapeake Ave
6335,39.095430,-84.495262,/L and N Pedestrian Bridge
605,39.107910,-84.481315,Fairfield Ave/Ward Ave
1485,39.084362,-84.482940,Carothers Rd
334,39.085135,-84.474319,N Grand Ave
362,39.063921,-84.454765,Alexandria Pike/Blossom Ln
276,39.057255,-84.459832,Mulberry Ct
185,38.998237,-84.417386,Harvest Trl
305,39.102454,-84.466080,Lincoln Ave
276,39.024704,-84.454067,Salmon Pass
160,38.869891,-84.267040,/W Kennedy Rd
160,38.958321,-84.381119,Persimmon Grove Pike/E Main St
305,39.070430,-84.491387,Queen City Rd
526,39.082718,-84.499466,Lowell St/Bleith Aly
160,39.070032,-84.483109,High St
185,39.024908,-84.457580,Highland Meadows Cir/Highland Meadows Dr
160,38.935038,-84.419189,Creektrace Rd
334,39.071393,-84.452042,S Grand Ave/Pebble Creek Cir
362,39.085014,-84.493729,Central/Phillips Aly
160,38.959129,-84.369400,Herringer Dr
5020,39.094595,-84.494324,Saratoga St/Parkers Aly
216,39.056622,-84.488152,Elm St/Center St
185,39.057077,-84.441551,River Rd/
160,39.086347,-84.444182,Burnet Rdg
552,39.063991,-84.446037,Boone
362,38.937891,-84.405352,Royal Oak Dr
160,39.074523,-84.451164,Carolina Ave
390,39.068035,-84.458729,Garden Way/Summit Ave
813,39.095938,-84.492477,Hamlet Aly/E 3rd St
185,39.110960,-84.459572,Broadview Pl
579,39.070333,-84.470573,Evergreen Dr/Retreat St
305,39.017849,-84.444596,Founders Ct/Buning Ln
276,39.087915,-84.501407,Chestnut Way
276,38.988736,-84.395172,Aa Hwy/Us27-Aa Connector Rd
788,39.086771,-84.488289,Monmouth St
216,39.103099,-84.465098,Lincoln Rd/Lincoln Ave
160,39.088868,-84.462829,Kyles Ln
185,38.991339,-84.399238,Aa Hwy
445,39.038956,-84.457069,Savoy Rd/S Main Ave
1355,39.088018,-84.476814,N Grand Ave/Chesapeake Ave
185,39.006039,-84.433350,Cobblers Dr
160,38.850796,-84.385696,Chandler Dr
160,38.998355,-84.403052,E Low Gap Rd
362,39.089381,-84.501144,W 4th St/Grant Ln
334,39.115110,-84.475144,Dayton Ave/Second Ave
185,39.106085,-84.456238,Mel Lawn Dr/N Fort Thomas Ave
362,39.090882,-84.448799,Dixie Pl/Hartweg Ave
362,39.011025,-84.430957,Alexandria Pike
499,39.081891,-84.496819,Brighton St/Hodge St
160,39.025907,-84.417946,Dorothy Dr/Skyline Dr
216,39.026773,-84.464734,Hilltop Rd
334,39.018847,-84.436549,Matinee Blvd/Alexandria Pike
305,39.052876,-84.447998,Alexandria Pike
499,39.097105,-84.491646,Park Ave
762,39.090753,-84.476185,I- 471
160,38.974022,-84.393848,Meyer Rd
160,38.984069,-84.374855,Poplar Ridge Rd
185,39.069276,-84.474403,Center St
334,39.043090,-84.455530,I- 471
305,39.070976,-84.474472,Ridgeway Ave/W Walnut St
334,39.106074,-84.465431,Dayton Ave/Grant Park Dr/Chateau Ridge Rd
334,38.994427,-84.414276,Alexandria Pike
216,39.023156,-84.447479,Chardonnay Dr/Pooles Creek Rd
216,39.066254,-84.456833,Arcadia Dr
185,38.854198,-84.386779,Walnut Creek Dr
362,39.103513,-84.481514,Division St/Taylor Ave
418,39.070597,-84.475067,W Walnut St/Maple Ave
865,39.079076,-84.480530,New Linden Rd/Zott St/Monmouth St
390,39.086517,-84.493446,/W 9th St
246,39.023332,-84.443802,French St/St Michael Dr
418,39.028872,-84.471626,I- 275
160,38.958906,-84.376663,Stillwater Dr
813,39.105772,-84.483902,Fairfield Ave/Taylor Ave
813,39.027547,-84.460351,Johns Hill Rd
185,39.097874,-84.452354,Wesley Hills Dr
552,39.075038,-84.458252,Ridgewood Pl/Highland Ave
736,39.096129,-84.485229,E 6th St/Oak Ave
605,39.087800,-84.491127,E 9th St/Orchard St
362,39.007467,-84.427608,Blossom Dr
526,39.005188,-84.439936,Valley Brook Cir/Valley Ridge Cir
305,39.024428,-84.450479,Napa Vly/Monterey Ln
499,39.071475,-84.463397,I- 471
2868,39.037920,-84.454046,I- 471
631,39.109048,-84.483780,Foote Ave/Eden Ave
334,38.959960,-84.391739,Willow St
160,38.935792,-84.307472,New Richmond Rd/Washington Trace Rd
334,39.030790,-84.440407,Cedar Pt
658,39.083407,-84.498207,Brighton St/Bleith Aly
445,39.019550,-84.442219,Springhouse Dr
1746,39.089937,-84.493072,Orchard St/E 7th St
246,38.981591,-84.380646,Crupper Ln
160,38.930613,-84.308947,Aa Hwy
160,38.956701,-84.343698,Hickorywood Ct
305,39.056733,-84.449684,Arlington Pl/Alexandria Pike
246,39.075254,-84.450019,Linden Ct
216,39.090629,-84.500763,W Southgate St/Isabella St
276,39.098745,-84.458051,Rossford Ave
216,39.116060,-84.468064,Main St/Third Ave
943,39.104940,-84.484184,Mesh Ct
185,38.996697,-84.405408,Aa Hwy
276,39.112770,-84.466957,Dayton Pike/7th Ave/Boone St
631,39.080953,-84.481735,Monmouth St/18th St
216,39.097664,-84.461739,Scenic View Dr/Carriage Ct
579,39.086665,-84.489845,E 10th St
160,39.034670,-84.478721,Observatory Pointe Dr
160,39.050089,-84.471420,Gibson Ln
160,39.110130,-84.467907,Belmont Pl
526,39.090532,-84.486191,E 9th St/Gugel Aly
579,39.095210,-84.483657,E 7th St
185,38.942903,-84.392868,Perkins Dr
1929,39.092269,-84.492180,Saratoga St/E 6th St
216,38.988265,-84.405661,Alexandria Pike
160,39.050894,-84.489479,Fredericks Lndg
160,39.052850,-84.449335,St Stephens Cemetery
579,39.109678,-84.478927,6th Ave
305,39.108296,-84.468376,Dayton Ave/Fairview Ave
362,39.085876,-84.496521,Keturah St/Isabella St
710,39.087907,-84.494217,Columbia St/W 8th St
658,39.076076,-84.468745,I- 471
499,39.105941,-84.481743,Washington Ave/Prospect St
160,38.980660,-84.336635,Truesdell Rd
526,39.017203,-84.434837,Ripple Creek Rd/Alexandria Pike
246,39.104405,-84.451508,Stanbery Rdg/N Fort Thomas Ave
579,39.082992,-84.465660,Little Round Top/Gettysburg Square Rd
216,38.954066,-84.360031,N Cottonwood Ct/Ridgewood Dr/S Cottonwood Ct
472,39.092184,-84.489052,Hamlet Aly/E 7th St/Hamlet St
276,38.996262,-84.416081,Alexandria Pike
276,39.085433,-84.492066,Columbia St/W 10th St
526,39.096874,-84.491371,Park Ave/E 3rd St
390,39.087758,-84.484963,Hamlet St
865,39.093223,-84.478005,I- 471
276,39.115927,-84.473381,Berry St/Second Ave
362,39.083983,-84.486664,E 13th St/John St
445,39.057120,-84.478577,Woodland Hills Dr
160,38.932999,-84.442336,Indian Trace Rd
185,39.090111,-84.461998,Water Works Rd/Maine Ave
160,38.924804,-84.401190,Alysheba Dr
160,38.954793,-84.362053,N Rosewood Ct
334,39.053590,-84.468870,I- 471
185,39.053122,-84.451854,Crowell Ave/Eustace Ave
605,39.069867,-84.458069,Holiday Ln/Garden Way
684,39.087302,-84.487030,Forrest St
216,38.997868,-84.417289,Rocky View Dr/Alexandria Pike
216,39.022190,-84.424255,Dodsworth Ln/Madonna Ln
445,39.034798,-84.449020,Katherine Ct
216,39.032563,-84.438713,Winters Ln/Orchard Ter W
160,38.930336,-84.308235,Aa Hwy/Dead Timber Rd
1667,39.099886,-84.490441,Beech St
305,38.965486,-84.349079,Aa Hwy
526,39.082949,-84.465546,Picketts Charge St/Gettysburg Square Rd
418,39.095735,-84.489975,E 4th St/Park Ave
216,39.097251,-84.476970,Anspaugh Ave
246,39.028382,-84.422389,Aloysius Cir
684,39.077592,-84.469980,I- 471
185,39.103734,-84.452759,Memory Ln
160,38.974462,-84.303482,/Mary Ingles Hwy
445,39.097723,-84.486450,I- 471/
362,39.080536,-84.497512,Lowell St/W 11th St
736,39.100599,-84.480728,Retreat St/Lafayette Ave
160,39.051908,-84.446388,Livingston Ln
891,39.101793,-84.479698,Dimmick Aly/Taylor Ave
160,39.052300,-84.436480,McDonald Ln
160,39.099409,-84.467995,Shady Ter/Covert Run Pike
1355,39.025255,-84.480583,Licking Pike
362,39.023244,-84.467438,Jillian Ct
334,39.075212,-84.451584,S Vernon Ln/W Vernon Ln
160,39.015342,-84.459192,Pooles Creek Rd
246,39.024227,-84.420021,Dodsworth Ln/Circle Dr
185,39.114389,-84.471810,Berry St/Fifth Ave
160,39.036181,-84.392410,Oak St/W 1st St
334,39.042543,-84.453583,N Miller Ave
658,39.105181,-84.485535,Union St/Lafayette Ave
605,39.027973,-84.466758,/Johns Hill Rd
1149,39.089754,-84.490868,E 8th St/Dayton St
305,39.050505,-84.464765,I- 471
762,39.061828,-84.470115,Fox Chase Dr
526,39.080184,-84.448631,Lumley Ave/N Fort Thomas Ave
305,39.009604,-84.429771,Ripple Creek Rd/Alexandria Pike
390,39.022852,-84.488861,I- 275
246,38.850721,-84.381553,Vaters Dr
334,38.973760,-84.391029,Ashley Dr/Poplar Ridge Rd
334,39.036382,-84.449562,Tammy Ln/5th Ave
160,39.110029,-84.448926,Mary Ingles Hwy
445,39.057405,-84.463158,Blossom Ln
334,39.081875,-84.491875,Liberty St/W 12th St
160,39.032713,-84.440158,Orchard Ter W
216,39.101655,-84.455101,Pleasant Rdg
499,39.091144,-84.490150,Tapking Aly/Roberts St
185,38.951963,-84.359246,Flatwood Ct/Cherrywood Ln
334,39.092967,-84.485046,E 8th St/Maple Ave
160,39.027369,-84.436051,Barma Dr
246,39.079542,-84.494644,Brighton St/Fitzsimmons St
276,39.087222,-84.485609,Washington Ave/E 11th St
499,39.051890,-84.482849,Lakeview Dr
160,38.959517,-84.389679,Greenup St/N Jefferson St
418,39.078540,-84.481796,Summer Hill Ave/20th St
362,39.080251,-84.497246,Lowell St/Hunt Aly
552,39.085536,-84.496208,Isabella St/Constance Aly
1200,39.031753,-84.453873,Orchard Ln/Myrtle Ave
216,39.003519,-84.445374,Ridgepointe Dr/Glenridge Dr
185,38.976832,-84.376755,Ivy Ct
160,38.940188,-84.382851,Jerry Wright Rd
185,38.991456,-84.399193,Aa Hwy
185,38.922529,-84.387871,Bihl Ln/Lickert Rd
216,39.010337,-84.439443,Murnan Rd
160,38.985675,-84.350628,/Fausz Rd
276,39.092101,-84.455496,Inverness Pl
305,39.078680,-84.475990,Joyce Ave/Riddle Pl
334,39.044362,-84.444900,Linet Ave/Steelman Ave
246,39.064791,-84.484852,Covington Waterworks Rd/Aspen Pines Dr
185,39.090912,-84.442089,Riverside Pkwy
276,38.921084,-84.390907,Hwy 27/Lickert Rd
185,39.095244,-84.464901,Memorial Pkwy
418,39.089381,-84.499743,W 5th St/Isabella St
305,39.084734,-84.473030,I- 471/N Grand Ave
276,39.023917,-84.465652,Hilltop Rd/Knollwood Dr
216,39.057040,-84.453415,Grant St
246,39.054506,-84.480697,Timber Ridge Dr/Bentwood Hills Dr
1071,39.098919,-84.491814,I- 471/Dave Cowens Dr
334,39.005207,-84.455485,Ridgepointe Dr
216,39.013846,-84.440178,Boulder Vw
160,39.101432,-84.459976,Brittany Ln
185,38.965305,-84.381798,Appleblossom Ln
305,38.974692,-84.387177,Mockingbird Ln/Poplar Ridge Rd
160,39.033446,-84.365133,Melbourne Rd/Melbourne Ave
605,38.973204,-84.387924,Ashley Dr/Brentwood Cir
334,39.106712,-84.465714,Beechwood Pl
216,39.103449,-84.473999,O Fallon Ave/Grandview Ave
160,39.097548,-84.440361,Tower Hill Rd
160,39.015844,-84.429132,Skylark Ln
185,38.855804,-84.287330,Wesley Chapel Rd
160,39.082213,-84.461327,Daisy Ln
276,39.008034,-84.428660,Wolpert Rd
160,39.047023,-84.424812,/Mary Ingles Hwy
305,39.043151,-84.442055,Steelman Ave/Winkler Dr
185,39.084804,-84.488373,/Orchard St
362,39.040644,-84.464591,Three Mile Rd
216,38.980658,-84.384064,James Ln
185,38.976859,-84.377579,Ivy Ct/Laurel Ridge Dr
160,38.955287,-84.334465,Stonehouse Rd/Schultz Dr
334,39.112019,-84.471581,8th Ave/Dayton Ave/Eighth Ave
246,39.072124,-84.446137,Klainecrest Ave/S Fort Thomas Ave
216,39.044478,-84.484356,Licking Pike
160,38.929772,-84.425094,/Creektrace Rd
160,38.915360,-84.265900,Mary Ingles Hwy/California Cross Rd
4439,39.026968,-84.453102,/Martha Layne Collins Blvd
1746,39.026636,-84.468529,Meadow Vista Ct/
418,39.024701,-84.456742,Highland Meadows Dr/Meadow Ln
160,39.026371,-84.417946,Skyline Dr
1071,39.087582,-84.489960,/John St
526,39.084562,-84.495315,Lindsey St/Isabella St
762,39.086942,-84.489342,E 10th St/John St
216,39.037041,-84.476509,N Watchtower Dr/Signal Ct
305,39.004072,-84.448267,Ridgepointe Dr
276,39.081480,-84.484863,Lear/Parkview Ave
185,39.071085,-84.479088,North St/
160,39.021916,-84.426623,Leisure Ln
246,39.112304,-84.478729,Vine St/
499,39.090246,-84.486733,E 9th St
185,38.967617,-84.373642,Whispering Woods Ln
160,39.033053,-84.480812,Banklick Rd
185,39.015716,-84.439776,Boulder Vw
160,39.014455,-84.429245,Ripple Creek Rd
160,39.013314,-84.442590,Marble Way
552,39.051357,-84.467190,I- 471
684,39.030797,-84.451645,Alexandria Pike
160,38.978972,-84.388389,Timberline Dr/Rainbow Dr
246,39.096786,-84.477707,Anspaugh Ave/Berry Ave
418,39.083381,-84.452390,N Montrose Ave/Walters Ln
160,38.975086,-84.354449,/Nelson Rd
334,38.999869,-84.419335,/Alexandria Pike
246,38.988134,-84.405555,Alexandria Pike
362,39.009589,-84.468292,Aa Hwy
2977,39.036995,-84.454101,I- 471/Sunset Ave/Alexandria Pike/Sunset Dr
246,38.995052,-84.415609,Autumn Ln
246,39.106077,-84.475548,10th Ave/Thornton St
418,39.061968,-84.468862,I- 471
185,39.008451,-84.462508,Aa Hwy
246,39.081489,-84.491718,Isabella St
390,38.953398,-84.393402,Alexandria Pike
216,39.102469,-84.451927,Memory Ln/Winston Hill Rd
362,39.023704,-84.419800,Terrace Ave/Circle Dr
160,39.108911,-84.475121,Vine St/9th Ave
968,39.080536,-84.466039,Churchill Dr
526,39.090482,-84.489533,E 8th St/Roberts St
917,39.064263,-84.446953,S Fort Thomas Ave/Carmel Manor Dr
605,39.070762,-84.469810,Retreat St/Alexandria Pike/Highland Ave
684,39.108371,-84.484306,Washington Ave/Eden Ave
185,39.034006,-84.388641,Maple Rd/E 2nd St
216,38.898341,-84.376180,Hayfield Dr/Haystack Ct
445,39.097421,-84.450607,Rossford Ave
160,38.949498,-84.390570,Broadfield Ct
160,39.114859,-84.463394,Fourth Ave/Benham St
246,39.093666,-84.486359,Indiana Aly/E 7th St
390,39.089799,-84.483345,Park Ave
418,39.024236,-84.444830,St Michaels Dr/French St
334,39.007221,-84.423439,Davjo Ln
216,39.056998,-84.459398,Plumrose Ln
605,39.075180,-84.482040,/Kentucky Dr/Sweetbriar Ct
246,39.007972,-84.429073,Wolpert Rd
390,39.087700,-84.501791,Chestnut Way
160,38.886886,-84.265228,Aa Hwy
160,39.051682,-84.489662,/Licking
605,39.077292,-84.478630,Monmouth St/Carroll Ave
1589,39.032523,-84.452151,Myrtle Ave
185,39.078490,-84.457290,Sweetbriar Ave
185,39.016742,-84.456861,Pooles Creek Rd
362,39.079672,-84.496704,Lowell St/Gosney Aly
472,39.082415,-84.499199,Lowell St/Lindsey St
185,38.949050,-84.386545,Southwood Dr
160,38.932799,-84.283676,Sunrise Rd
362,39.100816,-84.478691,Grandview Ave/Taylor Ave
684,38.985748,-84.402970,S Viewpoint Dr/Alexandria Pike
185,39.051669,-84.430191,Mary Ingles Hwy/Brent Lndg
305,39.005208,-84.440455,Murnan Rd
445,39.012733,-84.432535,Wayside Ct
216,39.046755,-84.448433,Blair Ave
216,39.086069,-84.496704,Hardy Aly/Isabella St
276,39.088587,-84.451599,Mayo Ave
160,39.093503,-84.472756,Water Works Rd
246,39.079473,-84.499049,W 11th St
160,39.059329,-84.465027,Fairway Dr
246,39.037592,-84.393860,Ash St/Mary Ingles Hwy
216,38.949117,-84.386421,Rockledge Ct
891,39.025698,-84.455764,/Highland Meadows Dr/Martha Layne Collins Blvd
185,38.959033,-84.344429,Grandview Rd
216,39.116840,-84.469582,Clay St/Second Ave
160,38.996051,-84.363146,/State Hwy 547
185,39.079383,-84.471611,Laycock Ln
891,39.099180,-84.492424,Riverboat Row/
710,39.063752,-84.447647,S Fort Thomas Ave/Garrison Ave
362,39.072890,-84.460365,Greenwood Ave/S Grand Ave
684,39.024079,-84.480796,Aa Hwy/Licking Pike
305,39.082458,-84.464271,Devils Den
216,39.028496,-84.439567,Cedar Pt/Locust Pt
185,39.092635,-84.455422,Inverness Pl
216,39.039741,-84.473457,Wesley Dr/Overview Ct
276,39.081349,-84.497795,Lowell St/Hodge St
276,38.975421,-84.362549,/Aa Hwy
185,39.033583,-84.394661,W 4th St
418,39.102037,-84.477623,Washington Ave/Retreat St
276,39.030095,-84.470394,Johns Hill Rd
362,38.971801,-84.392265,Alexandria Pike/Meadow Ct
788,39.097831,-84.489609,Brown Aly/Providence Way
185,38.912716,-84.282852,Aa Hwy/California Cross Rd
185,38.971309,-84.394623,Meadow Ln/Meadow Ct
246,38.960066,-84.385811,E Main St/Riley Rd
216,39.010018,-84.426697,Schabell Dr
185,38.884293,-84.387863,Alexandria Pike/Golfview Dr
968,39.089561,-84.484634,Monroe St/E 10th St
160,39.096302,-84.464150,Stardust Pt
185,39.055732,-84.455422,Sheridan Ave
499,39.041773,-84.442276,Winkler Dr
1020,39.097217,-84.483284,Donnemeyer Dr/6th St/Riviera Dr
334,39.088908,-84.472588,Chesapeake Ave
499,39.086626,-84.501663,Brighton St/W 6th St
185,39.037945,-84.472695,Trailridge Ln
305,39.053095,-84.479606,Timber Ridge Dr
216,38.966173,-84.400063,Wright Ct
1174,39.027803,-84.463699,Johns Hill Rd/University Dr
305,39.071887,-84.474541,Electric Ave/Wm Blatt Ave
362,39.056374,-84.449554,Alexandria Pike/Concord Ave
246,39.087814,-84.478378,Spring St/Park Ave
160,39.043288,-84.461075,Tessenneer Dr
526,39.091047,-84.491058,Saratoga St/E 7th St
499,39.093636,-84.489731,Overton St/E 6th St
185,39.114409,-84.467544,/Fifth Ave
216,38.919769,-84.399833,Labrador Ln/Mallard Dr
839,38.991915,-84.409338,Alexandria Pike
160,39.080811,-84.460861,Azalea Ter
185,39.099401,-84.465545,Rossford Run
216,38.986633,-84.405914,Kuessner Dr/N Viewpoint Dr
418,39.086201,-84.490685,E 10th St/W 10th St/York St
160,38.978176,-84.378228,Laurel Ridge Dr
185,39.102308,-84.474785,Al/Lincoln Rd/Ward Ave
1123,39.096384,-84.484756,E 6th St
160,38.985522,-84.397896,E Alexandria Pike
216,38.950207,-84.388535,Broadfield Ct
1174,39.099120,-84.490661,Illinois Aly/Linden Ave
160,38.941779,-84.377804,Jerry Wright Rd
276,39.090723,-84.460083,Wessex Ct
216,39.060749,-84.471901,Fox Chase Dr/Woodland Hills Dr
216,39.019968,-84.464447,Ridge Hill Dr/Robin Ln
276,38.988815,-84.395088,Aa Hwy/Us27-Aa Connector Rd/Thelma Lee Dr
526,39.108559,-84.479492,O Fallon Ave
943,39.102259,-84.482491,Lafayette Ave/School Aly
160,39.097011,-84.441544,Tower Hill Rd
160,39.012074,-84.426583,/Keating Dr
552,39.088656,-84.498009,W 6th St/Liberty St
160,39.014613,-84.429280,Ripple Creek Rd
276,39.033776,-84.447601,Robinson Rd/Regency Ct
246,39.092699,-84.480583,E 10th St/N Grand Ave
246,39.004207,-84.447409,Ridgepointe Dr/Summitview Ct
334,39.058689,-84.461685,Fairway Dr/Blossom Ln
185,38.945582,-84.393880,Alexandria Pike
185,39.003450,-84.440023,Murnan Rd
185,38.986728,-84.365087,Poplar Ridge Rd
160,38.995976,-84.363185,State Hwy 547/Gresskamp Rd
552,39.051643,-84.467074,I- 471
2168,39.093545,-84.497055,3rd St/E 3rd St/US Hwy 27
276,39.056788,-84.459951,Mulberry Ct/Brushwood Dr
1667,39.091650,-84.495651,W 5th St/E 5th St/York St
552,39.089304,-84.494533,Putnam St
1719,39.018074,-84.483380,Country Dr/Crossing Dr
160,39.031128,-84.373406,Anderson Ln/Mary Ingles Hwy
160,38.953739,-84.402242,Gilbert Ridge Rd/Williams Rdg
472,39.090713,-84.475256,Water Works Rd
2301,39.018644,-84.482567,Town Dr/Crossing Dr
418,38.972915,-84.392303,Alexandria Pike/Panorama Dr
1693,39.026172,-84.469894,Meadow Trail Dr
246,39.089478,-84.462013,Maine Ave
216,39.014258,-84.476174,Aa Hwy/Rosewood Dr
185,38.980187,-84.389778,Kees Dr
185,39.064068,-84.444191,Army Reserve Rd/Boone
276,39.040353,-84.464538,Three Mile Rd/Sunset Dr
2435,39.094328,-84.494064,Saratoga St/E Southgate St
2542,39.091541,-84.493523,Monmouth St/E 6th St
216,39.058875,-84.454308,Sherman Ave/Grant Ave
631,39.076391,-84.459373,Highview Dr/Highland Ave
216,38.953865,-84.361092,N Rosewood Ct/Ridgewood Dr/S Rosewood Ct
631,38.992314,-84.409249,E Low Gap Rd
160,39.001829,-84.398894,A Pennies Way
160,38.955738,-84.357292,N Longwood Ln
658,39.003636,-84.424402,Plaza Dr
334,39.081965,-84.466042,Picketts Charge St/Picketts Charge
160,38.920775,-84.448640,Creektrace Rd
1020,39.097327,-84.494657,Riverboat Row
160,38.870021,-84.258891,Null/Avery Rd
185,39.055139,-84.467293,Blossom Ln
276,39.094744,-84.451576,Rosemont Ave/Strathmore Ave
552,39.102849,-84.486015,Ross Ave
160,39.101440,-84.458664,Devon Ln/E Kimberly Dr
994,39.099178,-84.489388,Beech St/E 2nd St
216,38.853407,-84.386126,Walnut Creek Dr
276,39.089723,-84.498016,James Aly/Central
605,39.048021,-84.456083,/I- 275
418,38.974727,-84.392364,Alexandria Pike/Meyer Rd
917,39.064452,-84.446716,S Fort Thomas Ave/Midway Ct
552,39.027685,-84.459694,Johns Hill Rd
160,39.083647,-84.444267,Henry Ave/Henry Ct
362,39.107863,-84.478760,O Fallon Ave
499,39.083550,-84.465243,Carriage House Dr
390,39.093097,-84.447708,E Southgate Ave/W Southgate Ave/N Fort Thomas Ave
579,39.004285,-84.424720,Crossroads Blvd/Alexandria Pike/Plaza Dr
160,38.966364,-84.348732,Upper Lick Branch Rd
160,38.942996,-84.387139,Yellowwood Ct
160,39.020300,-84.435371,Victoria Way
216,39.108078,-84.476402,Walnut St/9th Ave
552,39.004194,-84.438891,Valley Ter/Ridgeline Dr
305,39.066397,-84.445239,Cochran Ave
185,38.974947,-84.385895,Neltner Rd/Poplar Ridge Rd
334,39.072556,-84.491958,Queen City Rd/Licking Pike
305,39.069125,-84.449662,Crescent Ct/N Crescent Ave
160,38.983936,-84.387017,Aa Hwy/Enzweiler Rd
3087,39.091964,-84.493912,James Aly/Monmouth St
736,39.023756,-84.443611,French St
362,39.094529,-84.488121,E 6th St/Park Ave
185,38.949133,-84.360008,Springwood Dr/Woodbury Ln
160,39.016518,-84.431114,Ripple Creek Rd
246,39.111163,-84.473066,9th Ave
246,39.083222,-84.467150,Little Round Top Rd
160,38.847398,-84.378395,Alexandria Pike/Nagel Rd
334,38.950090,-84.360695,Springwood Dr/Brookwood Dr
216,38.949022,-84.386300,Rockledge Ct
605,39.091420,-84.490395,Roberts St/E 7th St
246,39.014084,-84.441129,Marble Way
305,39.061177,-84.450012,Warren Ct/S Fort Thomas Ave
160,39.075809,-84.493034,/Observation Ave
185,38.976581,-84.375031,Ridgeway Xing/Windsor Ct
526,38.973603,-84.388023,Brentwood Cir
185,38.945731,-84.349460,Flagg Springs Pike
216,39.078313,-84.478291,Youngs Ct
160,39.000955,-84.447753,Glenridge Dr
526,39.108504,-84.479439,/O Fallon Ave
185,38.833963,-84.366318,Alexandria Pike/Short Fairlane Rd
160,39.109051,-84.447299,Mary Ingles Hwy
160,38.978678,-84.393624,Alexandria Pike
276,39.078360,-84.462059,Azalea Ter/Newman Ave
472,39.108011,-84.480179,Van Voast Ave
216,38.989128,-84.406295,Backus Dr/Alexandria Pike
160,39.018000,-84.375363,State Hwy 547
216,39.078760,-84.477981,New Linden Rd/Parker Rd
160,39.113229,-84.473159,/Dayton Ave
160,38.924609,-84.400711,Whirlaway Ln/Alysheba Dr
216,39.113537,-84.473480,Fifth Ave/Dayton Ave
472,39.064499,-84.469885,Ravine Cir
710,39.027474,-84.459961,Johns Hill Rd/Knollwood Dr/Martha Layne Collins Blvd
160,38.940546,-84.382155,Jerry Wright Rd
334,39.088566,-84.452911,Glen Royal Dr
390,39.024656,-84.456947,Highland Meadows Dr/Meadow Ln
246,39.079351,-84.499269,W 11th St
788,39.033822,-84.452759,Elblaine Dr/Alexandria Pike
216,38.952586,-84.394348,Terrace Dr/Old State Rd
276,39.093424,-84.486809,E 7th St/Park Ave
160,39.100418,-84.456208,Gunpowder Rdg
1355,39.009762,-84.469116,Gloria Terrell Dr/Aa Hwy/Pooles Creek Rd
276,39.111568,-84.480118,Walnut St/Third Ave
246,39.076784,-84.449936,Trinity Pl/Saint Nicholas Pl
160,39.084779,-84.468872,Huntemann Ln/Nob Hill Dr
160,39.084866,-84.468559,Thomas Pointe Dr/Huntemann Ln
418,39.112916,-84.474968,Fifth Ave/McKinney Ave
334,39.024561,-84.450319,Monterey Ln
276,39.112847,-84.468085,7th Ave
1615,39.092413,-84.498429,3rd St/Columbia St
246,39.115122,-84.466584,4th Ave/Fourth Ave/Boone St
305,39.093819,-84.448219,Bellaire Pl/N Fort Thomas Ave
160,39.034864,-84.388123,E 1st St/Maple Rd
160,38.864305,-84.392153,Alexandria Pike
334,39.003908,-84.440124,Aa Hwy/Murnan Rd
185,39.054855,-84.433430,Mary Ingles Hwy
185,39.050618,-84.449409,Scherrer Rd
1046,39.033292,-84.460097,Nunn Dr/University Dr
445,39.081809,-84.498642,Lowell St
1097,39.085887,-84.479492,/Carothers Rd
185,38.851385,-84.382019,Chandler Dr
362,39.013419,-84.432475,Alexandria Pike
1511,39.092280,-84.496224,W 4th St/E 4th St/York St
605,39.086253,-84.487252,E 11th St/Gideon Aly
418,39.040867,-84.476212,/Feldman Ln
499,39.090501,-84.497719,W 5th St
1174,39.079664,-84.466636,N Grand Ave
160,39.097433,-84.463310,Rock Hill Ln/Scenic View Dr
160,39.064624,-84.459518,Canon Rdg/Alexandria Pike
736,39.038394,-84.459991,Monroe Ave
160,38.912220,-84.274844,/Sutherland Ln
334,39.058596,-84.451050,Alexandria Pike
390,39.094394,-84.488365,Arnold Aly/E 6th St
185,39.051183,-84.486992,Three Mile Rd/Licking Pike
160,38.996116,-84.405857,E Low Gap Rd
216,39.115362,-84.469338,Fourth Ave
684,39.093752,-84.476364,Glazier Ave/Wilson Rd
246,39.055166,-84.465844,Blossom Ln/Tracy Ln
276,38.950932,-84.393524,Alexandria Pike/Paul Ln
2542,39.095332,-84.492981,Washington Ave/Parkers Aly
472,39.025973,-84.478816,Hampton Ln
185,39.090101,-84.471607,E Crescent Ave/W Crescent Ave
246,39.082004,-84.450493,N Fort Thomas Ave/Memorial Pkwy
305,39.111502,-84.477875,/Vine St
160,38.855257,-84.288200,/Shaw Goetz Rd
579,39.073535,-84.463715,Grand Lake Dr
362,39.096101,-84.475838,Clayton Ct/Geiger Ave
160,39.039336,-84.451347,Hale Ave/Vogel Rd
160,38.989148,-84.413254,W Low Gap Rd
362,39.071326,-84.474838,Ridgeway Ave/
160,38.906786,-84.309874,Flagg Springs Pike
216,38.835431,-84.367011,/Plum Creek Rd
1850,39.028593,-84.451187,Martha Layne Collins Blvd
445,39.113876,-84.470818,6th Ave/Sixth Ave
305,39.113921,-84.461891,Clark St/Fifth Ave
216,39.090140,-84.481383,E 11th St/Watch Point Ln/Center St
185,39.049226,-84.483170,Bentwood Hills Dr
305,39.088087,-84.457375,Wilson Rd
788,39.089501,-84.485581,Boone
160,38.943461,-84.345680,/Flagg Springs Pike
216,39.009726,-84.466802,Mission Way
418,39.094728,-84.481348,E 9th St
160,39.035803,-84.387603,Mary Ingles Hwy/Maple Rd
305,39.039333,-84.473152,Overview Ct
160,38.925310,-84.439751,Lauren Ln/Kappes Dr
305,39.068002,-84.481102,Vail Ct
390,39.016741,-84.478726,Aa Hwy
710,39.023424,-84.480911,Aa Hwy/I- 275
334,39.077375,-84.476265,Dexter Rd/Linden Rd
216,38.978185,-84.373444,Windsor Ct
216,39.019991,-84.464691,Robin Ln
579,39.095464,-84.491402,Overton St/Waters Aly
305,39.080358,-84.497679,W 11th St
185,39.075308,-84.489418,Amelia St/Widrig St
160,38.985820,-84.420609,Aa Hwy/Tollgate Rd
552,38.961343,-84.392417,Ave of Champions
526,39.086474,-84.486854,Saratoga St/E 11th St
276,39.073820,-84.474478,Willow St/Evergreen Dr
736,39.025710,-84.455357,Martha Layne Collins Blvd
334,39.054268,-84.447571,Hill St
526,39.105891,-84.479820,Poplar St/Pflueger Aly
579,38.986573,-84.404014,Alexandria Pike
185,39.075574,-84.492543,Observation Ave/W Broadway St
276,39.009003,-84.471931,Plum St
160,38.824499,-84.365296,Alexandria Pike/Hwy 27 N
472,39.065835,-84.468384,/Moock Rd
762,39.097195,-84.484707,I- 471
216,39.080916,-84.463417,Daisy Ln/Newman Ave
362,39.083921,-84.467133,Little Round Top
1278,39.088659,-84.489578,E 9th St/Forbes Aly
185,39.023599,-84.449417,Sonoma Ct
334,39.071799,-84.468178,/Highland Ave
658,39.083113,-84.497925,Brighton St/Lindsey St
390,39.048591,-84.446312,Alexandria Pike
390,39.017283,-84.429276,Skylark Ln/Sabre Dr
684,39.064583,-84.470437,Regal Ridge
499,39.061591,-84.452453,Alexandria Pike
839,39.033400,-84.454475,Marshall Ln
185,39.004802,-84.444771,Aa Hwy
160,39.007069,-84.406573,E Alexandria Pike
185,39.054876,-84.481482,Creekwood Dr
160,39.032038,-84.379194,Saint Anne Dr
1407,39.087297,-84.474075,/I- 471
246,38.952499,-84.367028,Oakwood Ln/Brookwood Dr
1071,39.087428,-84.488457,E 10th St/Forbes Aly
1046,39.080563,-84.467056,/Churchill Dr
334,39.069969,-84.470192,Lockland Rd
160,39.100744,-84.446610,Elsmar Ave
499,39.043778,-84.467880,Three Mile Rd/I- 275
246,39.087811,-84.463112,Park Pl
499,39.090002,-84.483823,E 10th St/State Hwy 1120
1097,39.083831,-84.483787,Monmouth St/Parkview Ave
305,39.041067,-84.464852,Three Mile Rd
185,39.028795,-84.479942,/Licking Pike
552,39.086783,-84.487167,Saratoga St
160,38.927290,-84.445389,Kappes Dr
788,39.078504,-84.481186,Robinwood Pl/20th St
185,38.855482,-84.287621,Wesley Chapel Rd/State Hwy 10 N
736,39.079953,-84.481949,19th St/Summer Hill Ave
160,38.948671,-84.390278,Broadfield Ct
216,38.957792,-84.391685,E Main St/Greenup St
185,39.090590,-84.441056,Riverside Pkwy
334,39.084074,-84.498825,Brighton St/Constance Aly
185,39.084257,-84.487877,Orchard St
160,39.048402,-84.474915,Three Mile Rd
160,39.101879,-84.459175,Devon Ln
472,38.957666,-84.393104,E Main St/Alexandria Pike/W Main St
579,39.070289,-84.470535,Lockland Rd/Evergreen Dr
160,38.956185,-84.396393,Gilbert Ridge Rd/W Main St
390,39.094797,-84.480408,I- 471
160,39.072358,-84.489044,Truesdale St/Grandview Ave
390,39.077617,-84.447830,S Fort Thomas Ave/Saint Nicholas Pl
185,39.061051,-84.472153,Fox Chase Dr/Moock Rd
216,39.069446,-84.483711,Winter View Ln/Snow Shoe Dr
160,39.084818,-84.457443,Ohio Ave
276,39.115408,-84.469780,Fourth Ave/Clay St
185,39.088606,-84.460723,Maine Ave/Taylor Mill Rd
891,39.099202,-84.492401,Riverboat Row/I- 471
160,39.026472,-84.436291,Jude Pt
185,39.024032,-84.449111,Sonoma Ct
246,39.075819,-84.472732,Poplar St
160,39.012868,-84.453918,Stonycreek Ct/Stonyridge Dr
246,39.087393,-84.502357,Brighton St/Chestnut Way
362,39.113470,-84.475563,Fourth Ave/McKinney Ave
185,38.996122,-84.435921,Ruschman Dr
160,38.931641,-84.287163,Summer Hill Rd/Sunrise Rd
579,39.096596,-84.491028,Brown Aly/Park Ave
160,39.032984,-84.480537,Banklick Rd/Licking Pike
160,39.014722,-84.429306,Ripple Creek Rd
552,39.093401,-84.490158,Hamlet Aly/E 6th St
445,39.075120,-84.447151,S Fort Thomas Ave/Manor Ln
839,39.093192,-84.478261,I- 471
185,39.102796,-84.458448,Covert Pl
185,39.110808,-84.472582,McKinney Ave
160,38.935253,-84.418959,/Creektrace Rd
418,39.063298,-84.449797,Southview Ave
276,39.072714,-84.446510,S Fort Thomas Ave/E Villa Pl
445,39.072160,-84.467606,Highland Ave
1123,39.031731,-84.451721,Alexandria Pike
362,39.043383,-84.454918,Davis Rd
246,38.956071,-84.355080,N Blackwood Ct
526,39.066400,-84.465523,I- 471
362,39.005363,-84.460749,Licking Pike
390,39.111781,-84.473724,McKinney Ave/Seventh Ave
160,38.978480,-84.387352,Arbor Dr/Timberline Dr
334,39.076111,-84.454559,Madonna Pl/Highland Ave
839,39.071359,-84.470345,Temple Pl/Alexandria Pike
418,38.978914,-84.375000,Harvard Ln
160,39.088409,-84.459732,Taylor Mill Rd
185,39.044326,-84.450775,N Miller
185,39.099661,-84.443031,Rio Vista Dr
276,39.030420,-84.477180,Thelma Ln
160,38.936482,-84.308105,Carthage Rd/Washington Trace Rd
552,39.101152,-84.479012,Taylor Ave
185,39.097122,-84.488338,E 4th St
499,39.103807,-84.484085,Lafayette Ave/Williamson Aly
445,39.088865,-84.494141,John Aly/Putnam St
160,39.087481,-84.450455,Carroll Mayo Ct
216,39.034261,-84.393188,W 3rd St/Oak St
160,38.916587,-84.285439,Aa Hwy/California Cross Rd
185,38.954471,-84.380386,Persimmon Grove Pike/Bittersweet Dr
216,39.093646,-84.461311,Oakwood Dr/Chestnut Ln
160,38.976263,-84.363723,Four Mile Rd/Aa Hwy
305,39.073746,-84.482650,Bluegrass Ave
418,39.082427,-84.470513,/N Grand Ave
160,38.978728,-84.391771,Helen Dr
305,39.116717,-84.471176,/Greendevil Ln
684,39.108788,-84.481003,Van Voast Ave/Gorman Aly
2168,39.032107,-84.452408,/Alexandria Pike
185,39.109682,-84.473503,9th Ave/Ervin Ter
418,39.026578,-84.461284,Knollwood Dr
276,39.111711,-84.480263,Walnut St
579,39.108458,-84.480644,Van Voast Ave/Fairfield Ave
160,39.039150,-84.401924,Messer Rd/Mary Ingles Hwy
334,39.035686,-84.390419,E 1st St/Four Mile Pike/W 1st St
160,39.015731,-84.430611,Ripple Creek Rd
160,39.020708,-84.463059,Squire Ct
276,39.006187,-84.426383,Rose Pl
658,39.088327,-84.475479,Ohio Ave/Chesapeake Ave
185,38.841868,-84.373474,Marl-Rich Ln/Alexandria Pike
710,39.080540,-84.481567,Monmouth St
185,39.014250,-84.455985,Darlas Dr
185,39.114018,-84.476135,McKinney Ave/Third Ave
246,39.107978,-84.459565,N Ridge Ln/Dayton Pike
160,39.117046,-84.462307,Dodd Dr
160,39.113424,-84.465311,6th Ave/Sixth Ave
185,39.006272,-84.430229,Millrace Dr/Upland Ct
216,38.988103,-84.395789,Us27-Aa Connector Rd
6335,39.032845,-84.463763,Nunn Dr
185,38.963927,-84.401772,Horizon Hill Ct
605,39.084974,-84.489578,W 11th St/E 11th St/York St
472,39.032372,-84.474553,/Johns Hill Rd
185,39.052016,-84.429756,Brent Lndg
185,39.084801,-84.463264,Patricia Ct/Jennifer Ct
216,39.022748,-84.451298,Vina Vis
1097,39.098899,-84.488999,3rd St/Beech St
160,38.927298,-84.438171,/Indian Trace Rd
160,39.018645,-84.448204,Buning Ln
160,38.887697,-84.245780,Main St
246,39.043224,-84.449936,/Renshaw Rd
185,39.072658,-84.473320,Evergreen Dr/Wm Blatt Ave
160,38.976786,-84.369522,E Peggy Ann Ln
684,39.106200,-84.484345,Union St/Taylor Ave
305,39.053045,-84.481888,Lakeview Dr/Bentwood Hills Dr
216,39.038777,-84.451965,Hale Ave/Camp Rd
160,38.987991,-84.347161,Ten Mile Rd
160,38.860201,-84.387436,Lake St/Spruce St
185,39.078691,-84.493828,Clifton Ave/W 13th St
160,39.004593,-84.453205,Ridgepointe Dr
246,39.080746,-84.488419,Biehl St/Home St
684,39.053749,-84.438843,I- 275
3868,39.036754,-84.465347,Campbell Dr
305,39.022536,-84.466354,Brandywine Ct
216,38.960319,-84.374611,Shadow Wood Ct
160,38.856222,-84.284998,/Baynum Hill Rd
185,39.116193,-84.469666,Clay St/Third Ave
185,38.994889,-84.363617,State Hwy 547
160,38.918567,-84.399071,Pintail Ct
305,39.056533,-84.460345,Mulberry Ct
813,39.018302,-84.479881,Leitch Station St/Steffen Ln
418,39.058058,-84.478048,Woodland Hills Dr
246,39.074190,-84.450173,Linden Ave/Carolina Ave
216,39.095942,-84.472221,Taylor Ave/Memorial Pkwy
305,39.065313,-84.464279,Alexandria Pike
216,39.090021,-84.501801,W Southgate St/Grant Ln
185,39.116444,-84.463165,2nd Ave/Benham St/Second Ave
658,39.085364,-84.488876,Orchard St/E 11th St
246,39.039306,-84.453071,Camp Rd
160,38.959723,-84.377953,Baywood Ct
160,38.893157,-84.251146,Mary Ingles Hwy
185,39.093909,-84.485901,E 7th St/Maple Ave
216,39.099791,-84.457951,Mitchell Hill
2381,39.100680,-84.489907,/Dave Cowens Dr
185,38.889585,-84.386835,Alexandria Pike
276,38.953510,-84.362129,Ridgewood Dr/Brookwood Dr
160,38.955584,-84.389228,Saint Marys Church Dr
246,38.974910,-84.386549,Poplar Ridge Rd/Longridge Dr
160,38.932500,-84.420797,Creektrace Rd
472,39.081969,-84.498352,Lowell St/W 10th St
160,39.032542,-84.378792,Saint Anne Dr/Mary Ingles Hwy
631,39.030279,-84.476288,Thelma Ln/Alanna Dr
390,39.081095,-84.494141,Gosney Aly/Patterson St
216,39.095747,-84.487579,Ohio Aly/Maple Ave
472,38.928389,-84.387787,Summerwind Ct/Edgewater Way
185,39.045826,-84.442230,Linet Ave
472,39.042164,-84.456657,I- 471
246,39.054407,-84.465736,Heather Hill Dr/Tracy Ln
185,38.914337,-84.389709,Alexandria Pike
216,39.067521,-84.479200,/W Walnut St
216,39.081413,-84.444481,Lumley Ave/Holmes Ave
160,39.086105,-84.471047,Nob Hill Dr
160,39.008214,-84.409706,Cabin Creek West Dr/Cabin Creek East Dr/E Alexandria Pike
185,38.997700,-84.415698,Rocky View Dr
216,39.097704,-84.461494,Scenic View Dr/Majestic Dr
276,39.024033,-84.446197,Aqua Dr/Pooles Creek Rd
334,39.074125,-84.476150,Electric Ave/Beech Ave
276,38.975325,-84.362663,/Aa Hwy
994,39.038219,-84.450935,Camp Rd/Alexandria Pike
865,39.025930,-84.447250,/Alexandria Pike
160,39.008011,-84.458048,Dry Creek Rd
216,38.875055,-84.384844,Parklake Rd
526,39.059344,-84.451691,S Fort Thomas Ave/Alexandria Pike
216,39.022294,-84.461037,Ridge Hill Dr/Woodcrest Ct
160,38.999034,-84.424759,Cold Stream Rd
579,39.059181,-84.489197,North St/Steel Plant Rd
684,39.089688,-84.474671,Burnet Ave/Baum St
499,39.071052,-84.446144,S Fort Thomas Ave/Rossmore Ave
216,39.081638,-84.450035,Forest Ave/N Fort Thomas Ave
362,39.074103,-84.447197,S Fort Thomas Ave/Tremont Ave
362,39.093704,-84.483711,E 8th St/Kentucky Aly
362,39.019837,-84.439373,Millstone Ct
1929,39.089129,-84.477318,Vine St/N Grand Ave
216,39.108160,-84.471827,Locust Ave/Silver St
305,39.110203,-84.463850,Riverpointe Dr
305,39.089253,-84.453033,Water Works Rd/Taylor Ave
160,38.933055,-84.442352,/Indian Trace Rd
185,39.064463,-84.440168,Carmel Manor Rd
6274,39.095494,-84.495323,L and N Pedestrian Bridge
390,39.016086,-84.478661,Gloria Terrell Dr/Beacon Dr
334,39.023595,-84.421395,Dodsworth Ln
246,38.984025,-84.397834,E Alexandria Pike
276,39.079362,-84.496292,Lowell St/Licking Pike/W 12th St
499,39.084315,-84.494095,W 10th St/Liberty St
216,39.065255,-84.445144,Cochran Ave
185,39.007559,-84.458328,Dry Creek Rd/Aa Hwy
160,39.087401,-84.463097,Park Pl/Boardwalk St
305,39.068605,-84.447502,S Fort Thomas Ave/S Crescent Ave
185,38.983281,-84.385518,Aa Hwy
160,39.021084,-84.332207,Birch Dr/Martz Dr
445,39.100936,-84.483605,Clark St/Center St
160,39.113555,-84.466805,Boone St/Sixth Ave
185,38.953696,-84.357598,S Teakwood Ct
185,39.114051,-84.476174,McKinney Ave/Third Ave
472,39.083944,-84.466537,Little Round Top
160,38.828825,-84.365402,Fairlane Rd/Alexandria Pike
1278,39.028968,-84.450607,Alexandria Pike/Martha Layne Collins Blvd
160,39.031061,-84.373032,Harry Reinert Dr/Mary Ingles Hwy
788,39.028134,-84.459045,Clearview Dr/Johns Hill Rd
276,39.041670,-84.448700,Alexandria Pike/Bramble Ave
216,39.027186,-84.464936,/Hilltop Rd
736,39.037866,-84.452068,Hale Ave
216,38.980776,-84.374466,Aa Hwy/Poplar Ridge Rd
185,39.045787,-84.442520,Linet Ave
160,39.022165,-84.449369,Pooles Creek Rd
1046,39.092333,-84.476143,/Memorial Pkwy
472,39.054550,-84.451813,Pleasant Ave
445,39.079181,-84.481731,Summer Hill Ave
216,38.981077,-84.376062,Aa Hwy
445,39.028254,-84.472233,/I- 275
631,39.004782,-84.438817,Valley Ridge Cir/Ridgeline Dr
185,39.000905,-84.428790,Lake Watch Ct
246,39.024022,-84.449897,Napa Vly/Mendocino Ct
305,38.999324,-84.408918,/Rocky View Dr
552,39.090471,-84.485459,Monroe St
160,39.029905,-84.366516,Mary Ingles Hwy/Melbourne Ave
160,38.888145,-84.266959,Aa Hwy
160,39.044507,-84.421730,Mary Ingles Hwy
552,39.070450,-84.470787,Evergreen Dr/Retreat St
160,39.048467,-84.474851,Gibson Ln
160,39.110045,-84.476318,Vine St/Eighth Ave
736,39.027146,-84.460451,Knollwood Dr
334,39.057951,-84.477516,View Terrace Dr/Woodland Hills Dr
1071,39.098217,-84.491638,Illinois Aly
160,39.022329,-84.449199,Pooles Creek Rd
334,39.090607,-84.483192,Vine St/E 10th St
445,39.105568,-84.481346,Washington Ave/Williamson Aly
185,39.091463,-84.454574,/Memorial Pkwy
160,38.968389,-84.305771,Neises Rd
917,39.092001,-84.475807,Loraine Ct
526,39.064963,-84.470514,Ravine Cir
305,39.096073,-84.487229,Ohio Aly/Tennessee Aly
762,38.992133,-84.409619,Alexandria Pike
631,39.095955,-84.485550,/E 6th St
472,39.083852,-84.465416,Little Round Top
3559,39.095640,-84.493263,Washington Ave/E 3rd St
305,39.065824,-84.484764,Grandview Ave
185,39.064017,-84.445145,/Boone
362,39.070384,-84.475434,North St/W Walnut St
276,39.081188,-84.498077,Lowell St
185,39.102433,-84.474312,Van Voast Ave/Lincoln Rd
276,39.004052,-84.451785,Ridgepointe Dr/Spireridge Ct
160,38.886953,-84.265497,Aa Hwy
305,39.081634,-84.465950,Picketts Charge
185,38.955193,-84.347901,Tulipwood Ct
160,38.937685,-84.410164,Creektrace Rd
305,39.089439,-84.497772,Central/Lewis Ln
216,38.918097,-84.395966,Pleasant Ridge Rd/S Licking Pike
605,39.101180,-84.483208,Hazen Aly/Center St
246,38.891891,-84.378941,Cedar Trail Ct/S Sun Valley Dr
160,38.996421,-84.437842,Ruschman Rd/Ruschman Dr
390,39.080413,-84.464707,Churchill Dr/Keeneland Dr
605,39.082733,-84.493637,W 11th St/Isabella St
160,39.001906,-84.417986,Aa Hwy
216,39.043794,-84.450859,N Miller Ave/Renshaw Rd
917,39.104019,-84.479714,Washington Ave/School Aly
246,39.096567,-84.450058,N Fort Thomas Ave/Donnelly Dr
334,39.072899,-84.470299,Linden Rd/Joyce Ave
185,39.071162,-84.453041,Pebble Creek Dr
579,39.095804,-84.485832,/E 6th St
160,38.915102,-84.267761,California Cross Rd
246,39.098085,-84.478659,Roosevelt Ave
246,38.965674,-84.374352,Whispering Woods Ln
216,38.989222,-84.406117,Backus Dr
305,39.073384,-84.484810,/Caroline Ave
185,39.046522,-84.486656,Licking
526,39.005266,-84.439916,Valley Brook Cir
334,39.047720,-84.453011,I- 275
160,39.012316,-84.444081,Marble Way
216,39.025728,-84.423737,Ervin Cir
160,38.899459,-84.434709,/Pond Creek Rd
160,39.104913,-84.463077,Lynn Dr
7759,39.032837,-84.464836,Nunn Dr
1071,39.083851,-84.483856,Carothers Rd/Monmouth St/16th St
160,39.034627,-84.390404,Four Mile Pike/W 2nd St/E 2nd St
160,39.076620,-84.490936,Grandview Ave/Main St
472,39.083651,-84.465904,Little Round Top
276,38.961013,-84.380226,/Fairground Rd
362,39.080795,-84.493820,Patterson St/W 12th St
2088,39.093684,-84.498459,W 2nd St/US Hwy 27
185,39.097474,-84.476631,Anspaugh Ave/Lafayette Ave
246,39.085527,-84.467437,Eagle View Ln
1278,39.025169,-84.480598,/Licking Pike
865,39.067521,-84.465973,/Alexandria Pike
418,38.961629,-84.392456,Ave of Champions/Pete Neiser Dr
216,39.006025,-84.461128,/Licking Pike
160,39.029949,-84.367082,Mary Ingles Hwy/Donna Sue Ln
445,39.096186,-84.492050,Overton St/E 3rd St
552,39.088295,-84.500732,Patterson St/Chestnut Way
185,39.013322,-84.441225,Boulder Vw
246,39.108181,-84.476509,Walnut St
160,38.962908,-84.380157,/Riley Rd
579,39.083424,-84.465821,Little Round Top
246,39.041783,-84.450370,Clark St/Bramble Ave
185,39.114474,-84.468284,Fifth Ave/Main St
891,39.025585,-84.470268,Meadow Trail Dr
418,39.090779,-84.485748,E 9th St/Monroe St
334,39.069893,-84.450173,Crescent Ct
334,39.054747,-84.435725,I- 275
1123,39.031422,-84.452011,Johns Hill Rd/Alexandria Pike
185,39.041763,-84.450058,Hale Ave/Bramble Ave
185,39.094029,-84.441131,Miami Pkwy
160,39.074159,-84.454321,David Ct/Sabre Ct
390,39.004018,-84.440146,Murnan Rd
445,39.112861,-84.474907,Fifth Ave/McKinney Ave
418,39.000555,-84.420151,Harvest Trl/Alexandria Pike
305,39.065749,-84.448960,Tower Pl
160,39.055993,-84.459575,Saffron Cir/Mulberry Ct
246,39.105093,-84.477089,Van Voast Ave/Center St
305,39.052714,-84.447823,Holly Woods Dr/Alexandria Pike
526,39.065423,-84.483696,Frosty Ct/Aspen Ct
160,38.918093,-84.264496,Washington St/Nelson St
605,39.051320,-84.466550,I- 471
445,39.065960,-84.465560,I- 471
526,39.092683,-84.488151,Gugel Aly/E 7th St
552,39.084418,-84.499138,Brighton St/Keturah St
526,39.074202,-84.473892,Willow St/Alexandria Pike
216,38.956200,-84.339331,Aa Hwy
390,39.063324,-84.453644,Alexandria Pike
185,39.075842,-84.491623,W Broadway St/Clifton Ave
216,39.097852,-84.478823,Berry Ave/Roosevelt Ave
418,39.052415,-84.468010,I- 471
160,38.963129,-84.380798,Appleblossom Ln/Riley Rd
276,39.054342,-84.479538,Timber Ridge Dr/Willowbrook Ct
1982,39.093541,-84.497673,York St/US Hwy 27
160,39.019885,-84.427170,E Alexandria Pike
579,39.039359,-84.462582,Sunset Dr
499,38.973910,-84.388069,Brentwood Cir/Ashley Ct
160,39.072428,-84.477661,Harvard Pl
216,39.103751,-84.475685,Fuhrman Ave/Van Voast Ave
216,38.949120,-84.386449,Southwood Dr
246,39.089472,-84.461586,Water Works Rd
246,39.019853,-84.428994,Dodsworth Ln/E Alexandria Pike
185,38.951200,-84.362976,Ashwood Ln
160,38.885694,-84.264976,Dobbs Ln/Flagg Springs Pike
445,39.091659,-84.489015,Weingartner Aly/Weingartner Pl
246,39.057364,-84.452790,Grant St/Grant Ave
994,39.102627,-84.487038,Patchen Ave
216,39.113121,-84.461821,6th Ave/Clark St
362,39.045851,-84.452225,Louisville Rd/Deitrich Rd
216,39.086121,-84.445343,Dumfries Ave
552,39.088797,-84.495132,W 7th St/Columbia St
445,39.028149,-84.472354,I- 275
160,38.889710,-84.367068,Race Track Rd
472,39.099175,-84.498844,L and N Pedestrian Bridge
736,39.004400,-84.438400,Meridian Cir
684,39.093016,-84.490860,Washington Ave/E 6th St
185,39.069311,-84.444992,Rossmore Ave
160,39.048999,-84.483704,Three Mile Rd
160,38.952861,-84.368881,Red Bud Ln
418,39.087046,-84.492485,W 9th St/Putnam St
418,39.081647,-84.498055,Lowell St/Solar Aly
160,38.841415,-84.373068,Alexandria Pike
1589,39.026374,-84.470307,Meadow Trail Dr
160,39.082619,-84.488525,E 13th St/W 13th St
472,39.068659,-84.476257,Center St
185,38.987074,-84.363510,Four Mile Rd/Poplar Ridge Rd/4 Mile Rd
472,39.073703,-84.465424,I- 471/Highland Ave
276,38.972371,-84.391174,Ashley Dr/
160,39.085903,-84.444015,Lester Ln/Burnet Rdg
185,38.870431,-84.266693,W Kennedy Rd
216,39.114424,-84.476555,McKinney Ave/Second Ave
2061,39.101820,-84.488655,Riverboat Row/Riviera Dr/Fairfield Ave
605,39.070657,-84.459602,Aqua Vista Ct
499,39.111193,-84.477539,/Vine St/Fifth Ave
246,39.044873,-84.469147,/Three Mile Rd
216,38.980716,-84.374143,Aa Hwy
160,38.931280,-84.367737,Saddle Ridge Trl/Bridle Cv
216,39.077967,-84.489449,Ash St/Hoyer Aly
160,39.010000,-84.431587,Summit Ln/Royal Ave
684,39.095221,-84.491829,Hamlet Aly/Waters Aly
160,38.990968,-84.399094,/E Alexandria Pike
246,39.002094,-84.429756,Aa Hwy
160,38.991185,-84.422716,Aa Hwy
334,39.107108,-84.485306,Taylor Ave
246,39.104341,-84.477539,Ward Ave
276,39.117029,-84.469566,/Clay St
185,38.978624,-84.380341,Cedarview Dr
216,38.949817,-84.393599,Alexandria Pike
160,38.915282,-84.265864,Mary Ingles Hwy
246,39.008491,-84.472320,Interstate Access Rd
160,39.106614,-84.448265,Stanbery Rdg
160,38.843697,-84.375093,/Alexandria Pike
276,39.046296,-84.445579,/Alexandria Pike
246,39.002073,-84.422454,Aa Hwy
334,39.024071,-84.425377,Joseph Pl/Madonna Ln
1641,39.093273,-84.497185,3rd St/York St
362,39.020607,-84.416847,Uhl Rd/Alidrew Dr
185,39.039565,-84.458099,Harrison Ave
390,39.080102,-84.446945,Hagedorn Ln/Miller Ln
418,39.089007,-84.497376,Central/W 6th St
185,38.940558,-84.398239,Heritage Ct
160,38.921890,-84.288365,Makena Ln
526,39.091314,-84.491310,Saratoga St/Himmelwright Aly
334,39.043298,-84.455597,/I- 471
160,39.029822,-84.365418,Garfield Ave/Mary Ingles Hwy
390,39.069784,-84.442955,Crown Ave
185,39.024773,-84.457382,Highland Meadows Cir/Highland Meadows Dr
1459,39.102878,-84.487396,Patchen Ave/Fairfield Ave
185,38.977281,-84.335193,/Truesdell Rd
362,39.103594,-84.484863,Berry Ave/Ross Ave
160,38.959585,-84.395766,Ridge Dr
788,39.027576,-84.460488,Johns Hill Rd
552,39.095417,-84.490529,E 4th St
160,38.948556,-84.390240,Broadfield Ct
160,39.110286,-84.474556,Chesapeake Ave/Ervin Ter
160,39.089998,-84.467369,Kremer Ln
160,39.058590,-84.480621,Beverly Cir/Beverly Dr
472,39.024569,-84.458954,Highland Meadows Cir/Meadow Ln
390,39.074943,-84.472717,Willow St/Linden Rd
579,39.090422,-84.495528,W 6th St
362,39.064133,-84.455185,Alexandria Pike
216,39.076325,-84.472687,Poplar St/Joyce Ave
418,39.020406,-84.442626,Bluestone Ct
246,39.113035,-84.470452,Berry St/Seventh Ave
160,39.024527,-84.381348,State Hwy 547
418,39.081389,-84.494408,Thornton St/Patterson St
185,39.099011,-84.445244,Carrington Ct/Rio Vista Dr
305,39.113839,-84.460197,Fifth Ave
684,39.003999,-84.437810,Valley Ter
305,39.059028,-84.487739,North St/Elm St
185,39.115798,-84.469727,/Clay St
216,38.950044,-84.362632,N Cedarwood Ct
216,39.058584,-84.453995,Woodfill Ave/Grant Ave
445,39.060633,-84.470291,Fox Chase Dr
276,39.068133,-84.482575,Fort Beech Dr/Vail Ct
185,39.008678,-84.463531,Aa Hwy
362,39.075783,-84.455452,Highland Ave/Pentland Pl
605,39.074093,-84.457908,Ridgewood Pl
1046,39.098332,-84.493455,Riverboat Row/Park Ave
246,38.923908,-84.297071,/Aa Hwy
216,39.089247,-84.455231,Abi Ln
1615,39.104273,-84.486885,Eden Ave/Hallam Ave/Harbor Greene Dr
362,39.094898,-84.484131,E 7th St/Oak Ave
418,39.088210,-84.501999,W 5th St/W Southgate St
305,39.047487,-84.461778,/I- 275
579,39.088697,-84.499108,Lewis Ln/Isabella St
362,39.097417,-84.488685,Waters Aly
160,39.055845,-84.458107,Fairview Pl
1511,39.088542,-84.489784,E 9th St/Dayton St
418,39.097874,-84.450066,N Fort Thomas Ave/Mount Pleasant Ln
552,39.017537,-84.435138,Alexandria Pike
160,39.073817,-84.454124,David Ct
526,39.060356,-84.452629,Alexandria Pike
418,39.101771,-84.484711,Division St/Robson Ln
390,39.107085,-84.477966,Poplar St/O Fallon Ave/9th Ave
305,39.075186,-84.481453,Kentucky Dr/Mayo Cir
813,39.088755,-84.474830,I- 471/
160,38.886623,-84.257319,Smith Rd
472,39.102361,-84.485329,Lake St/Robson Ln
445,39.095484,-84.489594,Ader Aly/Park Ave
390,39.079957,-84.496971,Lowell St/Thornton St
276,38.953596,-84.360970,S Rosewood Ct
305,39.090066,-84.480496,Watch Hill Ln/Watch Point Ln
305,39.003687,-84.449768,Ridgepointe Dr/Farview Ct
160,38.956095,-84.396584,Spillman Dr/W Main St
216,39.014168,-84.429170,Ripple Creek Rd
216,39.045828,-84.449737,Dale Rd/Crestwood Ave
160,39.068281,-84.453308,Beechwood Ave
160,39.080704,-84.474381,Adrian Ct
276,39.100675,-84.459320,Brittany Ln/E Kimberly Dr
276,39.107594,-84.477150,Thornton St/9th Ave
160,38.985426,-84.420992,Kellan Ct
552,39.072930,-84.455353,S Grand Ave/Summit Ave/Pentland Pl
552,39.089478,-84.478477,Race St
276,39.107750,-84.476916,9th Ave
185,39.007732,-84.459288,Aa Hwy
216,38.971496,-84.399183,Christina Ct
185,39.102803,-84.458351,Covert Pl
160,38.957049,-84.339100,Lower Grandview Rd
362,39.025639,-84.457436,Dogwood Dr
526,39.071135,-84.448471,Klainecrest Ave/S Grand Ave
160,39.026512,-84.419249,Dodsworth Ln
160,38.989058,-84.413307,W Low Gap Rd
216,39.071036,-84.442520,Crown Pt
160,38.935985,-84.307647,/Washington Trace Rd
276,39.037172,-84.477371,Lighthouse Ct
334,39.082254,-84.485847,Parkview Ave/16th St
216,39.089066,-84.453301,Glen Royal Dr/Taylor Ave
305,39.067744,-84.478559,W Walnut St
788,39.083042,-84.450798,Ave of Champions/Memorial Pkwy
216,39.075380,-84.490479,Grandview Ave/Widrig St
334,39.111742,-84.478134,Vine St/
160,38.946213,-84.393822,Alexandria Pike
1123,39.107356,-84.481987,Foote Ave/Fairfield Ave
160,39.081104,-84.443550,N Shaw Ln/Miller Ln
839,39.026044,-84.447487,Alexandria Pike
276,38.958683,-84.343918,Grandview Rd/Ridgewood Dr
216,39.028046,-84.417002,Skyline Dr
305,39.100207,-84.459946,W Kimberly Dr/E Kimberly Dr
185,39.044105,-84.451130,N Miller/Renshaw Rd
526,39.030767,-84.455025,Johns Hill Rd
5942,39.034610,-84.464819,Kenton Dr
185,39.099206,-84.473190,Cleveland Ave
305,38.893279,-84.383333,Stoneybrook Ct/Parkside Dr
334,39.102654,-84.475769,Grandview Ave/Ward Ave
499,39.090923,-84.475090,Water Works Rd/Baum St
160,38.916443,-84.401185,/Pleasant Ridge Rd
160,39.011808,-84.467712,Pooles Creek Rd/Mission Way
994,39.080669,-84.495712,Brighton St/Thornton St
185,39.038216,-84.452683,Hale Ave
418,39.047816,-84.463028,I- 471/
185,38.959312,-84.367897,Grandview Rd/Alexandria Dr
185,38.864756,-84.392502,Kenton Station Rd/Alexandria Pike
418,39.096965,-84.451775,Rossford Ave/Wesley Hills Dr
160,39.053714,-84.435074,Blangey Rd
276,38.927566,-84.387267,Summerwind Ct
552,39.102918,-84.485909,Ross Ave/Robson Ln
1381,39.089373,-84.491547,Monmouth St/E 8th St
185,39.090608,-84.480551,Watch Hill Ln
216,39.116582,-84.464744,Kenton St/Second Ave
246,39.071905,-84.452790,Tremont Ave/Pebble Creek Dr/S Grand Ave
362,39.066957,-84.445297,/Cochran Ave
362,39.000766,-84.420410,/Alexandria Pike
216,38.993946,-84.414912,Autumn Ln
185,39.023069,-84.458122,Timberview Ct
160,39.078177,-84.491272,Short St/Biehl St
160,38.933183,-84.394651,Alexandria Pike
185,39.112749,-84.470162,/Berry St
445,39.084975,-84.501391,Lowell St/Elm St
216,39.085936,-84.464592,Mercer Way/Newman Ave
334,39.024120,-84.444916,French St
216,39.108355,-84.471100,Silver St/Ervin Ter
216,38.947189,-84.389659,Broadfield Ct
305,39.114571,-84.469444,Fifth Ave
246,39.042982,-84.447113,Highland Trce
246,38.892595,-84.379816,E Hickory Ct/S Sun Valley Dr/W Hickory Ct
390,39.070541,-84.476250,North St/Beech Ave
390,39.076873,-84.478169,Monmouth St/Alexandria Pike
160,39.109487,-84.475716,Vine St/Lindsey St
185,39.031893,-84.438736,Winters Ln/Industrial Rd
1511,39.089296,-84.476730,Burnet Ave
185,39.113384,-84.477608,Third Ave/Ervin Ter
334,39.082998,-84.489860,Columbia St/W 12th St
418,39.037031,-84.458214,Harrison Ave/Sunset Dr
216,38.958444,-84.369187,Grandview Rd/Herringer Dr
160,39.014693,-84.445867,Silver Ledge Dr/Crystal Vw
390,39.057655,-84.429558,I- 275
2221,39.026722,-84.468997,Meadow Vista Ct
185,39.100711,-84.473675,Bellpointe Cmns/S Ward Ave
526,39.054507,-84.437124,I- 275
246,39.008041,-84.473038,/Plum St
305,39.036810,-84.448707,Bordeaux Dr/5th Ave
160,38.973395,-84.303474,Mary Ingles Hwy/Oneonta Rd
526,39.103899,-84.478943,Kennedy Aly/Center St
390,39.083335,-84.494201,Isabella St/Hodge St
246,39.095616,-84.455620,Capri Dr/Clover Ridge Ave
160,38.887770,-84.255356,Smith Rd
185,39.007696,-84.459034,Aa Hwy
246,38.953621,-84.359848,S Cottonwood Ct
1097,39.080372,-84.467377,N Grand Ave/Churchill Dr
160,39.035506,-84.427247,Industrial Rd
185,38.912753,-84.282730,Aa Hwy/California Cross Rd
160,39.028368,-84.387016,State Hwy 547/Providence Trace Dr
579,39.090029,-84.487091,E 9th St/Hamlet St
160,38.954749,-84.361946,N Rosewood Ct
445,39.102722,-84.478339,Washington Ave
445,39.018238,-84.435844,Alexandria Pike/E Alexandria Pike
160,38.967540,-84.398057,Fairview Dr
334,39.095223,-84.489197,E 5th St/Park Ave
390,39.015228,-84.443751,Silver Ledge Dr/Granite Spring Dr
185,39.084764,-84.447746,Woodside Pl
276,39.024974,-84.477878,I- 275
160,39.042352,-84.473389,Brigadier Ct
246,39.089280,-84.461843,Maine Ave
362,39.072833,-84.455872,Wilbers Ln/S Grand Ave
472,39.088966,-84.500511,W 5th St
216,39.027697,-84.464844,Hilltop Rd/Johns Hill Rd
1046,39.099064,-84.491645,I- 471/Dave Cowens Dr
445,39.087597,-84.486504,Forrest St
552,39.109332,-84.480364,Gorman Aly/O Fallon Ave
1226,39.038653,-84.454117,I- 471
499,39.075944,-84.477364,Dexter Rd/Alexandria Pike
736,39.101976,-84.483162,Berry Ave/School Aly
390,39.074602,-84.447174,S Fort Thomas Ave/Glenway Ave
305,39.070336,-84.491393,Queen City Rd
710,39.064924,-84.447280,Midway Ct
499,39.083535,-84.496368,Patterson St/Phillips Aly
390,39.046621,-84.457382,/I- 275
185,39.112710,-84.479164,Vine St/2nd Ave
185,38.958952,-84.377510,Baywood Ct/Stillwater Dr
246,39.078034,-84.476899,Linden Rd
276,39.033748,-84.447426,Robinson Rd/Hope Ln
362,38.949651,-84.361079,Brookwood Dr
1226,39.033510,-84.458719,Louie B Nunn Dr
185,38.958901,-84.344246,Grandview Rd
216,39.075373,-84.470329,Macarthur Ln/Florence Cir
390,39.076483,-84.470238,Douglas Dr/James Ln
305,39.067679,-84.447220,S Fort Thomas Ave/Pearson St
334,39.099896,-84.474861,Herald Aly/Covert Run Pike
334,39.089700,-84.458069,Water Works Rd/Clover Ridge Ave
865,39.003234,-84.423431,Alexandria Pike
390,39.086287,-84.493866,W 9th St/Ann St
185,38.855586,-84.287239,/State Hwy 10 N
216,38.988615,-84.406090,Higdons Mobile Home/Alexandria Pike
160,38.972783,-84.389045,Ashley Dr
160,38.953954,-84.385007,S Jefferson St
160,39.012307,-84.443823,Marble Way
246,39.094659,-84.484573,E 7th St/Kentucky Aly
160,39.025889,-84.419217,Dodsworth Ln
305,39.073037,-84.460892,/S Grand Ave
276,39.037215,-84.478081,Telescope Vw/N Watchtower Dr
499,39.099885,-84.481857,Hazen Aly/Retreat St
160,38.952565,-84.361763,Maplewood Ct/Brookwood Dr
246,38.943623,-84.399188,Brandywine Ct
160,38.953716,-84.402626,Gilbert Ridge Rd
1071,39.080337,-84.467430,/N Grand Ave
362,39.081850,-84.469689,/N Grand Ave
216,38.919212,-84.396799,Mallard Dr
160,39.060643,-84.472134,Woodland Hills Dr
216,38.855213,-84.282463,Mays Rd/State Hwy 10 N
185,39.007887,-84.449502,Ivy Ridge Dr
891,39.032957,-84.456077,Clara Dr/Marshall Ln
579,39.109476,-84.480240,5th Ave
334,39.003710,-84.449468,Ridgepointe Dr
552,39.099049,-84.480079,Berry Ave/Donnemeyer Dr/Donnermeyer Blvd
246,39.058275,-84.453606,Cochran/Grant Ave
246,38.988173,-84.406494,Higdons Mobile Home
216,39.092169,-84.473549,E Crescent Ave/Water Works Rd
160,38.935131,-84.394608,Alexandria Pike/Moreland Rd
160,38.984196,-84.409737,Oakview Dr
499,39.025850,-84.457802,Dogwood Dr
160,38.992358,-84.373122,Hearthstone Ln/Reitman Rd
658,39.024581,-84.443657,St Michaels Dr/Alexandria Pike
185,38.984257,-84.403404,Cedar Ln
445,39.016662,-84.435311,Murnan Rd
362,38.959437,-84.387893,Washington St/E Main St
736,39.093399,-84.476906,Glazier Ave
684,39.082847,-84.451348,Ave of Champions/N Fort Thomas Ave
185,39.113936,-84.466751,/Boone St
276,39.105550,-84.485932,Eden Ave/Lafayette Ave
160,38.859676,-84.386940,Spruce St
362,39.023664,-84.421250,Dodsworth Ln/Windsmere Way/Uhl Rd
305,39.089591,-84.495857,/Columbia St
216,39.026998,-84.440063,Locust Pt
276,39.041073,-84.474251,Regiment Ct
160,39.051552,-84.456851,Water St
160,38.948972,-84.360317,Woodbury Ln
334,38.961204,-84.380111,/Fairground Rd
472,39.099143,-84.476936,Roosevelt Ave/Taylor Ave
579,39.019112,-84.480469,Steffen Ln
334,39.090401,-84.444153,Miami Pkwy
390,39.057781,-84.429688,I- 275
276,39.027268,-84.444786,Industrial Rd
246,39.075140,-84.470699,Florence Cir
605,39.083045,-84.493935,Hogan Aly/Isabella St
526,39.025775,-84.454956,/Salmon Pass/Martha Layne Collins Blvd
631,39.070358,-84.447982,S Fort Thomas Ave/S Grand Ave
160,38.952177,-84.368523,Brookwood Dr/Red Bud Ln
216,39.086048,-84.502648,Lowell St/W 6th St
736,39.101563,-84.481758,Lafayette Ave/Smith Aly
276,39.009781,-84.429499,Ripple Creek Rd
246,39.114197,-84.465088,Kenton St/Fifth Ave
160,38.948997,-84.398270,Paul Ct
160,38.894522,-84.308517,Picnic Rd/Wagoner Rd
418,39.086777,-84.448128,Sterling Ave
160,39.093416,-84.445221,E Southgate Ave
185,39.081044,-84.489487,W 14th St
334,39.099912,-84.474144,S Foote Ave/Covert Run Pike
334,39.070813,-84.476120,Beech Ave
276,39.045876,-84.446159,Taylor Rd
334,39.087645,-84.480797,Birch St/Birch Aly/Prospect St
160,39.031901,-84.365745,Latonia Ave/Latonia/Melbourne Ave
185,39.094795,-84.459450,Marian Dr
917,39.004402,-84.437454,Valley Ter
216,39.088591,-84.457748,Fairfield Pl
362,39.089118,-84.501241,Schomaker Ln/W 4th St
579,39.023123,-84.441643,Alexandria Pike/St Michael Dr
160,39.004785,-84.443526,Ivy Ridge Dr
710,39.077390,-84.469535,I- 471
160,39.103974,-84.466294,Michigan Ave
185,39.018550,-84.443864,Buning Ln
334,39.042998,-84.448250,Alexandria Pike/Renshaw Rd
216,38.980829,-84.374731,Aa Hwy
445,39.041930,-84.452568,Wilson Ave/Bramble Ave
216,39.023813,-84.449937,Napa Vly/Sonoma Ct
185,38.998817,-84.407549,Aa Hwy
526,39.082959,-84.483673,17th St
390,39.090535,-84.447586,Dixie Pl/N Fort Thomas Ave
160,38.984295,-84.421951,Kellan Ct
160,39.087311,-84.465576,Kyles Ln/Chesapeake Ave/Newman Ave
276,39.016058,-84.440741,Slate Vw
160,39.024367,-84.433106,Walden Ln
305,39.074366,-84.482895,Bluegrass Ave/Kentucky Dr
160,39.074370,-84.450775,Carolina Ave/Paterson Pl
185,38.998981,-84.429606,Shadow Ridge Dr
305,38.954878,-84.353500,S Bellewood Ct
276,39.042991,-84.445862,Highland Trce
185,39.015785,-84.435661,Murnan Rd
526,39.088686,-84.473734,Chesapeake Ave
334,39.075349,-84.447144,S Fort Thomas Ave/Linden Ave
276,38.936628,-84.394493,Alexandria Pike/Midway Dr
526,39.098872,-84.479898,Berry Ave/Cassidy Ave
185,39.032561,-84.436775,Raymond Ave/Orchard Ter W
472,39.081677,-84.487732,15th St
160,39.078010,-84.491447,Biehl St
762,39.093133,-84.492958,E 5th St/Saratoga St
160,39.071952,-84.453095,S Grand Ave
1200,39.027658,-84.458923,Grey Stable Ln
390,39.047354,-84.462257,I- 275
1149,39.099605,-84.488886,E 2nd St
362,39.114016,-84.471436,6th Ave//Berry Ave/Berry St
579,39.027985,-84.466490,Johns Hill Rd
499,39.086570,-84.497162,W 8th St/Isabella St
160,38.925319,-84.399605,Whirlaway Ln/Licking Pike
216,38.930155,-84.363213,Maple Valley Ln
5672,39.035480,-84.465702,Campbell Dr
185,38.860970,-84.290173,Wesley Chapel Rd
579,39.088803,-84.499199,Isabella St/Chestnut Way
1511,39.088917,-84.478157,Vine St/Race St
334,39.071582,-84.473526,/E Walnut St
334,39.096521,-84.452919,Rossford Ave/Clover Ridge Ave/Arno Ave
185,38.918734,-84.265098,Jackson St/Nelson St
160,39.028298,-84.435455,Brightwood Dr/James Ct
1252,39.091975,-84.491913,Saratoga St/Boyd Aly
1381,39.087235,-84.474329,I- 471
334,39.081873,-84.452545,Elmwood Ave
160,39.102265,-84.441626,Mary Ingles Hwy
160,39.004284,-84.379509,Lower Tug Fork Rd
710,39.038164,-84.458137,Harrison Ave
6671,39.094903,-84.494606,Saratoga St/E 3rd St
185,39.074762,-84.490639,Margie Ln
246,39.014139,-84.441049,Granite Spring Dr/Marble Way
160,38.982954,-84.363678,Four Mile Rd/
160,39.104806,-84.471328,Grant Park Dr/Maple Ave
276,39.003849,-84.440110,Aa Hwy/Murnan Rd
362,39.057284,-84.463308,Blossom Ln
305,39.056326,-84.432987,I- 275
185,39.108712,-84.474907,Vine St/9th Ave
526,39.066134,-84.483452,Breckenridge Ct/Breckinridge Ct/Aspen Ct
865,39.005045,-84.437835,Meridian Cir
160,39.055235,-84.463814,Heather Hill Dr/Valley View Dr
2301,39.035410,-84.452888,Hidden Valley Dr
526,39.089086,-84.495407,W 7th St/Columbia St
185,39.075044,-84.469259,Fischer Ln
418,39.088738,-84.486961,Washington Ave/Stone Aly
499,39.005552,-84.426185,Alexandria Pike
185,39.000548,-84.429243,Lake Watch Ct
160,38.970899,-84.373962,Parkview Dr
552,39.055153,-84.487305,Moock Rd/Licking Pike
185,39.019641,-84.464589,Ridge Hill Dr
160,39.015558,-84.458664,Darlas Dr/Pooles Creek Rd
246,39.099294,-84.458601,Rossford Ave/Mitchell Hill
276,39.041597,-84.476395,Brigade Ct
160,38.890476,-84.387993,Tarvin Rd/S Licking Pike
788,39.028832,-84.463394,University Dr
334,39.084688,-84.493431,Central/W 10th St
246,39.003539,-84.432556,Bridgeport Ct
246,39.024704,-84.419151,Dodsworth Ln/Skyline Dr
445,39.111613,-84.475731,Sixth Ave/Ervin Ter
160,38.885683,-84.264319,Smith Rd
305,39.088769,-84.481700,Camryn Ct
216,38.973902,-84.390145,Poplar Ridge Rd
305,39.066242,-84.482406,Breckenridge Ct
362,39.008568,-84.472435,Interstate Access Rd/Plum St
160,38.896700,-84.385704,Alexandria Pike/Craft Rd
185,39.056776,-84.489639,Center St
185,38.952078,-84.358757,Cherrywood Ln
185,38.980285,-84.382897,Neltner Rd/Crupper Ln
246,38.917380,-84.400543,Labrador Ln/Pleasant Ridge Rd
418,39.086660,-84.493187,Columbia St/W 9th St
362,39.056970,-84.460217,Mulberry Ct/Brushwood Dr
185,39.051403,-84.447559,Scherrer Rd/3 Mile Rd
276,39.042997,-84.467003,Three Mile Rd/
6979,39.032886,-84.463982,Carroll Dr/Nunn Dr
216,38.938710,-84.409818,/S Licking Pike
1123,39.094177,-84.499420,Riverboat Row/US Hwy 27
246,39.005982,-84.461103,Licking Pike
1149,39.098720,-84.489899,Linden Ave/E 2nd St
1252,39.099669,-84.490081,Illinois Aly/Beech St
390,39.078572,-84.455261,James Ave
216,38.975734,-84.393311,Orlando Dr
185,39.074336,-84.443878,Manor Ln
276,39.091063,-84.488472,E 8th St/Weingartner Pl
160,38.956826,-84.378731,Grandview Rd/E Main St
160,38.954128,-84.363251,Brookwood Dr
160,38.894659,-84.381279,N Sun Valley Dr
526,39.082615,-84.495514,Patterson St/Hodge St
3364,39.095986,-84.495415,Saratoga St/Dave Cowens Dr
710,39.084582,-84.499286,Brighton St/Powell St
813,39.088000,-84.488281,Saratoga St/Stone Aly
160,39.106797,-84.444843,Mary Ingles Hwy
418,39.077524,-84.451004,Mayfield Ave/Highland Ave
390,39.088336,-84.496758,W 7th St/Central
160,39.102293,-84.448654,Walden Ln/Barrett Dr
445,39.106840,-84.478333,/Poplar St
160,38.860692,-84.278465,Baynum Hill Rd
631,39.094338,-84.476990,Bonnie Leslie Ave/Wilson Rd
472,39.094464,-84.479885,I- 471
160,39.043533,-84.420695,Industrial Rd
276,39.056604,-84.459679,Brushwood Dr/Plumrose Ln
160,39.102260,-84.457856,Covert Run Pike/Covert Pl
160,38.975876,-84.351540,/Nelson Rd
472,39.063463,-84.450857,Southview Ave/Allison Ct
246,39.057722,-84.450203,Von Zuben Ct/Alexandria Pike
1304,39.099500,-84.491173,Linden Ave/Dave Cowens Dr
1200,39.107077,-84.482320,Fairfield Ave
160,39.106726,-84.457947,N Fort Thomas Ave/Gregory Ln
658,39.085906,-84.487884,E 11th St
246,38.911414,-84.406563,Pleasant Ridge Rd/Milton Rd
605,39.101982,-84.478583,Retreat St
276,39.016027,-84.440841,Slate Vw/Marble Way
552,39.085663,-84.473229,I- 471
276,39.078309,-84.459747,Highview Dr/Lilac Ln
160,38.935138,-84.419086,Creektrace Rd
472,39.099996,-84.475563,Herald Aly/Covert Run Pike
526,39.066426,-84.446534,S Fort Thomas Ave/Greene St
185,38.998981,-84.402708,E Low Gap Rd
334,39.003945,-84.448852,Ridgepointe Dr/Wolfe Pl
185,39.091205,-84.501190,W 3rd/Wagner Ln
499,39.088251,-84.498696,W 6th St/Isabella St
762,39.090782,-84.494865,W 6th St/E 6th St/York St
160,38.921924,-84.288086,Timbercreek Ct/Makena Ln
246,39.009550,-84.468116,Aa Hwy
216,39.089779,-84.501932,Schomaker Ln/W Southgate St
390,39.085242,-84.474175,/N Grand Ave
160,38.936564,-84.437111,Joann Ln
276,39.099183,-84.478584,Covert Run Pike
305,39.103341,-84.485252,Ross Ave
579,39.082117,-84.493088,Thornton St/Isabella St
160,39.058641,-84.480888,Beverly Dr
390,39.087637,-84.501758,Brickler Ln
276,39.021804,-84.417595,Osage Ave
334,39.085769,-84.449242,Yolande/Woodside Pl/Memorial Pkwy
526,38.970052,-84.392601,Commercial Cir/Alexandria Pike/Sunset Dr
499,39.024770,-84.458877,Highland Meadows Cir/Meadow Ln
246,39.094421,-84.485016,Linden Ave/E 7th St
185,38.947318,-84.389839,Southwood Dr/Broadfield Ct
276,39.025141,-84.417513,Skyview Ter
552,39.085837,-84.498482,W 8th St/Patterson St
276,39.068527,-84.484315,Fort Beech Dr
160,38.933108,-84.442387,Indian Trace Rd/Joann Ln
552,39.107481,-84.480858,Ward Ave
160,38.957199,-84.339294,Lower Grandview Rd
160,38.958952,-84.383743,Thatcher Ave/E Main St
216,39.105634,-84.473793,Walnut St
185,38.955852,-84.345377,Hickorywood Ct
418,39.114204,-84.469955,/Clay St
185,39.090973,-84.441459,Riverside Pkwy
362,39.085148,-84.497856,Keturah St/Patterson St
605,39.077982,-84.469912,I- 471
216,38.999607,-84.413433,Rocky View Dr
362,39.112277,-84.476425,Fifth Ave/Ervin Ter
216,38.933280,-84.313400,Carthage Rd/Aa Hwy
216,39.036676,-84.390183,Four Mile Pike/Mary Ingles Hwy
390,39.032992,-84.451302,/Robinson Rd
418,39.087790,-84.456589,Ridgeway Ave
216,39.049991,-84.449827,Scherrer Rd
160,38.885845,-84.264138,Aa Hwy/Smith Rd
334,39.002012,-84.421928,Alexandria Pike
160,38.983061,-84.363678,Four Mile Rd
418,39.090132,-84.498383,W 5th St/Central
788,39.089193,-84.485290,E 10th St/Boone
185,39.067356,-84.455902,Rainbow Ter
276,38.949570,-84.385193,Southwood Dr
246,39.090424,-84.480476,Watch Hill Ln
334,39.067984,-84.447327,S Fort Thomas Ave/Military Pkwy
216,38.953218,-84.367355,Oakwood Ln
160,39.082373,-84.456459,Mayfield Ave
334,39.084661,-84.472817,N Grand Ave
216,38.893904,-84.437156,/Pond Creek Rd
185,38.986007,-84.406105,Kuessner Dr
216,39.046540,-84.449112,Singleton Rd
362,38.941074,-84.394136,Alexandria Pike
246,38.996750,-84.405291,Aa Hwy
216,38.980585,-84.374466,Poplar Ridge Rd
246,39.067477,-84.479939,W Walnut St
185,39.022800,-84.450501,Arbor View Ln/Trelis Ct
499,39.082480,-84.451042,N Fort Thomas Ave/Elmwood Ave
579,39.089917,-84.484223,Arnold Aly/Park Ave
160,38.995320,-84.397514,Upper Tug Fork Rd/E Alexandria Pike
684,39.083093,-84.492988,W 11th St/Liberty St
334,39.014460,-84.442466,Granite Spring Dr
362,39.097300,-84.488136,Providence Way/E 4th St
362,39.048036,-84.459161,I- 471
788,39.087900,-84.487610,E 10th St
216,38.977110,-84.379913,Meadowview Dr
445,39.094322,-84.479988,I- 471
246,39.072255,-84.480768,Bluegrass Ave
160,38.997756,-84.415563,Rocky View Dr
216,38.957808,-84.370125,Grandview Rd/Rose Dr
216,39.110674,-84.479156,Walnut St/
334,39.102784,-84.484673,Lake St
418,39.096341,-84.473999,Bonnie Leslie Ave/Taylor Ave
418,39.041810,-84.456254,I- 471
762,39.090757,-84.498963,Central/W 4th St
216,39.004328,-84.442472,Aa Hwy
472,39.049064,-84.456087,Water St
839,39.037909,-84.465432,Campbell Dr
160,38.960588,-84.402138,Connie Ln
160,38.983620,-84.374733,/Poplar Ridge Rd
334,39.093172,-84.487259,Arnold Aly/E 7th St
160,38.931295,-84.403579,E Miller Rd/Licking Pike/W Miller Rd
160,39.099117,-84.467827,Shady Ter
276,39.086986,-84.485939,E 11th St
216,39.088473,-84.444321,Riverside Pkwy/Oak Ridge
788,39.099369,-84.492715,/I- 471
472,38.974336,-84.388168,Brentwood Cir/Poplar Ridge Rd/Walnut Park Dr
160,38.853157,-84.402509,Clayridge Rd
160,38.937917,-84.409675,S Licking Pike/Licking Pike/Creektrace Rd
305,39.036281,-84.476761,Signal Hill Dr/Lighthouse Ct
276,39.031299,-84.472558,/Johns Hill Rd
185,39.007783,-84.459666,Aa Hwy
160,38.945188,-84.332039,Aa Hwy
246,39.091329,-84.460823,Wessex Pl
362,39.055905,-84.433944,I- 275/Mary Ingles Hwy
418,39.076561,-84.451484,E Vernon Ln
246,39.079757,-84.463524,Keeneland Dr
736,39.079675,-84.448441,Miller Ln/N Fort Thomas Ave
552,39.054876,-84.486549,Creekwood Dr/Moock Rd
160,39.112725,-84.459518,6th St
160,38.930262,-84.308312,Aa Hwy/Dead Timber Rd
2274,39.029764,-84.467064,Grant Dr/Kenton Dr
185,38.918597,-84.263687,Washington St/Madison Ave
579,39.075675,-84.468301,I- 471
1020,39.080633,-84.466751,/Churchill Dr
445,39.109738,-84.483248,Eden Ave/Ward Ave
246,39.001955,-84.422446,Aa Hwy
185,39.039312,-84.475098,Wesley Dr/Overlook Cir
334,39.080619,-84.497589,Lowell St/W 11th St
276,39.095392,-84.486580,E 6th St/Tennessee Aly
390,39.070121,-84.475365,W Walnut St
160,39.022841,-84.339920,/Mary Ingles Hwy
305,39.059133,-84.476143,View Terrace Dr
9657,39.094161,-84.495926,Monmouth St/E 3rd St
185,39.065749,-84.462593,Claras Vw
334,39.045120,-84.466217,/I- 275
445,39.090780,-84.457132,Clover Ridge Ave/Memorial Pkwy
160,39.109885,-84.467933,Belmont Pl/Belmont Rd
160,38.941717,-84.377976,Jerry Wright Rd
276,39.092303,-84.461768,Memorial Pkwy
185,38.998198,-84.430601,Talisman Trl/Shadow Ridge Dr
334,39.084777,-84.472763,I- 471/N Grand Ave
246,39.087679,-84.479256,Park Ave
994,39.038534,-84.450531,/Alexandria Pike
276,38.939594,-84.394244,Alexandria Pike
216,39.093214,-84.484604,E 8th St/Tennessee Aly
185,39.012678,-84.433799,Thornbush Ct
390,39.094704,-84.480570,I- 471
160,38.980334,-84.382834,Crupper Ln
526,38.974041,-84.388092,Brentwood Cir/Brentwood Ln
246,39.009480,-84.467847,Aa Hwy
160,38.991159,-84.398986,Aa Hwy/E Alexandria Pike
390,39.080370,-84.464386,Calumet Ct
334,39.091287,-84.484856,E 9th St/Park Ave
160,39.045915,-84.447570,High St/Blair Ave
762,39.085122,-84.499787,Brighton St/W 8th St
246,39.089157,-84.498291,/Lewis Ln
160,39.027229,-84.484612,Vine St
160,38.977600,-84.384218,Neltner Rd
185,39.088054,-84.446404,Riverside Pkwy/Rob Roy Ave/Burnet Rdg
216,39.076554,-84.465813,Rosewood Ln
276,38.994285,-84.415332,Autumn Ln
526,39.084650,-84.494393,Liberty St/Phillips Aly
736,39.086398,-84.499000,Patterson St/Elm St
305,39.084711,-84.486755,E 12th St/South St
160,38.890575,-84.337558,Burns Rd
2247,39.101639,-84.488859,Riverside Dr/Fairfield Ave
334,39.095335,-84.479775,Colfax Ave
305,39.075853,-84.447121,Avenel Pl/S Fort Thomas Ave
418,39.012682,-84.432075,Alexandria Pike/Springside Dr
160,38.930360,-84.394460,Alexandria Pike
390,39.053522,-84.448700,St Stephens Cemetery/Alexandria Pike
160,38.979642,-84.390968,Walnut Park Dr
418,39.111963,-84.476089,/Ervin Ter
334,39.042576,-84.455345,I- 471
362,39.084875,-84.473106,I- 471/N Grand Ave
216,39.077168,-84.458000,Edwards Ct
160,38.872513,-84.351685,Burns Rd/Flatwoods Rd
390,39.021395,-84.481277,Aa Hwy
684,39.104332,-84.485642,Berry Ave/Fairfield Ave
390,39.076265,-84.467041,Deshler Ln
276,38.977549,-84.375572,Ridgeway Xing/Canterbury Ct
185,39.107061,-84.463806,Dayton Pike/Chateau Ridge Rd
276,39.111269,-84.479797,Walnut St/
276,39.113176,-84.477379,/Ervin Ter
334,39.080890,-84.497811,Lowell St/Hogan Aly
185,38.995794,-84.415756,Alexandria Pike/Autumn Ln
160,39.091043,-84.467466,Casagrande St/Villagrande Blvd
185,38.992817,-84.363078,4 Mile Rd
216,39.107949,-84.459744,Dayton Pike
276,39.045660,-84.445541,Alexandria Pike/Taylor Rd
418,39.067315,-84.447044,S Fort Thomas Ave/Douglas St/Tower Pl
390,39.113418,-84.470062,/Clay St
160,38.980184,-84.388435,Francis Ct
390,38.978448,-84.376091,/Harvard Ln
305,39.116297,-84.470909,/Third Ave
658,39.104518,-84.483975,Prospect St
185,39.112922,-84.459891,6th St
185,39.114955,-84.472397,Fourth Ave/Berry St
185,38.929169,-84.366646,Saddle Ridge Xing/Saddle Ridge Trl
305,39.015339,-84.477285,/Aa Hwy
579,39.089274,-84.488449,E 9th St/Roberts St
1149,39.080391,-84.465775,Stonewall Dr/Churchill Dr
185,39.109278,-84.472305,10th Ave/Ervin Ter
418,39.098899,-84.477326,Roosevelt Ave
305,39.088124,-84.452873,Glen Royal Dr
246,39.106268,-84.456986,Stacy Ln/N Fort Thomas Ave
334,39.114722,-84.474739,Dayton Ave/Third Ave
160,39.087654,-84.465012,Orchard Ln/Kyles Ln
246,39.035143,-84.477279,S Watchtower Dr
160,39.020983,-84.455643,Fawn Run Dr
499,39.006040,-84.426682,Rose Pl/Alexandria Pike
185,38.976778,-84.372155,Poplar Ridge Rd/Peggy Ann Ln
390,39.028646,-84.472234,/I- 275
472,39.082190,-84.497086,Brighton St/Solar Aly
216,39.114636,-84.468262,Main St
185,39.005045,-84.429535,Sturbridge Dr/Village Green Dr
216,39.085376,-84.464257,Newman Ave/Wedgewood Lake Dr
276,39.052453,-84.447608,Alexandria Pike
684,39.108483,-84.484432,Washington Ave
216,39.040210,-84.456703,Washington Ave/S Main Ave
160,39.038925,-84.481908,Licking Pike
305,39.087423,-84.491806,E 9th St/W 9th St/York St
246,39.014029,-84.440886,Granite Spring Dr
390,39.084097,-84.485587,E 14th St
160,38.960524,-84.380516,/Fairground Rd/Fairgrounds Rd
526,39.112566,-84.474579,/McKinney Ave
362,39.085912,-84.453308,Ohio Ave/Taylor Ave
305,38.966877,-84.393257,Trapp Ct/Alexandria Pike
185,39.085687,-84.464752,Wedgewood Circle Dr/Mercer Way
472,39.086492,-84.448929,/Memorial Pkwy
216,39.007192,-84.436226,Valleyside Dr
216,39.114338,-84.471756,Berry Ave/Berry St/Fifth Ave
579,39.094260,-84.478821,Geiger Ave
579,39.088213,-84.487061,E 10th St
185,39.080028,-84.450355,Woodland Pl
579,39.090055,-84.487053,E 9th St/Hamlet St
216,39.098028,-84.475761,Anspaugh Ave/Taylor Ave
362,39.084900,-84.472824,/I- 471
160,38.964990,-84.419648,Gilbert Ridge Rd
305,39.112092,-84.478500,Vine St
334,39.081687,-84.494674,Hunt Aly/Patterson St
160,38.866087,-84.380959,Siry Rd
276,39.014450,-84.475884,Saint Johns Ln
185,39.100980,-84.457567,Mitchell Hill
160,39.074395,-84.490944,Margie Ln/Clifton Ave
216,39.069209,-84.484460,Snow Shoe Dr
305,39.096452,-84.455696,Marian Dr/Capri Dr
160,38.906707,-84.411484,/Pleasant Ridge Rd
579,39.090721,-84.475568,/Water Works Rd
390,39.083727,-84.464203,Gettysburg Square Rd/Newman Ave
160,38.957160,-84.366761,Rose Dr
160,39.011291,-84.454931,Stonyridge Dr
334,39.041106,-84.477852,Major Ct/Sentinel Dr
185,38.951811,-84.383682,Shaw Dr
160,38.893090,-84.378787,E Hickory Ct
160,38.920667,-84.391815,Camel Xing/Alexandria Pike/Lickert Rd
246,38.922463,-84.392396,Alexandria Pike
552,39.081597,-84.496552,Brighton St/Hogan Aly
185,39.046757,-84.450180,Singleton Rd/Main Ave
305,39.085593,-84.494247,Central/Brieth Aly
334,39.102406,-84.476151,Grandview Ave
334,38.955809,-84.353843,N Bellewood Ct/Ridgewood Dr/S Bellewood Ct
390,39.112440,-84.472305,Dayton Ave/Seventh Ave
334,39.081443,-84.453499,Forest Ave
246,38.835661,-84.367691,Plum Creek Rd/Alexandria Pike
4787,39.027789,-84.452103,Martha Layne Collins Blvd/Martha Ln
160,39.082307,-84.473534,David Ct
160,38.912376,-84.277542,Washington Trace Rd/Sutherland Ln
3336,39.086313,-84.477127,N Grand Ave
160,38.975400,-84.389023,Arrowhead Dr/Walnut Park Dr
1407,39.092054,-84.498108,Columbia St/Court Pl
968,39.085140,-84.449584,Yolande/Monaglien
552,39.074353,-84.464646,Deshler Ln/Highland Ave
185,39.005971,-84.405273,/E Alexandria Pike
185,39.013904,-84.439837,Granite Spring Dr
1381,39.091223,-84.495262,James Aly/York St
445,38.921306,-84.401956,Mallard Dr
185,39.016143,-84.457554,Pooles Creek Rd
160,38.860560,-84.386803,Lake Circle Dr/Lake St
160,39.035009,-84.356796,Greis Rd/Spencer Ave
160,38.983830,-84.387108,Enzweiler Rd
418,39.054446,-84.436401,/I- 275
160,38.931169,-84.404215,W Miller Rd
185,39.023842,-84.449408,Mendocino Ct
246,39.081879,-84.466866,Stonewall Dr
1123,39.028330,-84.468872,Johns Hill Rd
185,39.008316,-84.461756,Aa Hwy
736,38.992050,-84.409431,/E Low Gap Rd
362,39.054878,-84.436287,I- 275
334,39.067726,-84.445457,Cochran Ave
1278,39.026575,-84.448280,Alexandria Pike
160,39.112864,-84.455769,Mary Ingles Hwy
305,38.976038,-84.374916,Ridgeway Xing/Poplar Ridge Rd/Parkview Dr
216,39.085138,-84.464709,Wedgewood Circle Dr
185,39.051241,-84.486801,Three Mile Rd/Old 3 Mile Rd
1149,39.087422,-84.474861,Ohio Ave
334,39.113730,-84.471161,6th Ave/Berry St/Sixth Ave
390,39.108977,-84.483097,Printers Aly
160,39.081596,-84.443810,Lumley Ave/N Shaw Ln
160,38.994496,-84.363037,/Gresskamp Rd
276,39.042567,-84.451790,Wilson Ave
216,38.966317,-84.373718,Whispering Woods Ln/Spring Hill Ct
160,39.016732,-84.466904,Ridge Hill Dr
334,39.015936,-84.440784,Marble Way
305,39.091163,-84.471825,E Crescent Ave/Forest Ln
160,39.008762,-84.422859,Davjo Ln
216,39.006189,-84.405452,E Alexandria Pike
390,39.034107,-84.475204,Johns Hill Rd/Observatory Pointe Dr
334,39.099419,-84.479538,Donnermeyer Blvd/Lafayette Ave/Cassidy Ave
246,39.035929,-84.477181,Signal Hill Dr/Telescope Vw
1719,39.100332,-84.484604,Landmark Dr
276,39.067861,-84.447289,S Fort Thomas Ave
994,39.080642,-84.466515,Churchill Dr
839,39.078591,-84.448532,S Fort Thomas Ave/N Fort Thomas Ave/Highland Ave
943,39.101881,-84.482094,Lafayette Ave/Center St
305,39.111170,-84.475433,/Ervin Ter
185,39.077029,-84.481690,21st St
160,38.985746,-84.397850,/E Alexandria Pike
526,39.085872,-84.495506,Liberty St/Constans Aly
418,39.084272,-84.495056,Isabella St/Phillips Aly
334,39.010906,-84.468498,Saint Johns Ln/Pooles Creek Rd
418,39.022582,-84.488797,I- 275
160,38.855157,-84.287994,Shaw Goetz Rd/State Hwy 10 N
418,39.082000,-84.494957,W 11th St/Patterson St
160,39.029910,-84.366577,Mary Ingles Hwy
276,39.023415,-84.452044,Vina Vis/Monterey Ln
276,39.016324,-84.444561,Sandstone Rdg/Granite Spring Dr
246,39.074859,-84.471146,Joyce Ave/Florence Cir
160,39.094161,-84.485466,E 7th St/Tennessee Aly
160,39.019145,-84.417740,Darrma Ct/Alidrew Dr
160,39.013138,-84.433799,Thornbush Ct
1046,39.096701,-84.484192,E 6th St
246,39.042582,-84.478798,Sentinel Dr
362,39.076234,-84.454239,James Ave/Highland Ave
160,38.923854,-84.400810,Chateaugay Ln
362,39.072243,-84.471840,Orchard St
499,39.097179,-84.491745,Ahlering Alley/Park Ave
185,39.016168,-84.440070,Slate Vw
305,39.093645,-84.455902,Capri Dr
160,39.035970,-84.427272,Industrial Rd
216,39.071777,-84.458473,Willow Dr
185,39.041033,-84.451896,Thompson Rd
276,39.003196,-84.437154,Aa Hwy
445,39.092934,-84.487701,Monroe St/E 7th St
390,38.986659,-84.404228,Alexandria Pike/N Viewpoint Dr
160,39.115245,-84.463333,/Benham St
917,39.081206,-84.496391,W 11th St
305,39.087974,-84.501300,Woolum Ln/Chestnut Way
362,39.065831,-84.449314,Tower Pl
246,39.003714,-84.427620,Village Green Dr
246,39.098477,-84.461609,Majestic Dr/Timberwood Ct
305,39.021204,-84.417740,Frances Dr/Uhl Rd
2114,39.096296,-84.495878,Riverboat Row/Rive Boat Row
839,39.088052,-84.487343,E 10th St/Roberts St
445,39.095949,-84.473587,Glazier Ave/Taylor Ave
185,39.060842,-84.471980,Fox Chase Dr
160,39.112810,-84.455589,Mary Ingles Hwy/Burma Rd
762,39.088399,-84.485054,Vastine Aly/Forrest St
160,39.024563,-84.423980,Joseph Pl
445,39.104296,-84.482323,Poplar St/Taylor Ave
390,39.050229,-84.446839,I- 275/Alexandria Pike
968,39.032247,-84.455735,Clara Dr/Harriet Ave
736,39.084772,-84.499458,Brighton St/Hardy Aly
658,39.076302,-84.468632,I- 471
472,39.105631,-84.478044,Van Coast Ave/Van Voast Ave
276,38.987538,-84.405199,Alexandria Pike
216,38.921629,-84.404417,Wigeon Dr
160,38.854360,-84.386910,Darlington Creek Rd/Walnut Creek Dr
160,39.033479,-84.365123,Melbourne Rd
390,39.103041,-84.484275,Lake St/Berry Ave
160,39.096133,-84.444862,Donnelly Dr
445,39.087992,-84.485168,Vastine Aly/Hamlet St
216,39.069334,-84.484228,Snow Shoe Dr
305,38.869017,-84.261123,Aa Hwy/Ivor Rd
160,38.975000,-84.329752,/Truesdell Rd
185,39.053138,-84.481667,Bentwood Hills Dr
552,39.087130,-84.497665,Isabella St/Elm St
160,38.941246,-84.326597,Aa Hwy
418,39.016463,-84.443130,Limestone Ct
185,39.014600,-84.445844,Crystal Vw
305,39.065074,-84.485821,Covington Waterworks Rd
246,38.952321,-84.371521,Elmwood Cir
160,38.954362,-84.355575,S Brushwood Ct
216,39.112387,-84.478821,Vine St/Third Ave
276,39.089778,-84.498062,James Aly/Central
334,39.084628,-84.485619,E 13th St/Monmouth St
1667,39.027980,-84.469127,Meadow Vista Ct
362,38.999294,-84.409256,Rocky View Dr
605,39.086894,-84.501137,W 6th St/Brickler Ln
552,39.104674,-84.482734,Williamson Aly/Taylor Ave
658,39.108712,-84.484047,Eden Ave
216,39.023721,-84.449706,Sonoma Ct
445,39.103900,-84.481919,Church Aly/Taylor Ave
2328,39.090319,-84.492393,Monmouth St/E 7th St
605,39.063611,-84.447830,/S Fort Thomas Ave
305,39.089783,-84.480146,Watch Hill Ln
185,38.911009,-84.385178,/Bob Huber Dr
334,39.007341,-84.427841,Alexandria Pike/Blossom Dr
160,38.924408,-84.400139,Alysheba Dr
216,39.023645,-84.423645,Rosa Pl
762,39.088915,-84.489113,E 9th St/Saratoga St
552,39.083715,-84.498497,Brighton St/W 9th St
276,39.101930,-84.476883,Kennedy Aly/Grandview Ave
334,39.088331,-84.452881,Glen Royal Dr
305,39.068635,-84.483696,Winter View Ln/Fort Beech Dr
185,39.025709,-84.425110,Madonna Ln/Ervin Cir
362,39.080603,-84.447197,Lumley Ave/Hagedorn Ln
246,39.102064,-84.472664,Truman Ln/
160,39.097731,-84.471825,Bonnie Leslie Ave/N Sherry Ln/S Sherry Ln
216,39.029151,-84.469843,Johns Hill Rd
246,38.937575,-84.295742,/Dead Timber Rd
362,39.106750,-84.477600,O Fallon Ave
445,39.112266,-84.474251,McKinney Ave/Sixth Ave
185,39.021158,-84.426382,Dodsworth Ln/Leisure Ln
185,39.113038,-84.460833,6th Ave/6th St
472,39.090114,-84.490204,E 8th St/Saratoga St
736,39.038047,-84.458542,Highland Ridge Blvd
160,39.030419,-84.434219,Brightwood Dr
160,39.010337,-84.429187,Ripple Creek Rd
305,38.960250,-84.390213,Ave of Champions/Grove St/N Jefferson St
216,39.081798,-84.444673,Holmes Ave
160,38.995539,-84.415872,Autumn Ln
865,39.088491,-84.474701,I- 471/Chesapeake Ave
160,38.888662,-84.381600,Eagle Vw/Race Track Rd
185,39.040753,-84.458679,Washington Ave/Jefferson Ave
160,38.985731,-84.420615,/Kellan Ct/S Licking Pike
160,39.042619,-84.463921,Tessener Dr/Tessenneer Dr
185,38.998922,-84.407832,Aa Hwy
216,38.835322,-84.418495,Griffin Ford Rd/Clayridge Rd
334,39.005027,-84.440405,Murnan Rd
762,39.099438,-84.492845,I- 471
160,38.925812,-84.366196,Persimmon Grove Pike/Barrs Branch Rd/Lickert Rd
552,39.088217,-84.485374,Forrest St/Hamlet St
472,39.086381,-84.496994,W 8th St/Isabella St
276,39.091833,-84.454701,Inverness Pl
499,39.109367,-84.480400,O Fallon Ave/5th Ave
418,39.102771,-84.480736,Taylor Ave/Center St
526,39.005327,-84.438608,Ridgeline Dr
185,39.114336,-84.466690,Fifth Ave/Boone St
246,38.965991,-84.373253,Spring Hill Ct
658,39.088259,-84.493583,W 8th St/Putnam St
526,39.105660,-84.480194,Poplar St/Foote Ave
788,39.017644,-84.480919,Gloria Terrell Dr/Town Dr
579,38.983120,-84.399666,/Alexandria Pike
160,38.976999,-84.344767,Nelson Rd
2435,39.101723,-84.489627,Riverboat Row
276,39.116693,-84.466133,Boone St/Second Ave
418,39.093763,-84.493538,Saratoga St/E 4th St
6153,39.035892,-84.467140,/Campbell Dr
362,39.081953,-84.485482,Main St/Parkview Ave
185,38.956466,-84.346786,Ridgewood Dr/Beechwood Ct
185,38.882938,-84.388137,Golf Course Entrance/Alexandria Pike
334,39.067677,-84.462151,Holiday Ln/Hanover Pl
445,39.100637,-84.477264,Locust St
1200,39.095061,-84.492737,Washington Ave/E Southgate St
160,39.083491,-84.444779,Henry Ct
813,38.973621,-84.387263,Brentwood Cir
362,39.015635,-84.440536,Ledgerock Way
216,39.023331,-84.450878,Napa Vly/Trelis Ct
160,39.016374,-84.430970,Ripple Creek Rd/Sabre Dr
579,39.088374,-84.487625,Roberts St/Stone Aly
160,39.066125,-84.461227,Hanover Pl
185,39.097721,-84.478687,Berry Ave
362,39.084803,-84.497536,Patterson St/Constance Aly
526,39.066540,-84.465416,I- 471/Alexandria Pike
710,39.027753,-84.449409,Henry Ct/Alexandria Pike
160,38.907575,-84.298204,/Flagg Springs Pike
216,39.042539,-84.462919,Tessenneer Dr
185,39.015577,-84.439822,Ledgerock Way/Boulder Vw
246,39.113018,-84.470115,Seventh Ave/Clay St
305,39.041038,-84.448860,/Alexandria Pike
1641,39.020604,-84.439259,Creekstone Ct
1278,39.083380,-84.482696,Monmouth St
390,39.060661,-84.450516,S Fort Thomas Ave
185,39.058524,-84.456398,Dale Ave/Sheridan Ave
185,39.007712,-84.459110,Aa Hwy
499,39.088416,-84.486679,Washington Ave/E 10th St
788,39.075653,-84.462486,N Grand Ave/S Grand Ave/Highland Ave
362,39.087798,-84.479729,Park Ave
246,39.102170,-84.476517,Foote Ave/Grandview Ave
246,39.089987,-84.472241,W Crescent Ave
246,38.933215,-84.313507,Carthage Rd/Aa Hwy
276,39.057323,-84.449898,Bonnie Ln/Alexandria Pike
185,39.092654,-84.445587,Cliffview Ave
1174,39.099291,-84.490890,/Linden Ave
160,38.877669,-84.386385,Parklake Rd
362,39.054156,-84.449249,Crowell Ave/Alexandria Pike
445,39.098018,-84.450066,N Fort Thomas Ave
334,39.043238,-84.448082,Alexandria Pike/Crestwood Ave
185,38.925676,-84.386589,/Lickert Rd
246,38.966500,-84.350525,Aa Hwy/Upper Lick Branch Rd
472,39.090411,-84.486420,E 9th St/Boone
160,38.894149,-84.380829,S Sun Valley Dr/Parkside Dr/N Sun Valley Dr
216,38.952693,-84.360649,Driftwood Ct
526,39.009677,-84.471222,Gloria Terrell Dr/Plum St
160,38.824178,-84.365077,Alexandria Pike/Hwy 27 N
552,39.084024,-84.500504,Lowell St/Powell St
305,39.071351,-84.473884,W Walnut St/Electric Ave/E Walnut St
1746,39.028321,-84.457482,Grey Stable Ln
160,39.012959,-84.474839,Aa Hwy/Rosewood Dr
891,39.094798,-84.490799,Overton St/Ader Aly
305,39.024175,-84.446088,Pooles Creek Rd
334,38.958328,-84.393074,Alexandria Pike/Heritage Hill Ln
526,39.070223,-84.470147,Gleason St
2705,39.101176,-84.489372,Riverside Dr
605,38.973582,-84.392326,Poplar Ridge Rd/Alexandria Pike
216,39.083890,-84.470106,/Huntemann Ln
710,39.086958,-84.499511,W 7th St/Patterson St
216,38.954626,-84.354538,S Blackwood Ct
160,38.900505,-84.434547,/Pond Creek Rd
160,38.917754,-84.396118,/S Licking Pike
160,38.892646,-84.272280,Aa Hwy
305,39.112885,-84.468513,Main St/Seventh Ave
813,39.099412,-84.482634,Clark St/Retreat St
362,38.984065,-84.401451,Cedar Ln
276,39.075469,-84.473290,Poplar St/Linden Rd
276,39.069431,-84.472389,Cherry Ln/Retreat St
246,39.098520,-84.461105,Timberwood Ct
160,38.893870,-84.251685,Mary Ingles Hwy
160,39.056130,-84.459510,Saffron Cir
684,39.097404,-84.484810,I- 471
185,38.886678,-84.264978,Aa Hwy
499,39.076741,-84.452881,/Highland Ave
526,39.103327,-84.478989,Washington Ave/Smith Aly
499,39.059409,-84.451782,Alexandria Pike/Woodfill Ave
160,38.886749,-84.257108,Smith Rd
418,39.083629,-84.494476,Isabella St/Solar Aly
1071,39.087794,-84.489555,Monmouth St
334,39.088239,-84.503372,Riverboat Row/W 4th St
445,39.105185,-84.480926,Washington Ave/Poplar St
552,39.099696,-84.477508,Covert Run Pike/Taylor Ave
1407,39.038523,-84.454102,I- 471
334,39.071140,-84.475998,Harvard Pl/Beech Ave
216,39.103830,-84.458176,Stacy Ln
216,38.955841,-84.347927,Ridgewood Dr/Tulipwood Ct
5167,39.095530,-84.495102,/Saratoga St
160,38.981471,-84.377625,Aa Hwy
445,39.110436,-84.476723,Vine St
305,39.045664,-84.460661,I- 471
605,39.078508,-84.481502,20th St
305,39.003288,-84.437091,Aa Hwy
185,39.072072,-84.453835,Edgewood Dr/S Grand Ave
1485,39.017977,-84.483301,Country Dr
499,39.097303,-84.486706,Nelson Pl
160,39.104198,-84.472693,Harrison Ave/Grandview Ave
160,38.907070,-84.413391,Pleasant Ridge Rd/Belle Pointe Dr
390,39.040327,-84.455475,S Miller Ave
160,38.889746,-84.268929,Aa Hwy/Washington Trace Rd
390,38.984297,-84.401153,Cedar Ln/Alexandria Pike
185,38.897117,-84.270497,Washington Trace Rd
362,38.968206,-84.393272,Fairview Dr/Alexandria Pike
185,39.029839,-84.447594,Henry Ct
736,39.077957,-84.480247,21st St/Carroll Ave
185,38.977022,-84.377548,Laurel Ridge Dr
160,38.974995,-84.380593,Lisa Ln/Poplar Ridge Rd
917,39.032316,-84.451700,Myrtle Ave/Alexandria Pike
216,39.051776,-84.447335,Lamphill Dr/Alexandria Pike
185,39.008004,-84.460541,Aa Hwy
526,39.084593,-84.490265,W 11th St/Putnam St
390,39.071035,-84.456268,Willow Dr/Summit Ave
185,39.112321,-84.470180,/8th Ave/Eighth Ave
334,39.111966,-84.471832,8th Ave/Dayton Ave/Eighth Ave
579,39.092406,-84.474937,Loraine Ct/Wilson Rd
276,39.100836,-84.478474,Grandview Ave
526,39.085794,-84.473583,I- 471
334,39.084325,-84.501040,Lowell St/W 8th St
185,39.100328,-84.450882,Orchard Hill Rd/Meadow Ln
605,39.105420,-84.480560,Poplar St/Kennedy Aly
865,39.030977,-84.453056,Johns Hill Rd/Bluegrass Dr
1200,39.079653,-84.466622,N Grand Ave
276,39.115921,-84.466454,Boone St/Third Ave
276,39.020079,-84.481430,Aa Hwy
185,39.088477,-84.481140,Park Ave/Miller St
246,39.068284,-84.486015,Grandview Ave/Fort Beech Dr
246,38.957126,-84.346054,Ridgewood Dr/Whitewood Ct
390,39.104130,-84.478592,Foote Ave/Center St
185,38.944891,-84.351176,Flagg Springs Pike
160,39.015374,-84.459089,Pooles Creek Rd
185,38.918657,-84.391197,/Alexandria Pike
552,39.105057,-84.483139,Taylor Ave/Prospect St
246,39.081013,-84.482834,Harrison St
160,39.060969,-84.443169,Delta Ave/Franklin Ave
334,39.055277,-84.449425,Alexandria Pike/Hawthorne Ave
276,38.848758,-84.379601,E Nagel Rd/Alexandria Pike
1174,39.034655,-84.455468,Louie B Nunn Dr
526,39.063935,-84.469910,/Moock Rd
334,39.003319,-84.437235,Aa Hwy
185,39.099959,-84.455826,Gunpowder Rdg
160,39.020379,-84.456706,Forest Ridge Dr
