Estimated daily crossings,Latitude,Longitude,Name
276,37.075022,-88.630341,N 27th St/Jefferson St
499,37.066990,-88.638459,Clark St/Lone Oak Rd
390,37.085208,-88.601792,Broadway St/S 7th St/N 7th St
160,37.046404,-88.565738,Dillard St/Bullard St
160,37.005435,-88.837932,State Hwy 286
362,37.029640,-88.664115,S Friendship Rd
216,36.966254,-88.677588,US Hwy 45
185,37.041506,-88.684207,Thorndale Rd/Hillington Dr
160,37.034609,-88.673652,Pepper Ln/Delaware St
526,37.067918,-88.635023,Adams St/Clark St/S 31st St
216,37.003732,-88.524501,Lakeside Dr
160,37.154935,-88.827447,/Bethel Church Rd N
185,37.043996,-88.701649,Turnberry Dr/Tuscan Rd
185,37.076667,-88.647750,N 34th St/Pines Rd
160,37.029022,-88.657274,Hutchinson St/Parker Rd/St Parker Ave
276,37.066365,-88.694257,New Holt Rd/Hanson Rd
160,37.008314,-88.683519,Peppers Mill Cove/Peppers Mill Dr
160,37.043929,-88.650436,Topeka Ave/Ridgewood St
362,37.024062,-88.610415,/Rosewood Dr
418,37.032297,-88.671995,Lovelaceville Rd/Cave Thomas Dr
276,37.042150,-88.570328,John L Puryear Dr/Hovekamp Rd
185,37.083493,-88.592884,Adams St/S 2nd St
246,37.064691,-88.658684,47th St
246,37.021044,-88.692379,Palisades Cir
246,37.025261,-88.690893,Terre Villa Cir/Palisades Cir
160,37.063748,-88.677786,Hansen Rd
160,37.075808,-88.665108,Drury Ln/Sherwood Rd
246,37.076681,-88.675876,Technology Dr/Technology Cir
185,37.019674,-88.505049,Kathlene Ct
185,37.080056,-88.623986,Madison St/N 21st St
160,37.068526,-88.658572,Pines Rd/Friedman Ln
552,37.056823,-88.650121,Miller Dr/Old Orchard Rd
305,37.046954,-88.666043,Ravenwood Dr/Old N Friendship Rd
185,37.070275,-88.625584,Adams St/S 26th St
160,37.019631,-88.724849,Braddie Cove/Odessa Way
160,37.092477,-88.621070,Greer St/N 11th St
472,37.066255,-88.588811,Allen St
185,37.040327,-88.627465,Felix Ave/Old Mayfield Rd
246,37.018881,-88.675323,US Hwy 45
185,37.008168,-88.596751,Husband Rd/Lydon Rd
216,37.005463,-88.507573,US Hwy 68
216,37.069263,-88.843799,Hinkleville Rd
185,37.040686,-88.655662,Barcelona Ct/Glenn St
160,37.010405,-88.525987,Calvert Dr/Locust Ln
160,37.083853,-88.623462,N 19th St/Park Ave
276,37.101629,-88.669700,Swanson Ln/Cairo Rd
305,37.068628,-88.644524,N Sycamore Dr/Afton Ave
216,37.052353,-88.619126,Schneidman Rd/Walnut Dr
160,36.987711,-88.746786,New Hope Rd/Cross Mill Rd/Florence Station Rd
160,37.041955,-88.561197,Georgia St
334,37.083365,-88.630924,N 25th St/Park Ave
160,37.040246,-88.651186,Rodger East Dr/Roger East Dr
160,37.059746,-88.646046,Barkley Woods/Plum St
185,37.046007,-88.571138,Alpha Dr
185,37.068001,-88.608911,Cleveland/Irvin Cobb Dr
305,37.068843,-88.591727,Linden St
276,37.048621,-88.573237,Alpha Dr/Meacham Ave
160,37.079083,-88.664161,Sherwood Rd
185,37.051833,-88.601056,Bechtdolt Rd
160,37.047601,-88.711478,Olivet Church Rd
246,36.979906,-88.634912,Houser Rd/Lebanon Church Rd
276,37.076829,-88.869151,Hinkleville Rd
160,37.039668,-88.629424,at Massa Dr/Hendron Rd
185,37.066953,-88.618497,/S 25th St/Brooks Stadium Dr
216,37.031198,-88.659316,Daytona St/Winslow Dr
160,37.030507,-88.567667,Seaboard Farms Rd/Oaks Rd
246,37.060215,-88.674195,Oakview Cir
552,37.054236,-88.570174,Pvt Nc/Irvin Cobb Dr
994,37.039787,-88.660864,Plantation Dr/Lone Oak Rd
445,37.057023,-88.636428,Stonebrook Dr
216,37.086238,-88.602443,Jefferson St/N 7th St
185,37.064128,-88.587759,Bridge St/Kinkead St
552,37.083681,-88.599307,S 6th St/Washington St
160,37.100863,-88.877448,Libby Ln
160,37.004423,-88.500628,Tyree Rd
246,36.982480,-88.642383,Greenvale Dr/Oakwood Dr
160,37.083144,-88.723801,Harris Rd
160,37.009851,-88.520886,Tudor Blvd
362,37.078912,-88.636202,Trimble St/California Ct
185,37.081162,-88.695640,Eva Dr/Olivet Church Rd
362,37.063299,-88.613807,Old Mayfield Rd/Seitz St
334,36.994849,-88.505878,I- 24/US Hwy 68
305,37.077501,-88.591480,Norton St
160,37.034268,-88.553957,Beckham Ave/Old Benton Rd
160,37.056157,-88.578382,Bridge Ct
445,37.050659,-88.639646,Glenwood Ct
305,37.026195,-88.541514,Fantasy Lane Bay/Fantasy Ln
216,37.067803,-88.747810,Arcadia Way
445,37.084709,-88.603027,N 8th St/Broadway St
216,37.005495,-88.507349,US Hwy 68
216,37.059084,-88.606827,Hawaii St
2009,37.074356,-88.690425,/Bell Aire Dr/Brewer Ln
246,37.082077,-88.609543,N 12th St/S 12th St/Broadway St
160,36.996081,-88.563110,Sheenan Bridge Rd
185,37.070758,-88.655605,Pines Rd/N Valley Rd
276,37.052544,-88.575658,Frontage Rd/Yarbro Ln
362,37.102551,-88.689811,I- 24/
276,37.081125,-88.627593,Clay St/N 23rd St
160,37.082384,-88.777899,Woodville Rd
160,37.014480,-88.663214,Jan Ann Dr
216,37.066698,-88.620868,S 24th St/Spruce St
658,37.083553,-88.639741,Park Ave/Mc Guire Ave
334,37.095726,-88.688723,Olivet Church Rd
472,37.069713,-88.628774,S 28th St/
216,36.984432,-88.676230,US Hwy 45
246,37.037141,-88.633039,/Bleich Rd/Hendron Rd
736,37.027516,-88.670601,Ky-6041
305,37.071826,-88.637910,Jefferson St/Labelle St
216,37.034424,-88.663974,Wright Ln/Ecco Ln
160,37.065254,-88.687216,Perkins Creek Dr
185,36.989214,-88.509951,Lark Spur Ln
246,37.107045,-88.780292,Ogden Landing Rd
305,37.058729,-88.685092,Woodcreek Blvd/N Friendship Rd/Wood Creek Blvd
362,37.045805,-88.576603,Meacham Ln
185,37.090442,-88.614690,Burnett St/Gardner Ave
185,37.025264,-88.670479,Ky-6043
160,37.058693,-88.621189,Virginia St
305,37.054307,-88.645630,Birch St/Lone Oak Rd
445,37.059226,-88.640993,Walnut St/
445,37.070330,-88.629162,S 28th St/Clark St
305,37.036457,-88.572414,Estes Ln/John L Puryear Dr
160,36.983111,-88.671832,Mayfield Rd
160,37.004493,-88.499834,Old Calvert City Spur Rd/Old Calvert City Rd
160,37.044457,-88.610376,Poole Rd
276,37.069626,-88.681955,Pecan Dr
160,37.078246,-88.693036,Concord Ave
216,37.065106,-88.648651,Magnolia Dr/Hillcrest Ave
160,37.064675,-88.597073,Dav Dr/Green St/Brown St
445,37.067350,-88.686104,Falconcrest Dr
390,37.015338,-88.591612,/John L Puryear Dr
185,36.985669,-88.496964,Benton Rd
246,37.024474,-88.670962,Ky-6043/Lone Oak Rd
246,37.062534,-88.694980,New Holt Rd/N Friendship Rd
185,37.039278,-88.683308,Thorndale Cove
334,37.069017,-88.698838,Sunnybrook Dr
305,36.994996,-88.497305,I- 24
762,37.070917,-88.700406,Olivet Church Rd/Village Square Dr
362,37.048217,-88.566074,John L Puryear Dr
362,37.037912,-88.632349,I- 24
216,37.080911,-88.618790,Monroe St/Fountain Ave
185,37.075286,-88.772521,Tori Trl/Tarpan Trl
246,37.021363,-88.682150,Jolee Way
334,37.086457,-88.617581,Burnett St/Park Ave
276,37.062505,-88.650385,Cardinal Ln/Court Ave
334,37.055917,-88.618777,Starke Ave/Alabama St
160,37.066549,-88.628558,S 29th St/Ohio St
246,37.037113,-88.537989,Clarks River Rd/Reidland Rd
552,37.070449,-88.690685,Holt Rd
276,37.076501,-88.669452,Friedman Ln/Alameda Dr
185,37.059032,-88.570963,Wayne Sullivan Dr/Bethel St
185,37.039215,-88.629444,at Massa Dr
185,37.074787,-88.598347,S 9th St/Norton St
160,37.075618,-88.773620,Tarpan Trl/Danube Dr
246,37.036333,-88.676238,Greenway Chase
658,37.079047,-88.794823,Future City Rd
246,37.009838,-88.512319,Brighton Gate/Kentucky Dam Rd
305,37.084688,-88.599962,S 6th St/Kentucky Ave
390,37.083281,-88.625319,Park Ave
160,37.062763,-88.624866,Miller St
276,37.024889,-88.671486,US Hwy 45/Lone Oak Rd
216,37.055232,-88.633506,Aspen Way/Oak St
185,37.061097,-88.588393,Marton St/Ella Dr
246,37.042030,-88.568128,Valley St
216,37.036325,-88.680641,Rue Chateau St/Rue Thierry Dr
276,37.046819,-88.556957,Clarks River Rd
216,37.047128,-88.558289,Clarks River Rd
216,37.051188,-88.572728,/Clarks River Rd
185,37.029266,-88.533523,Reidland Rd
160,37.077595,-88.614388,Washington St/S 16th St
160,37.064618,-88.590376,Allen St
499,37.051820,-88.650057,Lone Oak Rd
216,37.071377,-88.779629,/Hinkleville Rd
160,37.008658,-88.508373,US Hwy 68/
246,37.086484,-88.627018,Kruger St/N 22nd St
160,37.090967,-88.626860,Cairo Rd/N 13th St
390,37.060154,-88.658874,I- 24/
185,37.062010,-88.658541,Roundhouse Rd
160,37.066233,-88.615121,Alabama St/Alabama Street Shortcut
276,37.045608,-88.660222,Mohawk Dr/Shawnee Ln
445,37.078525,-88.646794,Lorine Ln/Rucker Ave
160,37.059046,-88.790406,Johnna Ln/W Airport Rd
160,36.979679,-88.819608,Blandville Rd
390,37.058016,-88.653223,Alben Barkley Dr
305,37.075998,-88.604777,/Ohio St
185,37.068988,-88.611150,Cleveland
813,37.071439,-88.624573,S 25th St
160,37.015659,-88.675626,US Hwy 45
276,37.055342,-88.645025,Poplar St
334,37.026772,-88.567210,Oaks Rd
472,37.037406,-88.664919,N Friendship Rd/Oregon St
658,37.030049,-88.670885,Clinton Rd
160,37.065799,-88.615799,S 25th St
160,37.033843,-88.590191,Blankenship Dr/Champ Dr
362,37.043713,-88.569663,Silk Tree Blvd/John L Puryear Dr/Oaks Rd
185,37.028787,-88.755718,Childress Rd/Blandville Rd
362,37.061769,-88.638949,Lone Oak Rd
1226,37.033830,-88.668936,Lansing Ct/Lone Oak Rd
684,37.029362,-88.670687,Gillhaven Dr/Lone Oak Rd
160,37.051764,-88.617685,Blaess St/Lackey St
216,37.094927,-88.774331,Hall Rd/Bradford Rd
185,37.096523,-88.656824,Maryland Ave/Westside Dr
246,37.071199,-88.673954,I- 24
552,37.128029,-88.689086,I- 24
246,37.064123,-88.688121,Keeneland Ct
160,36.978298,-88.492833,Bryant Ford Rd
185,37.048419,-88.652632,Nolan Dr
160,37.077280,-88.598393,S 8th St/Tennessee St
160,37.099022,-88.753989,Ogden Landing Rd
305,37.090520,-88.607791,Campbell St
216,37.052127,-88.575164,Bridge St
160,37.082896,-88.694842,Olivet Church Rd
334,36.995222,-88.497138,/I- 24
160,37.010284,-88.820596,Ashley Dr/State Hwy 286
185,37.078805,-88.656859,Creekside Ct/N 37th St
334,37.067456,-88.631856,S 30th St/Clint Ct
160,37.044414,-88.559646,Alabama/Alabama St
305,37.015054,-88.524180,Kentucky Dam Rd/Tanglewood Drive X
160,37.005829,-88.699452,Groveway Blvd/Clinton Rd
684,37.085828,-88.593137,S Water St
499,37.076790,-88.673919,Technology Ct
305,36.992679,-88.527144,Cold Spring Rd
216,37.035119,-88.654871,Milton Dr/Emily Cir
185,37.064044,-88.625227,S 28th St/Norton St
216,37.069327,-88.701238,Olivet Church Rd
160,37.065376,-88.656428,Idlewild Drive Bay/Idlewild Dr
246,37.081179,-88.675640,Friedman Ln
216,36.989031,-88.515892,Greenfield Dr/Parkwood Dr
246,37.058543,-88.578795,Locust Ave/Irvin Cobb Dr
160,37.050263,-88.677638,Blandville Rd
276,37.056334,-88.580617,Locust Ave/Bridge St
185,37.026221,-88.581134,Eich Rd/John L Puryear Dr
160,37.064847,-88.626469,Jones St
216,37.084695,-88.698033,Stanley Cemt Rd/Stanley Rd
185,37.006345,-88.534141,Sheehan Bridge Rd
185,37.063699,-88.625896,Norton St/Turner St/Owen St
362,37.057812,-88.582446,Bridge St/Irvin Cobb Dr
246,37.026380,-88.541310,Fantasy Lane Bay/Fantasy Ln
246,37.085192,-88.630870,N 25th St/Lindsey St
418,37.032514,-88.667741,Lansing Ct
276,37.013513,-88.531782,Benton Rd/Anita Dr
216,37.048485,-88.652805,Nolan Dr
390,37.044542,-88.657407,Boyles St/Carson Rd
160,37.042460,-88.552011,Indian Oaks Trailer Park
160,37.065139,-88.588670,Bridge St
362,37.082400,-88.611942,N 13th St/Jefferson St
276,37.083814,-88.656938,Park Ave
185,37.036844,-88.633126,Hendron Rd
246,37.049312,-88.581069,Lydon Rd
1046,37.039202,-88.661281,Lone Oak Rd
160,37.006618,-88.507631,US Hwy 68
185,37.044814,-88.577148,Meacham Ln/
160,37.061436,-88.640369,Plum St
362,37.126931,-88.689481,I- 24
160,37.052577,-88.606161,Bloom Ave
216,37.090750,-88.609217,Harris St/N 9th St
839,37.075542,-88.638281,Harrison St/N 30th St
246,36.953666,-88.678530,US Hwy 45/Colliersville Cemetery Road X
185,37.007218,-88.517865,Surrey Ct
334,37.046099,-88.567862,John L Puryear Dr/Old Benton Rd
185,37.024653,-88.699146,Lovelaceville Rd
579,37.073494,-88.640605,N 32nd St/Harrison St
216,37.072961,-88.652694,Pines Rd/Hillgate Rd
160,37.050238,-88.570511,Clarks River Rd/Clarks River Ferry Rd
246,37.095901,-88.677644,Locust Ave
334,37.078897,-88.617428,Broadway St/S 17th St
185,37.037796,-88.558134,Old Benton Rd
334,37.043811,-88.565180,Old Benton Rd
445,37.075226,-88.594009,S 6th St/Caldwell St
276,37.006231,-88.537773,Holmes Ave
305,37.081396,-88.648629,N 32nd St/Spring St
445,37.079629,-88.637270,Laclede Ave/N 29th St
362,37.057843,-88.582379,Irvin Cobb Dr
246,37.045844,-88.702023,Turnberry
305,37.082138,-88.595163,S 4th St
418,37.070130,-88.697923,W Park Dr
276,37.039228,-88.541226,Clarks River Rd
185,37.052409,-88.633140,Walnut Dr
160,37.043225,-88.561251,Alabama St
185,37.077759,-88.601946,/S 10th St
160,37.082355,-88.679277,Coleman Rd/Mike Smith Dr
185,37.087955,-88.661840,Allen Ln
526,37.056778,-88.657386,/Alben Barkley Dr
160,37.091760,-88.605837,N 7th St
185,37.092456,-88.603263,/N 5th St
246,37.046829,-88.566992,John L Puryear Dr/Bullard St
334,37.059127,-88.620932,Virginia St/Beiderman St
160,37.095984,-88.676283,Cedar Ave
216,37.033692,-88.628028,Bleich Rd/Old Mayfield Rd
160,36.945235,-88.582290,Wadesboro Rd/Hardmoney Rd
390,37.116998,-88.692833,I- 24
160,37.081765,-88.754414,Lowell Ln/Souders Ln
390,37.054215,-88.638816,Glenwood Dr/Beechdale Rd
246,37.092949,-88.623750,Fern St/N 11th St
185,37.077815,-88.702555,Shelldrake Ln/Quail Covey Ct
305,37.018587,-88.675628,US Hwy 45
185,37.044458,-88.628847,Azalea Cir/Forsythia Dr
185,37.099032,-88.679877,Cairo Rd/Jacobs Ave
305,37.074822,-88.630213,N 27th St
160,36.973997,-88.824424,Blandville Rd
246,37.047554,-88.697093,Gleneagles Dr/Holt Rd
160,37.011839,-88.522957,Barton Ct/Barton Cir
160,37.030760,-88.654450,Starr Hill Rd
160,37.080114,-88.794333,Future City Rd
276,37.074966,-88.604126,Tennessee St/
1020,37.075712,-88.623742,Otis Dinning Dr
526,37.034455,-88.670086,Concord Ave
684,37.076725,-88.643220,N 32nd St
185,37.043144,-88.708484,Blandville Rd
334,37.083418,-88.612584,Monroe St/N 13th St
362,37.081348,-88.594669,Oscar Cross Ave/Jackson St/S 4th St
185,36.991614,-88.505763,/Benton Rd
185,37.019190,-88.687400,Clinton Rd/Gatewood Dr
160,37.070352,-88.586637,S 4th St
334,37.126902,-88.689407,I- 24
160,37.052429,-88.634912,Oak St/Walnut Dr
216,37.082079,-88.592869,Jackson St
362,37.014163,-88.592071,I- 24/John L Puryear Dr
160,37.053742,-88.830044,Old Hinkleville Rd
305,37.046011,-88.567758,John L Puryear Dr/Old Benton Rd
305,37.037540,-88.671198,Charleston Ave
362,37.065047,-88.664184,Exall Ln
390,37.074488,-88.629996,N 27th St
2061,37.075163,-88.683390,/James Sanders Blvd
216,37.107901,-88.691728,I- 24/Noble Rd
246,37.050783,-88.573443,Butler St/Old Benton Rd
160,37.016798,-88.525655,Kentucky Dam Rd
216,37.032505,-88.551077,/Old Benton Rd
1226,37.064778,-88.638492,Lone Oak Rd
160,37.041928,-88.561233,Georgia St
362,37.056328,-88.632934,Oak St
185,37.091142,-88.627728,N 13th St/Cairo Rd
246,37.071783,-88.586476,Elizabeth St
160,37.042385,-88.560615,Georgia St
305,37.083257,-88.607379,N 11th St
362,37.070749,-88.617586,S 21st St/Ohio St
390,37.057097,-88.641276,Hickory St/Lone Oak Rd
994,37.074586,-88.693622,Hinkleville Rd
185,37.024330,-88.696233,Colony Dr/Terre Mont Dr
185,37.044793,-88.669213,Nebraska St
160,37.009196,-88.595762,Old Husbands Rd/Husband Rd
246,37.025783,-88.540846,Myrna Dr
216,37.034504,-88.538140,Epperson Rd
472,37.052046,-88.673939,N Friendship Rd
160,37.006404,-88.519068,Castleton Pike
185,37.044093,-88.706901,Blandville Rd
216,37.003007,-88.553388,I- 24
334,37.071022,-88.636730,Broadway St
276,37.009382,-88.531716,Benton Rd/Grogan Cir
526,37.025324,-88.610693,Rosewood Dr
160,37.070368,-88.612338,Old Mayfield Rd/Wheeler Ave
160,37.041861,-88.569118,Oaks Rd/Hovekamp Rd
185,37.008318,-88.716071,Les Lee Dr/McNutt Dr
445,37.076029,-88.621387,S 21st St/Kentucky Ave
216,37.063332,-88.617404,Cornell St/Center St
445,37.064246,-88.675112,Oakcrest Dr
276,37.065553,-88.627903,Tennessee St/S 29th St
305,37.073600,-88.619880,S 21st St/Polk St
579,37.057443,-88.635354,Stonebrook Dr
917,37.078474,-88.680850,I- 24/Hinkleville Rd
160,37.032559,-88.655795,Iowa St/Milton Dr/Starr Hill Rd
605,37.058090,-88.635164,Stonebrook Ct
185,37.037040,-88.678771,Windmere Dr/Lakeshore Dr
160,37.069296,-88.739736,Ladera Ln/Mayfield Metropolis Rd
160,37.020735,-88.665263,S Friendship Rd
160,36.996187,-88.506026,US Hwy 68/
160,37.009097,-88.518263,Tudor Blvd
362,37.068165,-88.698267,Parkside Dr/W Park Dr
246,37.016349,-88.799034,State Hwy 286/Blandville Rd
276,37.015845,-88.592794,Old Husbands Rd
185,37.028403,-88.531848,Kentucky Dam Rd
160,37.061657,-88.679877,Woodcreek Blvd/Pioneer Dr
334,37.075286,-88.643771,N 33rd St/Central Ave
276,37.036650,-88.669611,Charleston Ave/Delaware St
813,37.072544,-88.700350,Hinkleville Rd
160,37.073066,-88.672922,Nottingham Woods/Alameda Cres
185,37.055893,-88.680326,Buckner Ave/Buckner Lane Y
658,37.068627,-88.628095,S 28th St
216,37.008823,-88.504668,Kentucky Dam Rd/Old Calvert City Rd
390,37.037696,-88.649760,Lakeview Dr/Marshall Ave/Country Club Ln
216,37.079098,-88.653276,Roell Cir
160,37.091063,-88.620198,N 12th St/Northview St
216,37.053102,-88.607831,Custis St
185,36.997073,-88.565585,Sheenan Bridge Rd/Oaks Rd/Lydon Rd
246,37.057365,-88.587190,Hobson St
246,37.028385,-88.697102,Whipporwill Ln/Chickadee Dr
160,37.043666,-88.658672,Manchester St/Boyles St
160,37.009988,-88.709619,Larue Dr/Jewell Ln
684,37.038588,-88.661738,Maryland St/Lone Oak Rd
246,37.008137,-88.518860,Carson Way
276,37.086168,-88.633442,H C Mathis Dr
472,37.044467,-88.656735,Carson Rd/Lone Oak Rd
185,37.053383,-88.576797,Bridge St/Main St
216,37.026646,-88.611439,Schneidman Rd
418,37.075441,-88.678426,I- 24
418,37.066434,-88.674433,Pecan Dr/Buckner Ave
276,37.079956,-88.618003,Jefferson St/Fountain Ave
305,37.076985,-88.619057,S 19th St/Kentucky Ave
160,37.099646,-88.653645,Cairo Rd
305,37.082382,-88.628250,N 23rd St
216,36.979628,-88.671924,Mayfield Rd/Lebanon Church Rd
160,37.066833,-88.823864,Magruder Rd/Proposed Hwy 60/New Hwy
216,37.080005,-88.591615,Tennessee St
631,37.075119,-88.622062,/S 22nd St
216,37.050523,-88.667594,Old N Friendship Rd
185,37.067834,-88.661410,Whitney Dr/Quail Hollow Dr
276,37.084861,-88.618351,N 16th St/Martin Luther King Jr Dr
526,37.059581,-88.642003,Walnut St
216,37.078341,-88.673982,Technology Dr
276,37.074367,-88.645006,N 34th St/Central Ave
472,37.044563,-88.656671,Lone Oak Rd
246,37.065935,-88.655648,Idlewild Drive Bay/Idlewild Dr
1355,37.033328,-88.669330,Ky-1322/Lone Oak Rd
246,37.043923,-88.661572,Husbands St/Kathy
216,37.056634,-88.678778,W Haven Dr/Buckner Ave
246,37.091279,-88.725406,Ogden Landing Rd/Cold Springs Rd
185,37.036990,-88.643165,Spring Valley Dr/Spring Valley Cove
160,37.073074,-88.719833,Maxon Rd
185,37.071558,-88.724288,US Hwy 60
185,37.045038,-88.577842,Meacham Ln/Yarbro Ln
246,37.062102,-88.621068,S 29th St/Mississippi St
418,37.039510,-88.636284,Ridge Rd
160,37.008372,-88.652910,Champion Ln
216,37.079759,-88.651075,Roell Cir
185,37.047280,-88.630642,Cemetery Dr
160,37.061932,-88.692860,N Friendship Rd/Holt Rd
160,36.988635,-88.513612,Said Rd/Greenfield Dr
160,37.011646,-88.490404,Conchen Rd
1615,37.063643,-88.638560,Lone Oak Rd
185,37.053801,-88.607792,Shelby St/Todd St
185,37.009137,-88.535434,Finley Ct
185,37.047280,-88.558942,Clarks River Rd
160,37.045223,-88.628693,Azalea Cir
185,37.059913,-88.667082,Berry Ct
160,37.025628,-88.689240,Fairview Dr/Gatewood Dr
390,37.088265,-88.619653,Flournoy St/N 14th St
160,37.065735,-88.745464,Harting Ridge Rd/Hinkleville Rd
362,37.044641,-88.590589,Lark Ln/Hummingbird Ln
185,37.071649,-88.668181,Whitney Dr/Quail Hollow Dr
185,37.066889,-88.830368,Ashland Ave
185,37.043721,-88.551270,/Indian Oaks Trailer Park
185,37.057720,-88.786108,W Airport Rd/Thoroughbred Cir
185,37.000893,-88.532205,Willowick St
160,37.008287,-88.681299,Peppers Mill Drive Bay/Peppers Mill Dr
160,37.075780,-88.698175,Olivet Church Rd
160,37.066559,-88.833645,New Hwy
246,37.081847,-88.641250,Marianne Dr
160,37.064289,-88.584211,Gilson St/Ashbrook Ave
710,37.071930,-88.628435,S 27th St/Washington St
246,37.077496,-88.623910,Jefferson St/N 22nd St
334,37.084526,-88.606695,10th St/Jefferson St
160,37.049816,-88.573792,Butler St/Victor St
390,37.038475,-88.666502,Maryland St/Cumberland Ave
216,37.046689,-88.694489,Highland Church Rd/Blandville Rd
216,37.072036,-88.670732,Alameda Cres/Londonderry Ln
160,37.088896,-88.636205,Reed Ave
276,37.039048,-88.585668,Estes Ln/Husband Rd
418,37.104721,-88.690590,I- 24
216,37.055936,-88.680954,N Friendship Rd/Buckner Ave
246,37.045018,-88.568593,John L Puryear Dr
160,37.061504,-88.578700,Maggie St/Gilson St
160,36.982184,-88.521093,Downs Rd
216,37.060986,-88.644346,Browner Cir/Plum St
334,37.069394,-88.594224,Fisher St
160,37.023592,-88.630254,Old Mayfield Rd
216,37.107902,-88.691993,I- 24/Noble Rd
418,37.091376,-88.610588,Boyd St/N 9th St
246,37.076217,-88.591448,S 4th St/Caldwell St
160,37.057688,-88.673539,W Vale St
216,37.076224,-88.600981,Tennessee St/S 10th St
160,37.033034,-88.659390,Iowa St/Daytona St
762,37.032818,-88.668538,Arkansas St/S Concord Ave
216,37.068119,-88.650328,N Country Club Ln/Central Ave
362,37.044733,-88.574622,/Meacham Ave
276,37.057945,-88.665463,Pecan Dr/Lindberg Ct
160,37.009244,-88.506747,Kentucky Dam Rd/Calvert Dr
658,37.050319,-88.576105,Victor St/Yarbro Ln
160,37.079836,-88.598426,S 7th St/Jackson St
185,37.076848,-88.647513,Pines Rd
160,37.008087,-88.514876,Drawbridge Trce/Tudor Blvd
605,37.087836,-88.629215,Mildred St/Bloomfield Ave
216,37.077654,-88.626839,Monroe St/N 24th St
160,36.997393,-88.651924,Candlelight Dr
160,37.038393,-88.594951,Happy Hollow Dr
246,37.047644,-88.560536,Clarks River Rd/Country Aire X
160,37.088006,-88.825371,Hobbs Rd
216,37.043439,-88.642429,I- 24
305,37.078786,-88.594658,Tennessee St/S 5th St
276,37.064391,-88.621739,S 24th St/Center St
185,37.001133,-88.516126,Park Pl/Tyree Rd
160,37.064543,-88.810064,/Enlow Dr/Kelley Rd
185,37.084542,-88.697429,Stanley Cemt Rd
276,37.059759,-88.657596,I- 24
185,36.990687,-88.517443,Stonepoint Ct
362,37.097493,-88.688255,I- 24/Cairo Rd
246,36.981890,-88.642333,Greenvale Dr
362,37.083006,-88.607246,Broadway St/N 11th St
185,37.059976,-88.614209,S 29th St/Goodman St
362,37.087251,-88.603079,Monroe St/N 7th St
160,37.102519,-88.669210,Noble Rd/Swanson Ln
160,37.070891,-88.669203,Whitney Dr/Deer Path Ln
334,37.063570,-88.686655,Perkins Creek Dr/Riegel Ln
160,37.088047,-88.682940,Heartland Dr
216,37.094151,-88.623392,10th St/Fern St
216,37.069118,-88.695539,W Towne Dr
160,37.058781,-88.583227,/Bridge St
1097,37.075215,-88.623434,Otis Dinning Dr/Kentucky Ave
865,37.054098,-88.650230,Kennedy Rd/Meadow Ln
579,37.083204,-88.603624,S 9th St/Kentucky Ave
160,36.997673,-88.568307,Lydon Rd
1589,37.073027,-88.626079,Washington St/S 26th St
1719,37.056388,-88.658681,Alben Burkley Exn/Alben Barkley Dr
246,37.053665,-88.570964,/Pvt Nc
334,37.055912,-88.644013,Sycamore Dr
1381,37.072499,-88.625247,S 25th St
246,37.051767,-88.696577,Holt Rd
216,37.068020,-88.839601,Lanie Dr/Hinkleville Rd
160,37.007830,-88.729475,Crabapple Cove
185,37.071503,-88.642040,Monroe St/N 34th St
334,36.990059,-88.505390,Benton Rd
185,37.055114,-88.696271,/Holt Rd
246,37.063238,-88.620463,S 28th St/Mississippi St
658,37.043534,-88.667444,Kimberly Dr/Brookhill Ln
185,37.049095,-88.680301,Blandville Rd
445,37.083744,-88.652261,Metcalf Ln/Park Ave
334,37.054679,-88.578474,Koerner St/Bridge St
160,36.994386,-88.671382,Krebs Station Rd
185,36.950407,-88.677689,US Hwy 45
160,37.029596,-88.532432,Kentucky Dam Rd
185,37.074210,-88.593350,S 6th St/Husbands St
216,37.069794,-88.641605,Friedman Ave/Afton Ave
276,37.026170,-88.665575,S Friendship Rd/Gillhaven Dr
185,37.012982,-88.592718,/John L Puryear Dr
736,37.075634,-88.622401,Kentucky Ave/S 22nd St
418,37.059442,-88.636914,Berger Rd
276,37.061557,-88.618796,S 29th St/Georgia St
160,36.980519,-88.669772,Lebanon Cir
216,37.008176,-88.530075,Miller Ct
160,37.085230,-88.738142,Cairo Rd/Emily Dr
185,37.019074,-88.527436,Kentucky Dam Rd/Byron Dr
160,37.065699,-88.687042,Perkins Creek Dr/Hansen Rd
160,37.019198,-88.591518,Old Husbands Rd/Husband Rd
246,37.082024,-88.622299,N 19th St/Harrison St
276,37.058093,-88.611192,S 30th St
185,37.064412,-88.645274,Sunset Ave/Hilldale Rd
216,37.058508,-88.617333,Alabama St/Bell Ave/Old Mayfield Rd
334,37.081301,-88.608350,Kentucky Ave
160,37.062365,-88.784672,Thoroughbred Cir
276,37.032508,-88.622469,I- 24
185,37.083904,-88.694368,Olivet Church Rd
390,37.086373,-88.617777,Park Ave/N 15th St
185,37.033168,-88.660387,Iowa St/Atlanta Ave/Atlanta St
216,37.047426,-88.559578,Clarks River Rd
160,36.957312,-88.660409,Jasper Shulta Rd
390,37.005887,-88.523720,Cascade Dr
160,37.032926,-88.658392,Iowa St/Albany St
246,37.047542,-88.560091,Royal Oak Dr/Clarks River Rd
305,36.979603,-88.676215,Lebanon Church Rd
160,37.095882,-88.695260,Cairo Rd
160,37.019537,-88.660944,Ken Ln/Timothy Dr
658,37.075904,-88.637379,Harrison St
276,37.091076,-88.608979,Harris St
552,37.090065,-88.621713,N 13th St/Greer St
185,37.014455,-88.522801,Debra Ct
185,37.047670,-88.566293,John L Puryear Dr/Cook St
160,37.046667,-88.561425,Carolina St
445,37.084406,-88.613206,N 13th St/Madison St
736,37.074024,-88.638919,N 31st St/Madison St
160,37.063881,-88.699455,N Friendship Rd/Deerhaven Ln
276,37.043143,-88.660678,Rieke Rd/Kathy
160,37.078334,-88.602154,Oscar Cross Ave/S 10th St
216,37.023370,-88.543951,Copeland Rd/Old Benton Rd
276,37.058999,-88.628850,Fairway Dr
276,37.043392,-88.669242,Nebraska St/Kimberly Dr
362,37.063616,-88.622045,S 24th St/S 28th St/Marquess Dr
216,37.050052,-88.750827,Oxford Ln
276,37.044981,-88.709337,Olivet Church Rd/Meadow Links Dr
276,37.060612,-88.636503,Goodman Dr
362,37.087333,-88.618638,Dorothy St
631,37.076045,-88.640182,N 31st St/Clay St
185,37.037058,-88.646962,/Brookside Cove
160,36.980912,-88.500943,Redbud Dr/Watson Rd
216,37.049019,-88.637839,Farwood Dr
216,37.017223,-88.680020,Jolee Way/Contest Rd
390,37.014443,-88.592153,I- 24/John L Puryear Dr
185,37.063134,-88.649143,Wedgewood Pl/Wedgewood Dr/Court Ave
605,37.087860,-88.629530,Mildred St/N 24th St
418,37.087770,-88.628236,Mildred St/N 23rd St
160,37.047153,-88.626753,Elmdale Rd/Old Mayfield Rd
246,37.095589,-88.741445,Ogden Landing Rd
246,37.054204,-88.642124,Avondale Rd/Highland Blvd
526,37.073370,-88.631058,S 28th St/N 28th St/Broadway St
216,37.074097,-88.657735,Ivy Dr/Phillips Ave
185,36.979514,-88.500552,McIntosh Rd/Watson Rd
305,36.994834,-88.506107,US Hwy 68/I- 24
185,37.006436,-88.532974,/Sheehan Bridge Rd
1174,37.032563,-88.669538,Arkansas St
246,37.061351,-88.647215,Barkley Woods/
216,37.000852,-88.531946,Willowick St/Banberry Bend
710,37.070236,-88.622005,S 24th St/US Hwy 60
246,37.058294,-88.582821,Bridge St
390,37.081085,-88.624628,Harrison St/N 21st St
246,37.079803,-88.592140,Tennessee St/S 3rd St
185,37.071677,-88.593290,S 7th St
216,37.018842,-88.535987,Epperson Rd/Old Benton Rd
276,37.082440,-88.619610,Fountain Ave
334,37.088500,-88.609337,10th St/Martin Luther King Jr Dr
160,37.045574,-88.669567,N Friendship Rd
276,37.086005,-88.697447,Stanley Rd
160,36.988045,-88.671707,Mayfield Rd
160,37.084819,-88.615025,N 14th St
499,37.060751,-88.615264,S 29th St/Old Mayfield Rd
334,37.068934,-88.638359,Maple Ave/Lone Oak Rd
362,37.090662,-88.635722,Reed Ave/N 14th St
216,37.039008,-88.636322,Ridge Rd
185,37.080832,-88.595948,Oscar Cross Ave/Jackson St/S 5th St
246,37.099240,-88.678577,Cedar Ave/Cairo Rd
276,37.047864,-88.566573,Kentucky St/Cook St
160,37.010153,-88.669386,Westchester Ln/Chriswell Cir
305,37.040013,-88.667811,Cumberland Ave
160,37.051175,-88.635513,Oak St
185,37.027212,-88.692402,Terre Verte Blvd/Lovelaceville Rd
246,37.086089,-88.633930,Noble Park St
216,37.059926,-88.653785,Sunset Ave
185,37.104031,-88.770009,Ogden Landing Rd/Bradford Rd
160,37.017352,-88.526303,Kentucky Dam Rd/Park Rd
160,37.045669,-88.708862,Meadowlink Drive Nc/Meadow Links Dr
160,37.075259,-88.650707,Wilson St/N 36th St
216,37.062806,-88.671530,Deer Lick Pl
160,37.030154,-88.554504,Heath St
216,37.050646,-88.668162,Old N Friendship Rd
160,37.073014,-88.760547,Cairo Rd/Proposed Hwy 60
216,37.066257,-88.663340,Buckner Ave
185,37.066742,-88.623369,Jones St/S 26th St/Spruce St
362,37.044515,-88.657515,Carson Rd/Boyles St
185,37.095723,-88.631462,10th St
216,37.068312,-88.611318,Lincoln Ave/Coxey St
160,37.008596,-88.652824,Acorn Ln/Champion Ln
160,37.070669,-88.589540,S 5th St/Elizabeth St
216,37.005292,-88.530459,Benton Rd
305,37.021228,-88.675794,Valiant Dr
305,37.068870,-88.640990,Friedman Ave/Buckner Ave
305,37.071307,-88.639223,N 32nd St/Jefferson St
362,37.044580,-88.664749,N Friendship Rd/Seneca Ln
160,37.097844,-88.865240,Neal Dr
334,37.088249,-88.603706,N 7th St/Madison St
390,37.077170,-88.631128,N 27th St/Madison St
160,36.963236,-88.681845,Contest Rd
185,37.058986,-88.763242,Lauren Ln
185,37.064780,-88.621588,S 24th St
185,37.025634,-88.567957,/Butler Ln
276,37.050935,-88.693813,Birkdale Bend
499,37.050737,-88.651836,/Lone Oak Rd
216,37.024421,-88.594998,Spann Ln/Ken Pat Dr
160,37.098742,-88.681807,Pullen Ln/Cairo Rd
185,37.044534,-88.550128,Indian Oaks Trailer Park
216,37.041885,-88.668176,Brookhill Ln
160,37.003366,-88.538097,Holmes Ave
160,37.083877,-88.617723,N 16th St/Harrison St
160,37.058377,-88.618717,Cornell St/Old Mayfield Rd
216,37.067403,-88.591746,S 9th St
305,36.989963,-88.505380,Benton Rd
185,37.028171,-88.696954,Whipporwill Ln
631,37.084182,-88.598057,Washington St/S 5th St
276,37.038690,-88.658517,Susan Ln/Albany St
160,37.065996,-88.722458,Maxon Rd/Hinkleville Rd
362,37.078620,-88.614996,Kentucky Ave/S 16th St
362,37.086528,-88.607968,10th St/Madison St
418,37.066805,-88.668430,I- 24
390,37.061061,-88.650668,Sunset Ave/Minerva Pl
276,37.042565,-88.659419,Rieke Rd/Carson Rd
276,37.080731,-88.603671,S 10th St/Clark St
276,36.969057,-88.677635,US Hwy 45
216,37.028474,-88.690155,Jessamine Dr/Lovelaceville Rd
160,37.004952,-88.518841,Castleton Pike
160,37.012360,-88.671087,Hillmont Dr/Lone Oak Rd
305,37.057072,-88.665487,Pecan Dr
216,37.067474,-88.809221,Kelly Rd
160,37.018529,-88.682783,Jolee Way
552,37.071370,-88.629823,S 28th St/Washington St
216,37.059108,-88.628043,Magalin Dr
185,37.007414,-88.595778,Lydon Rd
160,37.065685,-88.615443,S 25th St/Alabama St
305,37.079488,-88.665183,High St
390,37.015364,-88.591794,/John L Puryear Dr
334,37.048504,-88.684042,Blandville Rd
246,37.081113,-88.668840,Piedmont Rd
246,37.036381,-88.657195,Park Ln/Susan Ln
305,37.074925,-88.630275,N 27th St/Jefferson St
216,37.097102,-88.624051,N 8th St/Olive St
160,37.045535,-88.651598,Olympia Ave
160,37.048363,-88.685677,Blandville Rd
185,37.032139,-88.687645,Highland Church Rd/Rushing Rd
305,37.103667,-88.690467,I- 24
160,36.987804,-88.516674,Oakland Cir
216,37.024225,-88.656986,Parker Rd
185,37.043965,-88.578196,Hovekamp Rd/Yarbro Ln
362,36.993831,-88.520524,I- 24
160,37.062888,-88.790648,Old Hinkleville Rd/Hinkleville Rd
418,37.014347,-88.529813,Reed Cir/Fisher Blvd
160,37.004635,-88.500285,Brentwood Dr/Old Calvert City Spur Rd
160,37.008827,-88.729558,Cottonwood Ln/Crabapple Cove
185,37.003548,-88.524041,Lakeside Dr/Ridge Ln
160,37.074947,-88.831101,Hobbs Rd
390,37.017924,-88.533964,Lynwood Dr/Old Benton Rd
216,37.096404,-88.682091,Charter Oak Dr
788,37.071587,-88.690670,New Holt Rd
684,37.071216,-88.633687,Keiler St
160,36.950021,-88.671598,Mayfield Rd/Wice Church Rd
160,37.083653,-88.742495,Cairo Rd/Vance Ln
305,37.060781,-88.621547,Cherry Cir/Mississippi St/S 30th St
216,37.075117,-88.645880,Branch St/N 34th St
185,37.019026,-88.506359,Kenmar Rd
246,37.044281,-88.574779,Meacham Ave
305,37.098274,-88.630383,N 8th St/N H C Mathis Dr
246,37.061328,-88.585393,Bridge St/Legion Dr
1304,37.064088,-88.639328,/Alben Barkley Dr
160,36.984493,-88.661000,Sandy Hill Dr/Warrendale Dr
160,37.092720,-88.707466,Commerce Dr
160,37.068096,-88.656154,Forest Ave/42nd St
246,37.037223,-88.670200,Utah St/Charleston Ave
216,37.070333,-88.652900,N Country Club Ln
418,37.065463,-88.598992,Brown St/Irvin Cobb Dr
390,37.032897,-88.682938,Windmill Dr/Rue Marne St
185,37.064132,-88.595721,Brown St/Bough St
334,36.996182,-88.538671,I- 24
216,37.037886,-88.678573,Lakeshore Dr/Longview Dr
185,37.055921,-88.743490,Dana Dr
216,37.079311,-88.596549,S 6th St/Ohio St
276,37.077854,-88.771275,Timberland Dr/Sierra Dr
185,37.039623,-88.629514,Hendron Rd
185,37.055442,-88.743713,Regina Dr/Dana Dr
246,37.061094,-88.640142,Plum St
2035,37.079062,-88.677315,/Coleman Rd
246,37.082353,-88.615186,Monroe St/N 15th St
418,37.082634,-88.605038,S 10th St/Kentucky Ave
185,37.025654,-88.627067,Rosewood Dr
160,37.008533,-88.502149,Kentucky Dam Rd
160,37.076783,-88.605991,Oscar Cross Ave/S 13th St
160,36.972346,-88.672113,Mayfield Rd
160,37.045685,-88.610942,Theobald Ln
276,37.027420,-88.660856,Kilkee Dr
160,37.095547,-88.697708,/Cairo Rd
160,37.004450,-88.499343,Old Calvert City Rd
499,37.032805,-88.668015,Lansing Ct/S Concord Ave
390,37.058227,-88.612133,/S 30th St
185,36.984799,-88.499344,Greyhound Cir/Watson Rd
552,37.090428,-88.634359,N 14th St/Rudy Ave
216,37.076641,-88.645968,Jack Gray Dr/River Oaks Blvd
445,37.059062,-88.635734,Berger Rd/Stonebrook Dr
185,37.065127,-88.741764,Mayfield Metropolis Rd/Hinkleville Rd
160,37.098962,-88.752623,Ogden Landing Rd
160,37.056518,-88.627597,Berger Rd
216,37.060252,-88.643498,Browner Cir
246,37.075229,-88.590832,Husbands St/S 4th St
579,37.088745,-88.602480,N 6th St/Madison St
710,37.035650,-88.666198,College Ave/Lone Oak Rd
736,37.073014,-88.698803,Hinkleville Rd
160,36.999428,-88.529872,Banberry Bend/Post Oak Trl
160,37.034120,-88.591560,Steve Dr/Blankenship Dr
216,37.069026,-88.701390,Olivet Church Rd
305,37.046303,-88.555338,Clarks River Rd
390,37.038824,-88.646160,Lakeview Dr/Forestview Cove
445,37.090134,-88.622106,N 13th St/Hampton Ave
334,37.074239,-88.599705,S 10th St/Norton St
160,37.087759,-88.623450,Crest Dr/Powell & Scott Dr E
943,37.052489,-88.669691,/Pcc Dr
160,37.092433,-88.627942,N 12th St/Louise St
246,37.074498,-88.666435,Friedman Ln
276,37.077263,-88.604789,Oscar Cross Ave/S 12th St
160,36.994504,-88.528973,Geraldine Dr/Six Oaks Dr
185,37.064762,-88.619878,Mississippi St/Seitz St
185,37.083632,-88.592465,Adams St
160,37.062958,-88.790446,Hinkleville Rd
334,37.028561,-88.664403,S Friendship Rd/Tralee Dr
185,37.062923,-88.619171,S 28th St/Virginia St
185,37.086511,-88.838477,Marshall Rd
246,37.083700,-88.649506,N 32nd St/Park Ave/Downs Dr
216,37.012190,-88.592605,Ky-6037
185,37.038932,-88.588218,Shoulders Ln
216,37.039790,-88.568256,Henson St
552,37.085831,-88.609699,Madison St/N 11th St
526,37.060283,-88.639684,Berger Rd/Lone Oak Rd
216,37.074966,-88.591487,Husbands St
246,37.059042,-88.607945,Shelby St/Hawaii St
631,37.060903,-88.639550,Plum St
216,37.083666,-88.596146,Clark St/S 4th St
185,37.074337,-88.740824,US Hwy 60
160,37.013605,-88.537916,Summit Trl
160,37.066205,-88.692282,Hanson Rd/Hansen Rd/Holt Rd
160,37.073233,-88.658877,Phillips Ave
710,37.072121,-88.701825,US Hwy 60/Hinkleville Rd
216,37.057587,-88.588589,Vasseur Ave
276,37.009405,-88.519346,Castleton Pike/Tudor Blvd
160,37.047010,-88.562595,Carolina St/Florida St
185,37.097593,-88.626676,N 8th St
160,37.006243,-88.532425,White Oak Dr
246,37.008053,-88.564748,I- 24/Oaks Rd
658,37.057773,-88.634964,Stonebrook Ct
160,36.991796,-88.513557,Stonecreek Pl/Said Rd
216,37.051194,-88.696645,Holt Rd
334,37.018334,-88.590402,John L Puryear Dr/Ky 2187 X
216,37.066789,-88.800267,Future City Rd/Proposed Hwy 60
216,37.095443,-88.740724,Ogden Landing Rd/Wilmington Rd
160,37.047460,-88.711544,Olivet Church Rd
216,37.057995,-88.588430,Irvin Cobb Dr/Vasseur Ave/Legion Dr
658,37.075408,-88.632398,Joe Clifton Dr/Monroe St
160,36.979825,-88.642222,Greenvale Dr/Lebanon Church Rd
185,37.051439,-88.573579,Clarks River Rd
276,37.085712,-88.616220,/Martin Luther King Jr Dr
160,37.039603,-88.595469,Creekview Cove/Creekview Dr
160,37.097569,-88.682505,Charter Oak Dr
839,37.049312,-88.565243,Clarks River Rd/Irvin Cobb Dr/Wayne Sullivan Dr/Henry Ward Hwy
160,37.024469,-88.846481,Phelps Rd
185,36.994464,-88.485126,I- 24/County Line Rd
334,37.069418,-88.628589,S 28th St/Adams St
185,37.008627,-88.762773,Lovelaceville Rd/Hocker Rd
276,37.045292,-88.699744,Pillar Chase
605,37.030390,-88.670553,Clinton Rd/Lone Oak Rd
216,37.069622,-88.670817,June Ct
160,37.070052,-88.644653,Howard St/N 36th St
334,37.080706,-88.650853,River Oaks Blvd/Roell Ct
216,37.047296,-88.559617,Virginia St/Clarks River Rd
185,37.063997,-88.651341,Cardinal Ln/Hillcrest Ave
216,37.055448,-88.622021,Old Mayfield Rd/Berger Rd
276,37.052602,-88.575783,Frontage Rd/Bridge St
160,36.991492,-88.526292,Downs Rd
216,37.027094,-88.661946,Leeds Dr
160,36.986003,-88.676085,/US Hwy 45/Pine Creek Dr
160,37.078467,-88.710845,Fair Chase Dr/Harris Rd
305,36.994822,-88.488198,I- 24
334,37.059566,-88.651797,Harts Ct/Audubon Dr
160,37.055014,-88.616645,Starke Ave/Blaess St
246,37.091328,-88.617424,Flournoy St/N 11th St
246,37.086502,-88.628284,Kruger St/N 23rd St
362,36.994141,-88.512813,I- 24/Benton Rd
185,37.056902,-88.615766,Blaess St/Markham Ave
185,37.083007,-88.622915,N 19th St/Clay St
160,37.106981,-88.781307,Meldale Rd/Metropolis Lake Rd
160,37.033215,-88.660825,Iowa St
305,37.025805,-88.676637,Jenn Ln
216,37.094229,-88.610237,N 7th St/Finley St
216,37.030170,-88.685723,Fairview Dr/Lovelaceville Rd
185,37.072215,-88.853682,/Hinkleville Rd/Rice Springs Rd
216,37.074849,-88.656745,Phillips Ave
334,37.060950,-88.616858,S 29th St/Alabama St
390,37.023699,-88.676619,Clinton Rd/Imperial Dr
216,37.018848,-88.509337,Molloy Ct/Kenmar Rd
246,37.006076,-88.564562,Oaks Rd
276,37.010946,-88.531854,Benton Rd/Calvert Dr
185,37.074898,-88.671574,Alameda Cres/Alameda Dr/Winslow Way
160,36.972646,-88.612027,Old Mayfield Rd
185,37.075507,-88.670750,Oxford Trce/Alameda Dr
216,37.010882,-88.575995,I- 24
216,37.027472,-88.760114,Blandville Rd
305,37.073257,-88.648308,N 36th St
362,37.072868,-88.636425,N 30th St
1537,37.084202,-88.604280,Broadway St/S 9th St/N 9th St
216,37.067103,-88.619148,S 25th St/Mississippi St
246,37.092269,-88.626997,N 12th St/Palm St
216,36.993903,-88.525666,Cold Springs Rd
472,37.078038,-88.619550,Broadway St/N 19th St
185,37.063862,-88.588231,Kinkead St
276,37.048973,-88.569679,/Reed St/Bullard St
605,37.048720,-88.565747,Clarks River Rd/John L Puryear Dr/Henry Ward Hwy
472,37.053087,-88.636624,Farwood Dr/Cloverdale Rd
276,37.012614,-88.586002,I- 24
160,37.005580,-88.671505,Barrington Cir
160,36.971015,-88.678172,Lindview Dr
185,37.075556,-88.627186,N 25th St
160,37.005328,-88.671263,Lone Oak Rd
305,37.082676,-88.601789,S 8th St/Washington St
160,36.987700,-88.746273,Florence Station Rd
185,37.074513,-88.613306,Adams St/Short 16th St
160,37.009493,-88.638694,Misty Ln/Clarkline Rd
418,37.087955,-88.630615,Mildred St/Langstaff Ave
160,37.009624,-88.508179,Calvert Dr
216,37.038876,-88.540244,Clarks River Rd
362,37.071922,-88.637676,Jefferson St
185,37.067021,-88.651291,S Central Ave/Valley Rd
160,37.052221,-88.638508,Dundale Rd/Glenwood Dr
276,37.027992,-88.662432,Sharry Lynn Dr/Tralee Dr
276,37.079197,-88.651857,Roell Cir
246,37.064081,-88.747839,/Harting Ridge Rd
216,37.071737,-88.723438,US Hwy 60
305,37.063737,-88.622633,S 28th St/Boone Ln
185,37.045093,-88.651417,Petter Ave/Olympia Ave
160,37.038002,-88.683907,Thorndale Rd
334,37.045607,-88.646087,I- 24/Elmdale Rd
552,37.067442,-88.643581,N Sycamore Dr/Buckner Ln/Buckner Ave
362,37.070051,-88.698659,Village Square Dr
334,37.075023,-88.620775,Washington St/S 21st St
160,37.064301,-88.587902,Jarrett St/Bridge St
334,37.068824,-88.698242,Sunnybrook Dr/W Park Dr
160,37.016083,-88.680051,Contest Rd
246,37.075202,-88.667670,Friedman Ln/Londonderry Ln
246,37.077051,-88.625031,Jefferson St/N 23rd St
216,37.018612,-88.590415,John L Puryear Dr
185,37.031340,-88.590979,Lane Rd/Champ Dr
334,37.080951,-88.651132,River Oaks Blvd/Minnich Ave
185,37.054758,-88.627529,Barbara Dr
246,37.092813,-88.632036,N H C Mathis Dr/H C Mathis Dr/Cairo Rd
246,37.058566,-88.580174,Irvin Cobb Dr/Maggie St
891,37.072801,-88.699504,Olivet Church Rd/Hinkleville Rd
160,37.009270,-88.483893,Culp Rd/Kerth Rd
185,37.083915,-88.719982,N Brian Ave
160,37.060642,-88.749269,Cassie Cir
276,37.050199,-88.572712,Meacham Ave/Old Benton Rd
605,37.085713,-88.594258,Washington St/S 2nd St
185,37.087266,-88.838257,Marshall Rd
579,37.069824,-88.623563,S 25th St/Jackson St
276,37.058412,-88.613517,Fairmont St/S 30th St
362,37.060520,-88.612331,S 28th St/Fairmont St
160,37.056883,-88.676726,Guyline Dr
160,37.149991,-88.888676,Ingleside Rd/Matlock Rd
334,37.078238,-88.803518,Wedel Ln
418,37.077338,-88.643932,N 32nd St/River Oaks Blvd
216,36.984437,-88.676973,Pine Creek Dr
418,37.035079,-88.670005,Oregon St
160,37.026729,-88.682259,Sherry Cir
579,37.064964,-88.668624,Buckner Ave
160,36.979749,-88.651304,/Lebanon Church Rd
216,37.074018,-88.743604,US Hwy 60/Wesley Cir
185,37.080335,-88.652061,Minnich Ave
185,37.095296,-88.782562,Hall Rd
160,37.047253,-88.727664,McCracken Blvd
160,37.005929,-88.598811,Husband Rd/Clark Line Rd
185,37.010533,-88.772556,Cross Cut Ln
246,37.018051,-88.526803,Kentucky Dam Rd
246,37.074715,-88.601578,Jones St/S 11th St
390,37.024714,-88.610200,I- 24/Pool Rd
362,37.089276,-88.618908,N 13th St/Flournoy St
185,37.030872,-88.681984,Patricia Cir/Lovelaceville Rd
160,36.982671,-88.737272,Florence Station Rd/Marshall Rd
160,37.083831,-88.827214,Hobbs Rd
276,37.071146,-88.614975,B St/Wheeler Ave
216,37.051930,-88.574464,Yarbro Ln/Abell Dr
216,37.056345,-88.683321,/N Friendship Rd
185,37.044824,-88.649949,Topeka Ave
160,37.042631,-88.563800,Virginia St/Old Benton Rd
246,37.039815,-88.541801,/Clarks River Rd
445,37.090778,-88.603761,Martin Luther King Jr Dr/N 6th St
276,37.022031,-88.682374,Clinton Rd
160,37.008229,-88.634574,Clarkline Rd
788,37.096533,-88.691943,Cairo Rd/Olivet Church Rd
276,37.086069,-88.633444,/H C Mathis Dr
305,37.043325,-88.564609,Arizona St/Old Benton Rd
276,37.062879,-88.597437,Green St
185,37.045689,-88.697140,Burchell Cove
160,37.006622,-88.514745,Carson Way/Meadowaire Dr
185,37.088075,-88.632034,Mildred St/N 26th St/Adkins Ave
276,37.067507,-88.690844,Holt Rd/Willow Spring Cove
185,36.982379,-88.640002,Majestic Oak Dr/Majestic Ct
185,37.042977,-88.628357,at Massa Dr
160,37.012852,-88.507991,Stiles Rd/Babbland Dr
160,37.069875,-88.644479,Friedman Ave/N 36th St
710,37.070439,-88.622140,S 24th St/Jackson St
334,37.078925,-88.617358,Broadway St/Fountain Ave
334,37.088540,-88.609241,10th St/Martin Luther King Jr Dr
160,37.088862,-88.834526,Old Woodville Rd/Woodville Rd
362,37.061798,-88.672738,Ogilvie Ave
185,37.031693,-88.575620,Villa Maria Ct
418,37.025282,-88.610295,Pool Rd/Rosewood Dr
160,37.076777,-88.596472,S 7th St/Jones St
390,37.117044,-88.692972,I- 24
160,37.038116,-88.641313,Lakeview Dr/Bleich Rd
2168,37.087607,-88.595868,Broadway St/S 2nd St
160,37.006574,-88.833620,State Hwy 286/Bohannon Rd
160,37.032358,-88.635540,Chapple Rd/Hendron Rd
185,37.024300,-88.544342,Fantasy Ln/Old Benton Rd
160,37.038593,-88.579046,Jennys Ln
305,37.079132,-88.629437,N 25th St/Harrison St
246,37.076772,-88.665779,Marlborough Way/Sherwood Rd
216,37.070372,-88.783585,Hinkleville Rd
160,37.051885,-88.645968,Medical Center Dr
276,37.081435,-88.619147,Fountain Ave
216,37.085348,-88.617111,Martin Luther King Jr Dr/N 15th St
658,37.086199,-88.593062,/S Water St
185,37.092698,-88.622307,Ellis St/N 11th St
276,37.085323,-88.678749,/Coleman Rd
390,37.072468,-88.620303,Adams St/S 22nd St
185,37.063530,-88.593101,Broad St
246,37.052038,-88.696543,Holt Rd
1046,37.053367,-88.659053,/Pcc St
160,37.055152,-88.667682,Colonial Dr
246,37.055036,-88.618177,Schneidman Rd
160,37.011389,-88.593248,Ky-6037/John L Puryear Dr/Frontage Road No 8a X
216,37.076529,-88.697816,Shelldrake Ln/Olivet Church Rd
216,37.077906,-88.635579,Clay St/California Ct
160,37.054955,-88.701419,Barberry Dr/Deerhaven Ln
160,37.027590,-88.676870,Chesley Way
334,37.067554,-88.629194,S 29th St/Jackson St
418,37.039703,-88.667526,/Cumberland Ave
160,37.048510,-88.627741,Dogwood Ln/Jeano Cir
160,37.141920,-88.855259,New Liberty Church Rd
362,37.024074,-88.610312,Pool Rd
390,37.082878,-88.610758,Jefferson St/High St
216,36.989914,-88.506837,/Benton Rd
246,37.079637,-88.649404,River Oaks Blvd/Spring St
334,37.045873,-88.574801,Meacham Ln/Meachan Ln
1304,37.073552,-88.683542,James Sanders Blvd
185,37.089046,-88.728188,/Cairo Rd
216,37.071581,-88.725521,US Hwy 60
216,37.021712,-88.677429,Valiant Dr/Plymouth Rd
185,37.072889,-88.615595,C St/Guthrie Ave
305,37.079921,-88.646933,/N 32nd St
160,37.073101,-88.614084,S 17th St/B St
216,37.047671,-88.560650,Clarks River Rd
362,37.010536,-88.574278,I- 24
160,37.119999,-88.789339,Ogden Landing Rd
552,37.031309,-88.668973,Noah Cove
160,37.065499,-88.647735,Magnolia Dr/Hillcrest Ave
216,37.068591,-88.611124,Irvin Cobb Dr
390,37.080390,-88.642436,/Cruse Ave
246,37.068655,-88.636955,Kentucky Ave/Maple Ave
160,37.064859,-88.585844,Clements St/Powell St
445,37.049636,-88.638919,Elmdale Rd/Glenwood Dr
160,37.081082,-88.755363,Lowell Ln
160,37.066529,-88.584514,Farley Pl/Clements St
160,37.050257,-88.661795,Margaret Ct
276,37.097832,-88.686973,Cairo Rd
185,37.096042,-88.694221,Cairo Rd
160,37.023559,-88.682427,Pinebrook Dr/Old Farm Rd
160,37.077781,-88.603507,Oscar Cross Ave/S 11th St
334,36.997319,-88.542343,Sheehan Bridge Rd
160,37.038600,-88.653921,Lakeview Dr/T Underwood Dr
216,36.993487,-88.525628,I- 24
246,37.090194,-88.595795,Monroe St/
418,37.071482,-88.626341,Clark St/S 26th St
160,37.043085,-88.659479,Kenton St/Carson Road Y
1200,37.072055,-88.624963,Clark St/S 25th St
160,37.061564,-88.588303,Barnes St
246,37.069237,-88.788044,Hinkleville Rd
216,37.040638,-88.674030,College Ave
246,37.074852,-88.590600,Husbands St/S 4th St
160,37.001503,-88.585955,Lydon Rd
185,37.002785,-88.730084,/Mayfield Metropolis Rd
276,37.046101,-88.700069,Troon Rd
160,37.093466,-88.626639,Palm St/N 11th St
305,37.052248,-88.575451,Yarbro Ln
160,37.082308,-88.744172,Cairo Rd
160,37.099134,-88.633998,N 8th St
418,37.061422,-88.639116,Goodman Dr/Lone Oak Rd
185,37.030813,-88.535217,Epperson Rd
185,37.030928,-88.680069,Charolette Ann Dr/Lovelaceville Rd
185,36.964822,-88.608512,Hardmoney Rd/Old Mayfield Rd/Lovelaceville Florence Station E
216,37.064721,-88.647285,Magnolia Dr/Court Ave
160,37.029731,-88.676379,Windsor Ct/Cambridge Dr
185,37.089695,-88.691637,Commerce Dr/Olivet Church Rd
334,37.090205,-88.685636,I- 24
418,37.037972,-88.662299,Augusta Ave/Lone Oak Rd
362,37.056557,-88.632815,Oak St
334,37.063718,-88.688131,Keeneland Ct/Riegel Ln
276,37.083313,-88.627118,Park Ave/N 22nd St
160,37.000215,-88.525958,Benton Rd
160,37.061693,-88.576229,Locust Ave/S 4th St/Wayne Sullivan Dr
305,37.037580,-88.578319,Estes Ln/Evelyn Dr
160,37.001772,-88.671351,Yopp Ln/Lone Oak Rd
246,37.030248,-88.685431,Lutes Rd/Lovelaceville Rd
216,37.061744,-88.748739,Iva Ct
160,37.007847,-88.780795,Lovelaceville Rd
185,37.089281,-88.598065,Monroe St/N 3rd St
160,37.102254,-88.668137,Noble Rd/Ky-1420 Y
185,37.039490,-88.560116,Old Benton Rd
160,37.006680,-88.507309,Royal Ave
185,37.037130,-88.533893,Rivercrest Ln
334,37.067691,-88.625741,S 27th St/Ohio St
160,37.019217,-88.672140,United Methodist Church Rd
418,37.044385,-88.668153,Lantern Way
185,37.071681,-88.720422,Maxon Rd/US Hwy 60
160,37.024693,-88.583092,John L Puryear Dr
185,37.072959,-88.733863,US Hwy 60
994,37.036444,-88.664959,N Friendship Rd/Cumberland Ave
160,37.087670,-88.623569,Crest Dr/Powell & Scott Dr S
216,37.063119,-88.603292,Little Ave/Paxton St
160,36.992723,-88.525608,Downs Rd
305,37.043714,-88.669225,Nebraska St/Kimberly Dr
185,37.066177,-88.687791,Legends Dr
305,37.075737,-88.602216,Tennessee St/S 11th St
160,36.994361,-88.675599,US Hwy 45/Krebs Station Rd
1824,37.078784,-88.679819,/Hinkleville Rd
552,37.086701,-88.684373,I- 24
246,37.042850,-88.549681,Indian Oaks Trailer Park
160,37.065078,-88.588605,Bridge St
334,37.042601,-88.570276,John L Puryear Dr
216,36.969214,-88.681153,Lindcrest Dr/Contest Rd
160,37.063462,-88.668804,Valley View Dr/Bruce Ave
246,37.070779,-88.641616,Jefferson St/N 34th Street X
276,37.020371,-88.664335,Timothy Dr
160,37.070537,-88.587207,Broad St/S 4th St
276,37.013849,-88.588532,Ky-6038
216,37.047720,-88.658132,Martin Cir/Natchez Ln
160,37.077539,-88.701361,Shelldrake Ln/Sandpiper Cir
736,37.072474,-88.639616,Monroe St
246,37.065274,-88.598536,/Brown St
185,37.052931,-88.606129,Custis St/Bloom Ave
216,36.996898,-88.542976,Sheehan Bridge Rd
160,37.076952,-88.666890,Brookline Dr
334,37.087448,-88.692682,Olivet Church Rd/Nace Ln
305,37.138876,-88.685247,I- 24
160,37.096642,-88.626631,Oak St
334,37.064274,-88.675239,Oakcrest Dr/Buckner Ave
185,37.032729,-88.689531,Rhea Lee Dr/Rushing Rd
362,37.085699,-88.600566,S 6th St/Broadway St/N 6th St
160,37.042810,-88.611334,Theobald Ln
185,37.093980,-88.689887,Olivet Church Rd
185,37.069053,-88.630887,S 29th St
276,37.088661,-88.634829,Ruby Ave
362,37.081909,-88.639726,Ross Ave/Mc Guire Ave
246,37.038341,-88.722271,McCracken Blvd/Blandville Rd
185,36.998438,-88.522084,Nickel Heights Rd/Benton Rd
160,37.052659,-88.697349,Stinespring Dr/Pear Tree Ln
813,37.043218,-88.658207,Manchester St/Carson Rd
185,37.046359,-88.658574,Iroquois Dr/Natchez Ln
216,37.021693,-88.692562,Palisades Cir
246,37.061817,-88.619933,S 29th St/Virginia St
185,37.064703,-88.727403,Hinkleville Rd
216,37.080126,-88.809566,Kelley Rd
160,37.070859,-88.670729,June Ct/Whitney Dr
160,37.066819,-88.696940,W Park Dr
305,36.989936,-88.505449,Benton Rd
185,37.089770,-88.606220,N 8th St/Martin Luther King Jr Dr
185,37.053287,-88.672297,Kiana Ct
160,37.077257,-88.592099,Norton St/S 4th St
160,37.005869,-88.530681,Benton Rd
334,37.058802,-88.761564,Ronnie Ave/Ricky Blvd
334,37.090158,-88.685355,I- 24
160,37.091535,-88.622818,N 12th St/Salem St
185,37.073129,-88.733754,US Hwy 60
216,37.061008,-88.689624,/N Friendship Rd
160,37.103972,-88.769819,Ogden Landing Rd
160,37.033993,-88.723635,April Dr/Massac Church Rd
334,37.069053,-88.612535,S 21st St/Irvin Cobb Dr/Old Mayfield Rd
185,37.065568,-88.656400,Idlewild Drive Bay/Idlewild Dr
216,37.095340,-88.678107,Industrial Dr
246,37.007279,-88.515817,Drawbridge Trce/Carson Way
185,37.052405,-88.632970,Walnut Dr/Carmel Ln
499,37.022053,-88.695255,Fairview Dr
276,37.087858,-88.610935,Martin Luther King Jr Dr/N 11th St
160,37.073521,-88.651949,Westwood Blvd/Pines Rd/Bellevue Dr
160,37.022378,-88.531110,/Ic Ave
246,37.042405,-88.672430,Cumberland Ave
276,37.015945,-88.799702,Ky-286 Y/Blandville Rd
160,37.053456,-88.672138,Kiana Ct
246,37.047524,-88.560590,Clarks River Rd/Country Aire X
579,37.077771,-88.674658,Technology Dr/Technology Cir
160,37.093777,-88.631741,N H C Mathis Dr/Maple Ave
160,37.046073,-88.591776,Hummingbird Ln/W Hovekamp Rd
185,37.064448,-88.728389,Leonard Futrell Rd/Hinkleville Rd
185,37.044187,-88.651844,Olympia Ave/Ridgeview St
216,37.008602,-88.697650,Shallow Creek Cir/Clinton Rd
160,37.023875,-88.530287,Benton Rd
246,37.074067,-88.754213,Cairo Rd
160,37.047105,-88.645863,Elmdale Rd
276,37.083644,-88.645783,Park Ave
1123,37.072665,-88.621785,Otis Dinning Dr/Polk St
160,37.068510,-88.603564,Irvin Cobb Dr
160,37.091507,-88.622657,N 12th St/Ellis St
362,37.065048,-88.674993,Buckner Ave
185,37.063946,-88.644979,Beyer Ln/Hilldale Rd
246,37.077816,-88.600257,Ohio St/S 9th St
472,37.024891,-88.610465,I- 24
216,37.007435,-88.675614,US Hwy 45
185,37.034080,-88.634699,Forest Ridge Dr/Hendron Rd
216,37.071721,-88.644323,W Jefferson St/Gregory Ave
185,37.047327,-88.617019,Starr Ln
334,37.082986,-88.619927,Harrison St/Fountain Ave
160,37.071670,-88.618659,Jackson St/S 21st St
185,37.025516,-88.581071,Eich Rd
216,37.106894,-88.779757,Ogden Landing Rd/Goldsby Cir
276,37.059533,-88.621870,Cherry Cir/Beiderman St/Mississippi St
160,36.996195,-88.728054,/New Hope Church Rd
305,37.044035,-88.565441,Florida St/Old Benton Rd
579,37.088246,-88.616283,Burnett St/N 13th St
276,37.070581,-88.597398,S 10th St/Leake Ave
216,37.047369,-88.660016,Shawnee Ln/Navaho Dr
216,37.090272,-88.598698,N 3rd St/Madison St/Park Ave
160,36.994390,-88.669870,Krebs Station Rd
305,37.082046,-88.634189,H C Mathis Dr/N 27th St
216,37.091059,-88.627845,N 13th St
276,37.061456,-88.614857,S 28th St/Old Mayfield Rd
185,37.005539,-88.619350,Old Mayfield Rd
160,37.040891,-88.574282,Locke Blvd/Key Dr
216,37.040156,-88.680947,Lions Way/Hillington Dr
160,37.033495,-88.574380,Belmont Ct
246,37.066939,-88.809315,Kelley Rd/Kelly Rd
160,37.004304,-88.509709,Eagle Nest Dr/Tyree Rd
445,37.053021,-88.670027,Pcc Dr/Alben Barkley Dr
185,37.029292,-88.695349,Oriole Ln/Chickadee Dr
185,37.018423,-88.592095,Old Husbands Rd/Hickory Dr
185,37.078028,-88.701605,Royal Tern Ct
216,37.100069,-88.759382,Russell Rd/Cunningham Rd/Ogden Landing Rd
160,37.067743,-88.748059,Red Pine Cir
246,37.026685,-88.679167,Cleary Dr
362,37.081067,-88.608918,S 12th St/Kentucky Ave
362,37.061056,-88.637950,Goodman Dr/Hayden Ave
216,37.075106,-88.590029,Husbands St
185,37.001811,-88.528249,Benton Rd/Highland Cir
552,37.064532,-88.668915,Bruce Ave
246,37.079076,-88.600303,Oscar Cross Ave/
216,37.040181,-88.571088,John L Puryear Dr/Key Dr
160,37.052694,-88.587221,Sunset Dr
185,37.009071,-88.675614,US Hwy 45
160,37.030332,-88.781631,Wilson Rd
418,37.038993,-88.668696,/College Ave
334,37.056865,-88.657096,/Alben Barkley Dr
246,37.071222,-88.673583,I- 24
472,37.060525,-88.620395,Virginia St/S 30th St
185,36.984559,-88.715597,Lovelaceville Florence Station W/Clinton Rd
160,37.065148,-88.656303,Idlewild Drive Bay/Idlewild Dr
160,36.991433,-88.565940,Oaks Rd
579,37.031022,-88.670400,Brett Chase Rd/Lone Oak Rd/Cave Thomas Dr
160,37.012115,-88.489606,Nina Dr
334,37.055964,-88.633122,Oak St
216,37.030175,-88.533853,Reidland Rd
185,37.117196,-88.776558,Metropolis Lake Rd
185,37.067230,-88.588975,S 6th St/Broad St
185,37.045884,-88.590130,Lark Ln/W Hovekamp Rd
305,37.085333,-88.697746,Stanley Rd
185,37.052982,-88.606123,Bloom Ave
160,37.094410,-88.703444,Cairo Rd
160,37.077772,-88.594020,Jones St/S 5th St
445,36.990044,-88.505232,Benton Rd
710,37.048664,-88.565552,Clarks River Rd/John L Puryear Dr/Henry Ward Hwy
865,37.076216,-88.624051,Broadway St/Otis Dinning Dr
472,37.076554,-88.624709,N 23rd St
658,37.076352,-88.642392,Trimble St/Cruse Ave
185,37.028610,-88.696666,Chickadee Dr
185,37.043285,-88.575139,Hovekamp Rd/Meacham Ave
216,37.063769,-88.615665,Alabama St/Seitz St
185,37.043410,-88.547311,Clarks River Rd
276,37.051418,-88.656527,Natchez Ln
710,37.076064,-88.624433,Broadway St/N 23rd St
160,36.991633,-88.526226,/Downs Rd
216,37.055490,-88.696248,New Holt Rd/Holt Rd
246,37.076255,-88.604134,S 12th St/Ohio St
160,37.018916,-88.508162,Stevelynn Dr/Kenmar Rd
160,37.089753,-88.622940,Powell & Scott Dr N/Powell & Scott Drive East Y
160,37.041280,-88.634805,Summit Dr/Circle Dr
246,37.002892,-88.553734,I- 24
185,37.063390,-88.587139,Clements St/Flora Ave/Bridge St
499,37.051671,-88.567984,Irvin Cobb Dr
216,37.064678,-88.615919,Alabama St/Cherry St
1719,37.071552,-88.622839,S 24th St
276,37.079037,-88.672906,Technology Dr/Friedman Ln
1123,37.033322,-88.668447,Lansing Ct/Bement St
736,37.070777,-88.700518,Olivet Church Rd
160,37.006156,-88.598552,Husband Rd
216,37.061208,-88.653250,Audubon Dr/Court Ave
160,37.004696,-88.500457,Old Calvert City Spur Rd
216,37.053372,-88.606081,Bloom Ave
276,37.065427,-88.653957,Woodland Dr/Brookfield Dr
160,37.076895,-88.663970,Marlborough Way/High St
185,37.036922,-88.722296,Massac Church Rd/Annie Ln
362,37.024038,-88.610697,Schneidman Rd/Rosewood Dr
246,37.065286,-88.691716,Quail Run Ct/Quail Run Dr
185,37.077263,-88.595262,S 6th St/Jones St
246,37.060471,-88.636028,Goodman Dr/Grundy St
631,37.071996,-88.626664,/S 26th St
362,37.075650,-88.625457,S 24th St/Broadway St
160,37.067219,-88.602756,Blow Ave/State St/Little Ave
160,37.082157,-88.808594,Kelley Rd
499,37.083797,-88.655753,/Stuart Nelson Rd/Park Ave
216,37.061268,-88.665630,Pecan Dr/Bruce Ave
334,37.077926,-88.647574,Rucker Ave/River Oaks Blvd
185,37.072867,-88.615521,C St/Guthrie Ave
276,37.058155,-88.652838,Alben Barkley Dr
160,37.042988,-88.670035,Nevada St
390,37.057202,-88.655943,/Alben Barkley Dr
216,37.008471,-88.693646,Shallow Creek Cir/Shallow Creek Ct
472,37.053880,-88.667119,Pecan Dr/Alben Barkley Dr
968,37.076552,-88.638917,N 30th St/Clay St
246,37.072548,-88.668880,Alameda Cres/Winslow Way/Alameda Close
160,37.018861,-88.660776,Bell Ln/Timothy Dr
1667,37.072171,-88.624578,Clark St
185,37.004291,-88.492829,Culp Rd/Rosebower Church Rd/Old Calvert City Rd
160,37.033565,-88.534076,/Kentucky Dam Rd
185,37.098632,-88.632156,N 8th St/Paducah-Brookport Rd
185,37.093641,-88.635709,Cairo Rd
160,37.089621,-88.622825,Powell & Scott Dr E/Powell & Scott Drive East Y
185,37.060867,-88.595048,Broad St/Irvin Cobb Dr
445,37.057878,-88.632110,Berger Rd/Oak St
276,37.057831,-88.665466,Pecan Dr/Lindberg Ct
499,37.067604,-88.637010,Clark St/Kentucky Ave
160,37.095522,-88.697884,Cairo Rd
216,37.043374,-88.646384,Elmdale Rd/Ridgewood St
185,37.018957,-88.591951,Old Husbands Rd
216,37.079373,-88.653379,Roell Cir/Minnich Ave
185,37.047387,-88.690833,/Blandville Rd
499,37.048534,-88.565870,John L Puryear Dr
684,37.072405,-88.628726,/S 27th St
246,37.033850,-88.684203,Phipps St
160,37.044411,-88.707473,Olivet Church Rd
305,37.065265,-88.665173,Exall Ln/Buckner Ave
185,37.077067,-88.656476,Minnich Ave
160,37.078266,-88.702546,Quail Covey Ct
276,37.073984,-88.754585,Cairo Rd
710,37.050557,-88.650199,I- 24
334,37.078870,-88.617496,Broadway St/Fountain Ave
216,37.013157,-88.615510,Wkyx Wkyq Rd
216,37.126677,-88.750726,Noble Rd//Chiles Rd
160,37.045684,-88.649470,Topeka Ave/Vermont St
499,37.077984,-88.619682,S 19th St/Broadway St
579,37.072691,-88.597034,Husbands St/S 9th St
160,37.046691,-88.630758,Cemetery Dr
185,37.057682,-88.668567,Colonial Dr/Lindberg Ct
160,37.067548,-88.582178,S 3rd St/S 4th St/Myers St/Wayne Sullivan Dr
185,37.026185,-88.581393,/John L Puryear Dr
246,37.064340,-88.653234,Brookfield Dr/Buckner Ln/Buckner Ave
276,37.075222,-88.600342,S 10th St/Jones St
445,37.055966,-88.647094,Davis Ave/Birch St
305,37.073732,-88.594565,S 7th St/Husbands St
185,37.043744,-88.646332,Elmdale Rd
160,37.037063,-88.646688,Brookside Cove
216,37.086573,-88.689447,Nace Ln
276,37.031557,-88.620842,I- 24
334,37.083490,-88.606048,10th St/Broadway St
246,37.073722,-88.654200,Ferncliff Ct/Hillgate Rd
362,37.093375,-88.619378,10th St/Northveiw St/Northview St
334,37.058310,-88.652421,Kennedy Rd/Alben Barkley Dr
334,37.060168,-88.640523,Chestnut St
160,37.083337,-88.694635,Olivet Church Rd
185,37.073201,-88.602207,S 12th St/Norton St
160,37.034247,-88.592172,Blankenship Dr
216,37.066093,-88.626503,Tennessee St/S 28th St
216,36.986573,-88.499654,Sullivan Ave/Benton Rd
160,36.994164,-88.814512,McKendree Church Rd/Blandville Rd
552,37.048807,-88.566056,Clarks River Rd/Clarks River Ferry Rd
160,37.088942,-88.611451,Park Ave/N 11th St
526,37.055469,-88.647925,Davis Ave/Maxfield Dr
994,37.032924,-88.670047,Ky-1322/Lovelaceville Rd
160,37.063170,-88.579151,Wayne Sullivan Dr
246,37.003326,-88.529606,Stonegate Dr/Benton Rd/Lakeside Dr
246,37.065335,-88.628515,Tennessee St
390,37.015451,-88.591759,John L Puryear Dr
160,37.039230,-88.683923,Thorndale Cove/Thorndale Rd
276,37.054805,-88.643098,Medical Center Dr
472,37.074548,-88.637651,Madison St/N 30th St
185,37.072166,-88.601569,S 12th St/Caldwell St
216,37.068331,-88.611172,Coxey St
185,37.077530,-88.770150,Steele Rd/Timberland Dr
216,37.040153,-88.655691,Barcelona Ct
160,37.064729,-88.614637,Cumberland Ave/Cherry St
216,37.046650,-88.694804,Blandville Rd
418,37.037902,-88.646175,Forestview Cove/Forest View Cove
185,37.076263,-88.594635,S 6th St/Norton St
276,37.083439,-88.661671,Allen Ln
160,36.986410,-88.671746,S Friendship Rd/Mayfield Rd
216,37.093110,-88.703925,Orchard View Dr/Autumnwood Dr
246,37.039324,-88.566223,Henson St/Milliken Rd
216,37.026026,-88.610400,/Poole Rd
499,37.080472,-88.600407,S 8th St/Adams St
185,37.081276,-88.641592,Wayne Ln
917,37.041393,-88.659467,Lone Oak Rd
160,37.047258,-88.691402,/Blandville Rd
216,37.072970,-88.797653,Esther Ln/Future City Rd
185,37.088676,-88.607090,N 9th St
185,37.080609,-88.592641,S 3rd St/US Hwy 60 Bus
185,37.044007,-88.701547,Tuscan Rd
526,37.077430,-88.633665,Joe Clifton Dr/Harrison St
160,37.077122,-88.628156,Monroe St/N 25th St
216,36.942687,-88.673823,US Hwy 45
445,37.079927,-88.668613,Piedmont Rd/Springdale Cir
185,37.067016,-88.805837,Proposed Hwy 60
185,37.012600,-88.538078,Riverside Dr
160,37.047896,-88.711342,Olivet Church Rd
472,37.091928,-88.608354,N 8th St/Harris St
185,37.055601,-88.680311,N Friendship Rd/Buckner Lane Y
305,37.052333,-88.575432,Bridge St/Yarbro Ln
472,37.016820,-88.597889,I- 24
216,37.070053,-88.615479,S 21st St/B St
160,37.093299,-88.855573,Bethel Rd
526,37.070208,-88.621092,US Hwy 60
160,37.066629,-88.834897,New Hwy/Hinkleville Rd/Hobbs Rd
276,37.044491,-88.570297,Herman Ct/Herman Ave
185,37.045332,-88.704863,Muirfield Dr
418,37.075257,-88.678619,I- 24
334,37.053522,-88.581001,Dixie Ave/Husband Rd
216,37.040148,-88.585436,Langley Rd/Husband Rd
276,37.044964,-88.709282,Olivet Church Rd
1459,37.033527,-88.669182,S Concord Ave/Concord Ave/Lone Oak Rd
185,37.038453,-88.585845,Husband Rd/Shoulders Ln
185,37.111696,-88.693170,I- 24
246,37.064186,-88.689219,Lynnwood Dr/Riegel Ln
160,37.088277,-88.606841,Harrison St/N 9th St
390,37.046194,-88.666060,Old N Friendship Rd/Rock Creek Cir
276,37.062427,-88.746838,Erin Ln
418,36.946155,-88.675407,US Hwy 45
552,37.070435,-88.638031,Broadway St/Labelle St/Lone Oak Rd
334,37.040297,-88.664802,N Friendship Rd
276,37.065908,-88.662136,Pines Rd/Buckner Ave
160,37.042521,-88.660006,Rieke Rd/Barkley St
185,37.091481,-88.601264,N 4th St/Martin Luther King Jr Dr/Excutive Blvd
276,37.088296,-88.633388,Mildred St/H C Mathis Dr
305,37.075377,-88.641796,N 32nd St/Clay St
276,37.076635,-88.770566,Steele Rd/Danube Dr
334,37.091599,-88.631128,Atkins St/N 13th St/Adkins Ave
160,37.071196,-88.588301,S 4th St/Elizabeth St
362,37.091762,-88.624099,N 12th St/Fern St
216,37.039501,-88.569433,Oaks Rd/Key Dr
185,37.098806,-88.632924,N 8th St
390,37.074448,-88.629970,/N 27th St
472,37.068827,-88.622933,S 25th St/Ohio St
185,37.106526,-88.780816,Goldsby Cir
185,37.025963,-88.613976,Old Schneidman S
185,37.054749,-88.631970,Donna Ln/Tulipwood Dr
160,37.004296,-88.513798,Derby Cir
216,37.086422,-88.614477,Martin Luther King Jr Dr/N 13th St
334,37.088257,-88.613139,N 12th St/Park Ave
390,37.064946,-88.665621,Stanley Dr/Buckner Ave
185,37.007575,-88.484165,Kentucky Dam Rd/Kerth Rd
362,37.040240,-88.636381,I- 24
185,37.071504,-88.616235,C St/Wheeler Ave
185,37.084514,-88.636642,/Noble Park St
499,37.059006,-88.640319,Walnut St/Lone Oak Rd
160,37.064858,-88.604451,Bloom Ave/Chester Hack Dr
445,37.025453,-88.610321,Poole Rd/Rosewood Dr
160,37.096229,-88.624305,Olive St/Oak St
185,37.071795,-88.667990,Whitney Dr/Winslow Way
246,37.009979,-88.512300,Kentucky Dam Rd
305,37.079635,-88.615600,Broadway St/S 16th St
334,37.050641,-88.638703,Glenwood Ct/Glenwood Dr
160,37.024278,-88.531698,Kentucky Dam Rd/Reidland Rd
1097,37.063020,-88.638583,Parkview Dr/Lone Oak Rd
246,37.051396,-88.573211,Clarks River Rd/Yarbro Ln
246,37.090780,-88.600628,N 4th St/Harrison St
160,37.044159,-88.560021,Alabama
246,37.080307,-88.650398,River Oaks Blvd/Roell Cir
216,37.027683,-88.661372,Tralee Dr
185,37.037613,-88.535043,River Ln
216,37.091139,-88.722217,Cairo Rd/Gayle Ln
216,37.040702,-88.655848,Glenn St
605,37.038478,-88.661829,Lone Oak Rd
362,37.093697,-88.608908,Boyd St/N 7th St
160,36.968900,-88.672198,Poat Ln/Mayfield Rd
276,37.087731,-88.604972,N 8th St/Madison St
160,37.036219,-88.538496,Pugh Rd
276,37.081648,-88.593932,Jackson St/US Hwy 60 Bus
160,37.000810,-88.599132,Gilbert Ln/Husband Rd
216,37.069917,-88.658226,Windsor Woods
216,37.009003,-88.522316,Drawbridge Trce/Carson Way
216,37.024322,-88.688293,Old Farm Rd/Gatewood Dr
160,37.062951,-88.748481,Harting Ridge Rd/Erin Ln
216,37.051467,-88.696613,Holt Rd
276,37.028224,-88.663223,Limerick Dr/Tralee Dr
276,37.078827,-88.597750,S 7th St/Ohio St
160,37.031499,-88.675179,Frankfort Ave/Lovelaceville Rd
276,37.039035,-88.658941,Albany St/Atlanta Ave
276,37.082671,-88.722187,Joretta Ave/Harris Rd
418,37.042220,-88.664704,Canon Dr/N Friendship Rd
579,37.074743,-88.595224,S 7th St/Caldwell St
579,37.050075,-88.652677,Lone Oak Rd
160,37.029246,-88.679591,Burlington Cove
445,37.010486,-88.574031,I- 24
1407,37.074701,-88.623106,/Otis Dinning Dr
160,37.072392,-88.666312,Saint Charles Ct
160,37.059471,-88.667169,Berry Ct/Hill Ter
813,37.036547,-88.664269,Austin St/Lone Oak Rd
276,37.029856,-88.667119,Noah Cove
185,37.019748,-88.670887,United Methodist Church Rd/Lone Oak Rd
160,37.026805,-88.629554,Old Mayfield Rd
160,37.062426,-88.606046,Alexander Ave
276,37.064055,-88.671079,Valley View Dr/Deer Lick Pl
185,37.085143,-88.690838,Gilliam Ln
305,37.087222,-88.612503,N 12th St/Martin Luther King Jr Dr
160,36.989043,-88.513577,Said Rd
185,37.046031,-88.553556,Clarks River Rd
605,37.050525,-88.652124,/Lone Oak Rd
185,37.032660,-88.534782,/Reidland Rd
185,37.057580,-88.668533,Colonial Dr/Lindberg Ct
185,37.027369,-88.685124,Linda Dr/Cleary Dr
185,37.039457,-88.589644,Champ Dr N
552,37.037942,-88.667842,/College Ave
276,37.035353,-88.567485,Milliken Rd
246,37.000189,-88.547080,I- 24
246,37.062452,-88.665648,/Pecan Dr
445,37.104604,-88.690803,I- 24
246,37.020424,-88.604280,I- 24
216,37.009782,-88.510819,Kentucky Dam Rd/Calvert Dr/Eagle Nest Dr
305,37.046695,-88.557014,Clarks River Rd/Georgia St
216,37.068948,-88.701429,Olivet Church Rd
160,37.080334,-88.597193,S 6th St/Jackson St
445,37.076876,-88.674396,Technology Cir/Technology Ct
390,36.994805,-88.493048,I- 24/Rosebower Church Rd
1071,37.036209,-88.664972,N Friendship Rd/S Friendship Rd/Lone Oak Rd
160,36.987735,-88.516403,Oakland Cir/Parkwood Dr
160,37.071870,-88.664140,Summerhill Ct
216,37.069965,-88.636334,Kentucky Ave/S 31st St
216,37.090796,-88.606875,N 8th St/Park Ave
246,37.005335,-88.674144,Barrington Cir
160,36.994368,-88.675293,US Hwy 45/Krebs Station Rd
216,37.021689,-88.542992,Old Benton Rd
185,36.998495,-88.710683,Jewell Ln/New Hope Church Rd
216,37.071127,-88.596049,Leake Ave/S 9th St
418,37.075150,-88.625143,/S 24th St
246,37.066863,-88.644705,Vine St/Buckner Ave/Buckner Ln
334,37.042482,-88.668108,Canon Dr/Brookhill Ln
160,37.037357,-88.577166,Estes Ln/Meacham Ave
305,37.055251,-88.579215,Bridge St/Bridge Ct
160,37.008584,-88.502141,Kentucky Dam Rd
362,37.102433,-88.690026,/I- 24
305,37.059703,-88.657997,I- 24
605,37.082065,-88.625256,Clay St/N 21st St
185,37.058232,-88.619288,Old Mayfield Rd
246,37.081280,-88.593029,S 3rd St
160,37.042274,-88.660104,Temple Isreal Cemetery
185,37.078115,-88.625706,Monroe St/N 23rd St
185,36.995904,-88.675598,US Hwy 45
445,37.080327,-88.594031,Ohio St/S 4th St
445,37.065440,-88.670563,Pecan Dr/Deer Lick Pl
185,37.051824,-88.574442,Abell Dr
276,37.028676,-88.659278,Daytona St
160,37.062217,-88.685933,N Friendship Rd
160,37.038994,-88.719927,Camilla Ln/Blandville Rd
185,37.066237,-88.623062,Jones St/S 26th St
390,37.060376,-88.658773,I- 24/
160,37.098570,-88.819893,/Dyke Rd/S Acid Rd
246,37.047615,-88.560983,Clarks River Rd
160,37.049594,-88.582346,Husband Rd/Lydon Rd
472,37.016627,-88.598033,I- 24
185,37.055028,-88.697078,Pear Tree Ln/Gardenview Dr
499,37.070152,-88.690698,Holt Rd
276,37.033351,-88.684352,Phipps St
418,37.035333,-88.669500,Oregon St
185,37.069206,-88.657671,Windsor Woods/Pines Rd
334,37.071126,-88.636505,Broadway St/N 31st St
160,37.057615,-88.678147,Buckner Ave
276,37.077741,-88.605072,S 12th St
968,37.070846,-88.624196,Adams St/S 25th St
216,37.042784,-88.709080,Blandville Rd
160,37.048068,-88.626356,Sills Ln/Old Mayfield Rd
160,37.083678,-88.592311,Adams St
334,37.022164,-88.682005,Clinton Rd/Old Farm Rd
160,37.043427,-88.670082,Kimberly Dr
334,37.081423,-88.682217,I- 24
305,37.092315,-88.635279,N 13th St/Reed Ave
160,37.092173,-88.674270,Coleman Rd/Charter Oak Dr
684,37.072069,-88.634241,Broadway St/Keiler St
276,37.070693,-88.706277,Hinkleville Rd
334,37.044650,-88.667226,Brookhill Ln
246,37.043214,-88.550310,Indian Oaks Trailer Park
276,37.047754,-88.561007,Clarks River Rd
334,37.058525,-88.642057,Oak St/Sanders St
276,37.007313,-88.525410,Merrydale Dr
390,37.088764,-88.605620,N 8th St/Harrison St
334,37.056934,-88.620924,Old Mayfield Rd
605,37.039531,-88.664835,/N Friendship Rd
658,37.027402,-88.670746,Lone Oak Rd
160,37.078072,-88.599619,/Ohio St
276,37.067356,-88.702190,Hanson Rd/Olivet Church Rd
445,36.997646,-88.541957,I- 24/Sheehan Bridge Rd
160,37.043966,-88.651965,Olympia Ave
160,37.056140,-88.577282,Koerner St/Parker St
160,37.077339,-88.748717,Cairo Rd
160,37.011138,-88.514984,/Guess Ct
334,37.075618,-88.625536,Broadway St/N 24th St
185,37.054598,-88.609066,Roosevelt Blvd/Harding Ave
276,37.062136,-88.661466,Stanley Dr
246,37.057541,-88.620207,Old Mayfield Rd
160,36.946579,-88.727109,Smokey Ln/County Line Rd
305,37.042565,-88.570131,John L Puryear Dr
160,37.065035,-88.585708,Clements St/Gilson St
216,37.010809,-88.522617,Tudor Blvd/Calvert Dr
276,37.058962,-88.628028,Fairway Dr/Magalin Dr
160,37.039948,-88.618197,Herzog Ln
185,37.044870,-88.577248,Meacham Ln
418,37.046351,-88.697097,Holt Rd/Blandville Rd
362,37.073241,-88.591176,S 5th St
552,37.055041,-88.639636,Glenwood Dr/Avondale Rd
684,37.052273,-88.641076,Cloverdale Rd/Highland Blvd
276,37.044561,-88.653045,Ridgeview St
246,37.053601,-88.570884,Pvt Nc
305,37.075227,-88.603482,Tennessee St/S 12th St
160,37.079381,-88.602982,Adams St/S 10th St
246,37.067393,-88.698123,W Park Dr/Westbrook Dr
472,37.095660,-88.687334,I- 24
305,37.067429,-88.746806,Red Pine Cir/Pinewood Trl
334,37.074279,-88.599605,S 10th St/Norton St
160,37.019533,-88.731275,Massac Church Rd/Mayfield Metropolis Rd
160,37.051431,-88.574487,Lindberg St
334,37.083154,-88.597410,Clark St/S 5th St
185,36.986270,-88.498754,Benton Rd/Watson Rd
246,36.993262,-88.525607,I- 24
445,36.984342,-88.641141,Oakwood Dr
185,37.041007,-88.696824,Highland Church Rd
2114,37.078802,-88.679758,/Hinkleville Rd
472,37.025348,-88.610556,Rosewood Dr
160,37.059958,-88.571540,Main St
160,37.052738,-88.616638,Nelson St
160,37.060775,-88.583860,Palmer St/Ashcraft Ave
160,37.008726,-88.730327,Cottonwood Ln/Mayfield Metropolis Rd
305,37.050793,-88.567205,Irvin Cobb Dr
160,37.099056,-88.632864,Paducah-Brookport Rd
160,37.066144,-88.721890,Hinkleville Rd
160,37.046664,-88.561408,Arizona St/Carolina St
472,37.057460,-88.655071,I- 24/Alben Barkley Dr
276,37.038193,-88.643903,Spring Valley Dr/Spring Valley Cove
305,37.065162,-88.674960,Buckner Lake Cir/Buckner Ave
579,37.086189,-88.599339,N 5th St/Broadway St/S 5th St
216,37.057769,-88.588501,Hobson St/Vasseur Ave
216,37.060379,-88.593934,Irvin Cobb Dr
552,37.057544,-88.654786,I- 24/Alben Barkley Dr
185,37.074538,-88.743713,Wesley Cir
160,37.084373,-88.616486,Harrison St/N 15th St
246,37.078293,-88.592753,Jones St/S 4th St
579,37.076519,-88.623297,Broadway St/N 22nd St
276,37.058907,-88.643179,Davis Ave/Oak St
160,37.076420,-88.662374,Hedge Ln/Marlborough Way
246,37.086860,-88.610329,Harrison St/N 11th St
865,37.065087,-88.638475,Lone Oak Rd
305,37.081679,-88.604255,Washington St/S 10th St
160,37.010434,-88.525459,Calvert Dr
276,37.060045,-88.665486,Pecan Dr
1097,37.048472,-88.564692,Clarks River Rd
185,37.082064,-88.668984,Hinkleville Rd
216,37.048962,-88.663146,Apache Ln
185,37.078306,-88.599043,S 8th St/Ohio St
160,37.015847,-88.510508,Christa Dr/Mari Dr
185,37.043121,-88.578480,/Yarbro Ln
185,37.040976,-88.597336,Creekview Dr/Island Creek Dr
334,37.046010,-88.567945,John L Puryear Dr
1071,37.073062,-88.699540,Olivet Church Rd
276,37.070873,-88.625952,/S 26th St
1174,37.074508,-88.628281,N 26th St/Broadway St
276,37.012601,-88.585940,I- 24
305,37.121631,-88.691290,I- 24
276,37.075980,-88.618417,Washington St/S 19th St
160,37.015437,-88.528728,Reed Cir/Lottie Ct
276,37.056375,-88.617530,Schneidman Rd/Hill St
305,37.046429,-88.555284,Clarks River Rd
216,37.107288,-88.781151,Ogden Landing Rd/Metropolis Lake Rd
216,37.006020,-88.535717,Sheehan Bridge Rd
185,37.064968,-88.620492,Seitz St
246,37.051158,-88.564705,Starlite Dr/Wayne Sullivan Dr
160,37.080158,-88.721796,/Connie Sue Ave/N Brian Ave
216,37.051150,-88.729396,Carlisle Ct
160,37.069206,-88.848116,Kingsway Dr
160,37.073210,-88.669640,Winslow Way/Londonderry Ln
276,37.047911,-88.562281,Clarks River Rd/Florida St
160,36.996598,-88.506294,/US Hwy 68
246,37.074745,-88.604706,Tennessee St/S 13th St
185,37.002506,-88.532139,Stonegate Dr/Banberry Bend
160,37.037443,-88.633922,Bleich Rd
499,37.048088,-88.648824,I- 24/
276,37.041993,-88.649653,Lakewood Dr/Bleich Rd
160,37.067053,-88.660555,Pines Rd/Whitney Dr
185,37.067971,-88.632170,Adams St/S 30th St
160,37.074636,-88.861803,Hinkleville Rd
216,37.018115,-88.675324,US Hwy 45
246,37.038101,-88.539512,Clarks River Rd
160,37.043149,-88.659539,Carson Rd/Carson Road Y
160,37.047113,-88.573781,Meacham Ave
246,37.067994,-88.700597,Parkside Dr/Westbrook Dr
276,37.025005,-88.671707,US Hwy 45/Lone Oak Rd/Lone Oak Baptist Church Entran
418,36.946395,-88.675524,US Hwy 45/Mayfield Rd
185,37.059056,-88.606530,Alexander Ave/Hawaii St
246,37.092059,-88.603021,N 5th St/Park Ave
160,37.068080,-88.595941,S 10th St
418,37.059469,-88.637002,Berger Rd
160,36.991664,-88.516324,Stonecreek Pl
276,37.093501,-88.686814,/I- 24
276,37.066602,-88.690465,Willow Spring Cove
418,37.017346,-88.591000,John L Puryear Dr
276,37.064866,-88.642463,Beyer Ln/Forest Cir
839,37.072018,-88.628219,/Washington St
160,37.010401,-88.489126,Nina Dr/Higgins Ln
160,37.043428,-88.670096,Kimberly Dr
305,37.054531,-88.580666,Husband Rd
160,37.088241,-88.624065,Lake Drive Nc/Lake Dr
276,37.070559,-88.597444,S 10th St/Leake Ave
185,36.948811,-88.725361,Smokey Ln
216,37.077793,-88.597117,Tennessee St/S 7th St
246,37.045315,-88.710466,Olivet Church Rd
160,37.040033,-88.617321,Herzog Ln
185,37.063772,-88.625052,S 28th St/Miller St
813,37.070852,-88.691047,New Holt Rd/Village Square Dr
472,37.046485,-88.697119,Holt Rd
160,37.017771,-88.510959,Renee Ct/Cindy Dr
160,37.056540,-88.574249,Main St/Irvin Cobb Dr
185,37.078646,-88.627478,Madison St/N 24th St
994,37.082481,-88.636877,Joe Clifton Dr/Ross Ave
418,37.096268,-88.693055,Cairo Rd
185,37.036157,-88.680086,Rue Chateau St
246,37.048608,-88.682831,Blandville Rd
160,37.064989,-88.703326,N Friendship Rd/Olivet Church Rd
631,37.076968,-88.643506,N 32nd St/The Branch
246,37.002829,-88.553592,I- 24
185,37.061913,-88.623306,Boone Ln
185,37.095756,-88.643848,/Cairo Rd
185,37.106461,-88.690735,Perennial Ln/
160,37.095084,-88.656683,Strathmoor Dr
276,37.061234,-88.673693,/Oakcrest Dr/Hill Ter
160,37.089714,-88.623185,Park Dr/Powell & Scott Dr N
276,37.086523,-88.629585,Kruger St/N 24th St
160,37.057513,-88.642574,Hickory St/Sanders St
185,37.065981,-88.746972,Hinkleville Rd
185,37.041785,-88.670054,Cumberland Ave/Nevada St
185,37.001360,-88.535252,Willowick St
160,36.961999,-88.677976,US Hwy 45
160,37.079408,-88.707344,Katherine Way
160,36.955380,-88.653986,McNeil Alsip Rd
968,37.051467,-88.640704,Dundale Rd/Highland Blvd
216,37.089275,-88.604354,N 7th St/Harrison St
185,37.099533,-88.677268,Locust Ave/Cairo Rd
276,37.097897,-88.686724,Cairo Rd
499,37.055199,-88.647937,Meadow Ln/Maxfield Dr
185,37.066411,-88.832247,New Hwy
160,37.089669,-88.656995,Nelson Park Rd
305,37.036543,-88.656811,Park Ln W
160,37.074271,-88.672418,Beresford Way/Alameda Cres
216,37.081471,-88.597908,Adams St/S 6th St
160,36.994384,-88.671541,Mayfield Rd/Krebs Station Rd/Lone Oak Rd
185,37.046166,-88.698521,Tuscan Rd/Blandville Rd
185,37.052016,-88.574660,/Yarbro Ln
160,37.033544,-88.554931,Bradshaw St/Beckham Ave
246,37.084968,-88.678972,Coleman Rd/Coleman Crossing Cir
185,37.007765,-88.517156,Carson Way/Surrey Ct
499,37.024664,-88.610586,I- 24
160,37.060519,-88.641602,Chestnut St
160,37.097778,-88.655308,Strathmoor Dr/Strarthmoor Blvd/Moreland Ave
684,37.069768,-88.683424,Pecan Dr/Village Square Dr
246,37.031406,-88.620164,I- 24
216,37.028236,-88.672432,Goad Dr/Clinton Rd
276,37.008400,-88.519711,Castleton Pike/Carson Way
185,37.085351,-88.661513,Allen Ln
185,37.060380,-88.635962,Goodman Dr/Grundy St
160,37.003734,-88.531533,White Oak Dr/Thornberry Dr
185,37.084842,-88.621108,Park Ave/Fountain Ave
390,37.072017,-88.637785,Jefferson St
160,37.020162,-88.665135,S Friendship Rd
390,37.055458,-88.643558,Medical Center Dr/Sycamore Dr/Lone Oak Rd
185,37.097787,-88.676769,/Cedar Ave/Locust Ave
216,37.095757,-88.631143,N H C Mathis Dr
160,37.034289,-88.590057,Champ Dr
246,37.018380,-88.590547,John L Puryear Dr/Husband Rd/Ky 2187 X
216,37.062833,-88.814710,Hinkleville Rd
160,36.979525,-88.492838,McIntosh Rd/Bryant Ford Rd
185,37.050098,-88.696779,Birkdale Bend/Holt Rd
160,37.009125,-88.699646,Jeffery Ln
160,37.091293,-88.614072,10th St/Burnett St
216,37.007047,-88.506587,Phelps St
246,37.034955,-88.644690,Country Club Ln
276,36.992106,-88.510031,Benton Rd/Marigold Dr
185,36.985516,-88.641126,Century Ln/Oakwood Dr
216,37.092281,-88.603158,Park St/N 5th St
390,37.059553,-88.637268,Berger Rd
160,37.063975,-88.605808,Alexander Ave
305,37.037801,-88.579493,Estes Ln/Debbie Dr
185,37.066798,-88.642515,Forest Cir/S Sycamore Dr
216,37.047458,-88.562449,Florida St
445,37.030368,-88.619064,I- 24
445,37.066214,-88.590107,Broad St/S 9th St/Bridge St
390,37.023474,-88.608805,I- 24
334,37.041046,-88.664764,Lakeview Dr/N Friendship Rd
185,36.950830,-88.677510,US Hwy 45
246,37.036942,-88.675905,Greenway Chase/Raintree Dr
185,37.086263,-88.605569,Monroe St/N 9th St
631,37.067237,-88.629972,S 29th St/Jackson St
185,37.070163,-88.590800,S 6th St/Elizabeth St
160,37.079395,-88.663063,Hedge Ln
246,37.027754,-88.661635,Tralee Dr/Leeds Dr
839,37.088268,-88.594236,/Broadway St/The Foot of Broadway
160,37.066671,-88.646490,Hilldale Rd/Mimosa Ln/Buckner Ave/Buckner Ln
160,37.074819,-88.664553,Savoy Cir/Sherwood Rd
185,37.003202,-88.532974,Thornberry Dr
185,37.060145,-88.642556,Davis Ave
552,37.095634,-88.687574,I- 24
276,37.071728,-88.599719,Husbands St/S 11th St
334,37.034039,-88.682472,Rue Thierry Dr
390,37.056826,-88.657227,Memorial Dr/Alben Barkley Dr
160,37.062044,-88.725896,Calloway Ct/McCracken Blvd
185,37.072165,-88.617404,S 20th St/Jackson St
216,37.090762,-88.612714,10th St/Finley St
185,36.990501,-88.675695,US Hwy 45
552,37.069704,-88.627012,S 27th St/Adams St
160,37.005940,-88.699423,Groveway Blvd/Clinton Rd
216,37.058072,-88.640783,Oak St/Lone Oak Rd
276,37.079104,-88.673002,Technology Dr/Friedman Ln
185,37.104003,-88.755398,Lansdell Dr/Kerry Dr
216,37.050675,-88.696036,Preston Cir
185,37.065996,-88.629935,Ohio St
160,37.058099,-88.797931,Old Hinkleville Rd
362,37.091316,-88.607216,N 8th St/Campbell St
216,37.043657,-88.547691,Clarks River Rd
276,37.023804,-88.674531,Imperial Dr
246,37.055020,-88.565816,Wayne Sullivan Dr
526,37.069269,-88.624934,Jackson St/S 26th St
276,37.017123,-88.532619,Park Rd/Old Benton Rd
160,37.016977,-88.506555,Cindy Dr
305,37.050582,-88.656615,Martin Cir/Natchez Ln
684,37.068156,-88.627825,S 28th St/Jackson St
185,37.063764,-88.583140,Hayes Ave/Gilson St
160,37.075772,-88.598972,S 9th St/Jones St
160,37.057772,-88.673641,W Vale St
305,37.043503,-88.564382,Arizona St
160,37.031976,-88.594145,Lane Rd
362,37.078049,-88.621129,N 20th St
160,37.015785,-88.512276,Christa Dr/Babbland Dr
160,37.082512,-88.695020,Olivet Church Rd
185,37.064915,-88.598633,/Irvin Cobb Dr
185,37.063735,-88.625017,Turner St/Miller St
216,37.126197,-88.751044,Carneal Rd/Chiles Rd
276,37.058257,-88.616637,Schneidman Rd/Bell Ave
276,37.043782,-88.550859,Indian Oaks Trailer Park
334,37.097414,-88.688226,I- 24/Cairo Rd
160,37.046830,-88.704879,Troon Rd
160,37.010399,-88.522487,Tudor Blvd
160,37.057956,-88.643668,Davis Ave/Hickory St
160,37.094853,-88.867693,Park Ln/Apperson Rd/Woodville Rd
216,37.038130,-88.538546,/Clarks River Rd
216,37.045739,-88.552307,Clarks River Rd/Jim R Rd
246,37.036173,-88.536385,Clarks River Rd
185,37.028463,-88.634705,Starr Hill Rd/Hendron Rd
160,37.041513,-88.567751,Hovekamp Rd
185,37.058178,-88.759284,Tribal Pl/Mesa Dr
160,37.017019,-88.511234,Renee Ct
276,36.993472,-88.522448,I- 24
526,37.038954,-88.666872,/Cumberland Ave
160,37.095132,-88.700730,Shaffer Rd/Cairo Rd
160,37.030566,-88.575772,John L Puryear Dr
305,36.994353,-88.513073,I- 24/Benton Rd
216,36.999969,-88.547168,I- 24
1046,37.050319,-88.641897,/Elmdale Rd
160,37.053808,-88.708486,Olivet Church Rd
362,37.057020,-88.656569,/Alben Barkley Dr
445,37.042113,-88.650822,Rodger East Dr/Bleich Rd
216,37.018577,-88.590265,John L Puryear Dr
390,37.048986,-88.645279,/Elmdale Rd
185,37.087085,-88.838268,Brown Ave/Marshall Rd
160,37.029337,-88.680954,Charolette Ann Dr/Patricia Cir
526,37.087129,-88.684526,I- 24
160,37.056506,-88.696150,New Holt Rd
305,37.064523,-88.670911,Deer Lick Pl
160,37.078282,-88.602278,Oscar Cross Ave/S 10th St
160,37.073824,-88.675003,Halehaven Dr
246,37.007803,-88.564764,I- 24/Oaks Rd
185,37.077815,-88.651552,W Jefferson St
160,36.991396,-88.493099,Wilton Cir/Rosebower Church Rd
216,37.092411,-88.635859,N 13th St
160,37.076234,-88.605652,S 13th St
276,37.067579,-88.664117,Red Fox Trl/Quail Hollow Dr
185,37.077264,-88.601633,S 10th St/Ohio St
246,37.072823,-88.753412,US Hwy 60
185,37.040209,-88.571237,John L Puryear Dr/Key Dr
472,37.057733,-88.576600,Tully St/Irvin Cobb Dr
160,37.080966,-88.618642,Monroe St/Fountain Ave
160,37.004428,-88.500453,Brentwood Dr/Tyree Rd/Old Calvert City Rd
305,37.043462,-88.590744,Ted Williams Rd
305,37.065676,-88.655239,Canterbury Cove/Idlewild Dr
305,36.990058,-88.505497,Benton Rd
526,37.025388,-88.610868,Schneidman Rd/Rosewood Dr
305,37.138843,-88.685156,I- 24
334,37.087967,-88.630762,Mildred St/N 25th St
418,37.074769,-88.678098,I- 24
305,37.067257,-88.641684,Cedar Ln/Forest Cir
276,37.056004,-88.681707,N Friendship Rd/Woodbine Dr
552,37.057243,-88.648828,Miller Dr/Maxfield Dr
185,37.101835,-88.661594,/Cairo Rd
246,37.051601,-88.696597,Holt Rd/St Andrews Dr
216,37.038552,-88.539540,Clarks River Rd
160,37.068183,-88.645854,Afton Ave/Friedman Ave/N 38th St
216,37.036071,-88.676297,Greenway Chase
216,37.021780,-88.692573,Fairview Dr/Palisades Cir
362,37.065153,-88.667131,Flournoy Rd
160,37.076130,-88.709890,Kathy Dr
362,37.089281,-88.594835,Jefferson St
160,37.020993,-88.591391,Husband Rd
216,37.063838,-88.649609,Magnolia Dr/Wedgewood Dr
1149,37.073377,-88.697602,W Park Dr/Hinkleville Rd
160,37.085087,-88.625014,Lindsey St
334,37.069710,-88.682475,Pecan Dr
334,37.087839,-88.692517,Olivet Church Rd
185,37.009808,-88.525205,Merrydale Dr
390,37.063455,-88.674358,Oakcrest Dr/Ogilvie Ave
276,37.069494,-88.592404,Elizabeth St
160,37.071361,-88.672202,Whitney Dr
185,37.073958,-88.737492,US Hwy 60/Mayfield Metropolis Rd
305,37.046725,-88.664699,Ravenwood Dr/Rock Creek Cir
276,37.047040,-88.567240,Kentucky St/Bullard St
185,37.046698,-88.700682,Troon Rd/Muirfield Dr
788,37.037395,-88.668392,Columbus St/Delaware St
246,37.052140,-88.696531,Holt Rd
246,37.072838,-88.757069,Cairo Rd/Proposed Hwy 60/US Hwy 60
160,37.050770,-88.619145,Rutter St/Schneidman Rd
185,37.044721,-88.703334,Tuscan Rd
160,37.024313,-88.692898,Palisades Cir
160,37.057975,-88.685486,N Friendship Rd/Wood Creek Blvd
185,37.059640,-88.660130,/Alben Burkley Exn
185,37.065835,-88.688627,Hansen Rd
445,37.053052,-88.669922,Springwell Dr/Pcc Dr/Alben Barkley Dr
362,37.039525,-88.598472,Creekview Cove
185,37.036031,-88.658201,Park Ln/Albany St
160,37.034736,-88.637958,Forest Ridge Dr/Forest Ridge Cove
305,37.012840,-88.585987,I- 24
418,37.080866,-88.612551,Broadway St/N 14th St
839,37.043480,-88.657437,Bleich Rd/Lone Oak Rd
160,37.039690,-88.676688,Lions Way/Lakeshore Dr/College Ave
390,37.079406,-88.670522,Charleston Dr/Springdale Cir
246,36.999452,-88.675602,US Hwy 45
216,37.078961,-88.870067,Apperson Rd
305,37.049202,-88.656457,Garden Path
305,37.083858,-88.660471,Park Ave
216,37.067290,-88.632261,Clint Ct
579,37.050176,-88.640912,Elmdale Rd/Highland Blvd
276,37.027889,-88.533019,Reidland Rd
276,37.089532,-88.609988,10th St/Park Ave
390,37.014219,-88.592239,I- 24/John L Puryear Dr
276,37.021294,-88.542577,/Old Benton Rd
579,37.057321,-88.635188,Stonebrook Ct
185,37.044604,-88.669207,Nebraska St/Lantern Way
160,37.033318,-88.689314,Rhea Lee Dr
216,37.045198,-88.651791,Petter Ave/Olympia Ave
276,37.057635,-88.618388,Markham Ave
552,37.098347,-88.684491,Cairo Rd
160,37.038477,-88.682559,Windmere Cove
334,37.058765,-88.762455,Phillip Blvd
185,37.020316,-88.588713,John L Puryear Dr
160,37.011789,-88.519194,Kentucky Dam Rd/Calvert Dr
276,37.097831,-88.686658,/Cairo Rd
362,37.085107,-88.611471,N 12th St/Madison St
305,37.032420,-88.621792,I- 24
390,37.079112,-88.645996,Rucker Ave/N 32nd St
216,37.080364,-88.610645,S 13th St/Kentucky Ave
579,37.128508,-88.688834,I- 24
160,37.055052,-88.628572,Wellington Cir
216,37.092325,-88.686138,I- 24/
160,37.062858,-88.820684,Hinkleville Rd/Jason Dr
216,37.073216,-88.595839,S 8th St/Husbands St
185,37.079109,-88.626330,Madison St/N 23rd St
185,37.048299,-88.634663,Elmdale Rd
334,37.077752,-88.590853,Norton St/S 3rd St
160,37.008150,-88.514960,Tudor Blvd
216,37.080903,-88.592871,US Hwy 60 Bus
185,37.081849,-88.641580,Wayne Ln/Marianne Dr
658,37.077021,-88.622060,Broadway St/S 21st St/N 21st St
160,37.098577,-88.682889,Cairo Rd/Charter Oak Dr
276,37.042340,-88.571088,Hovekamp Rd/Herman Ave
160,36.984080,-88.517689,Cedar Ridge Pl
160,36.995983,-88.506003,US Hwy 68/
362,37.061732,-88.661567,I- 24
185,37.085151,-88.661526,/Allen Ln
334,37.098109,-88.685893,Cairo Rd
362,37.038372,-88.647544,Lakeview Dr/
276,37.054274,-88.643003,Medical Center Dr/Avondale Rd
216,37.059928,-88.667182,Berry Ct
305,37.038389,-88.685988,Windmere Dr/Longview Dr
305,37.045752,-88.574260,Meachan Ln/Meacham Ave
160,36.977494,-88.762869,Pendergrass Ln
160,37.029359,-88.754736,Blandville Rd
552,37.057850,-88.634420,Stonebrook Ct
160,37.028849,-88.696200,Chickadee Dr
658,37.059044,-88.611655,S 29th St/Bradley St
160,37.109386,-88.780141,Metropolis Lake Rd
472,37.051696,-88.673660,N Friendship Rd
472,37.083452,-88.635027,N 27th St/Park Ave
362,37.045258,-88.664030,Seneca Ln/Seminole Dr
185,37.088221,-88.624198,Lake Drive Nc/Lake Dr
246,37.021802,-88.682874,Clinton Rd
185,37.045350,-88.648533,Vermont St
185,37.045122,-88.570096,Herman Ct
334,37.059389,-88.636748,Berger Rd
445,37.061494,-88.661627,I- 24
185,37.019333,-88.671319,United Methodist Church Rd
246,37.025713,-88.683949,Charolette Ann Dr/Pinebrook Dr
160,37.105292,-88.782006,Metropolis Lake Rd
160,37.059574,-88.587876,Legion Dr
216,37.080655,-88.628754,Clay St/N 24th St
216,37.071935,-88.662297,Minnich Ave
160,37.042361,-88.700444,Pillar Chase
305,37.078092,-88.622740,Jefferson St/N 21st St
390,37.085209,-88.595510,Washington St/S 3rd St
185,37.058889,-88.645469,Barkley Woods/Hickory St/Browner Cir
185,37.091641,-88.601166,N 4th St/Executive Blvd/Park Ave/Excutive Blvd
216,37.092505,-88.606351,N 7th St/Campbell St
160,37.006457,-88.699293,Clinton Rd
160,37.007836,-88.517594,Carson Way
305,37.044361,-88.551270,Indian Oaks Trailer Park
246,37.091302,-88.599348,N 3rd St/Harrison St
185,37.066144,-88.691694,Hansen Rd
736,37.086717,-88.598059,N 4th St/Broadway St/S 4th St
185,37.073347,-88.656845,Ivy Dr/Primrose Pl
160,37.067906,-88.696490,/W Park Dr
216,37.041889,-88.648669,Marshall Ave/Bleich Rd
472,37.051819,-88.673729,N Friendship Rd/Alben Barkley Dr/Blandville Rd
762,37.052196,-88.649398,Lone Oak Rd
185,37.031383,-88.676561,Lovelaceville Rd/Cambridge Dr
185,37.077600,-88.701799,Shelldrake Ln/Royal Tern Ct
276,37.083637,-88.645331,/Park Ave
390,37.048043,-88.562224,Clarks River Rd
160,37.014154,-88.522856,Reid Cir/Kentucky Dam Rd
472,37.058814,-88.616368,Schneidman Rd/S 30th St
334,37.057852,-88.615311,Blaess St/Bell Ave
185,37.006697,-88.526000,Merrydale Dr
160,37.094307,-88.634128,Helen St/Maple Ave
246,37.004357,-88.520329,Edwards Dr
246,37.090283,-88.618177,N 12th St/Flournoy St
185,37.068518,-88.713458,Twinson Ct/Hinkleville Rd
185,36.964767,-88.601736,Hardmoney Rd
160,37.094165,-88.782828,Brantley Dr/Kensington Dr
552,37.056289,-88.647387,Birch St
605,37.016896,-88.591177,John L Puryear Dr
160,36.983659,-88.515477,Cedar Ridge Pl/Said Rd/Meadow Ridge Dr
362,37.078424,-88.634304,Joe Clifton Dr/Clay St
499,37.054602,-88.649003,Meadow Ln/Old Orchard Rd
160,37.066332,-88.619433,S 23rd St/Spruce St
160,37.067568,-88.661094,Whitney Dr
160,36.997453,-88.567313,Lydon Rd
185,37.009747,-88.773091,Emmy Ln/Kevin Way
185,37.032605,-88.536420,Fuller Rd/Epperson Rd
160,37.058932,-88.605267,Bloom Ave/Hawaii St
579,37.065134,-88.669295,Pecan Dr//Buckner Ave
185,37.098958,-88.856502,Sunrise Dr
305,37.012889,-88.586229,I- 24/
418,37.085198,-88.598700,Kentucky Ave/S 5th St
246,37.043885,-88.661571,Kathy/Terrell
160,37.047576,-88.572007,Alpha Dr/Franklin St
185,37.077313,-88.601518,S 10th St/Ohio St
246,37.051948,-88.696555,Holt Rd
276,37.097556,-88.688013,I- 24/Cairo Rd
684,37.060804,-88.639421,Lone Oak Rd
276,37.062504,-88.643759,Hilldale Rd/Alben Barkley Dr
160,37.034653,-88.640173,High Point Dr
526,37.079030,-88.668459,Piedmont Rd/Brighton Cove
160,37.067631,-88.608917,Cleveland/Coxey St
246,37.038985,-88.585686,Husband Rd
499,37.080457,-88.613563,Broadway St/S 15th St
160,37.091276,-88.621361,N 12th St/Greer St
160,36.950045,-88.644859,Old Houser Rd/Bryan Rd
276,37.025545,-88.679003,/Ashcreek Rd
160,37.063356,-88.593295,Broad St
390,37.089876,-88.620614,N 13th St/Northview St
185,37.063134,-88.587609,/Flora Ave
185,37.038905,-88.719871,Camilla Ln/Wayne Way Dr
160,37.064099,-88.598095,/Irvin Cobb Dr
160,37.023086,-88.691144,Fairview Dr
216,37.081373,-88.611289,Broadway St/S 13th St/N 13th St
216,37.008533,-88.682641,Peppers Mill Cove/Peppers Mill Dr
276,37.079974,-88.601620,Adams St/S 9th St
552,37.054174,-88.570106,Pvt Nc/Irvin Cobb Dr
418,37.077393,-88.643996,N 32nd St/Levin Ave
160,37.025728,-88.572052,Butler Ln
276,37.088250,-88.600616,N 5th St/Monroe St
185,37.045623,-88.711534,Olivet Church Rd
185,36.994438,-88.666857,S Friendship Rd/Krebs Station Rd
246,37.073612,-88.664573,Friedman Ln/Saint Charles Ct
160,37.014261,-88.506867,Stiles Rd/Christa Dr
246,37.094913,-88.627499,10th St
185,37.023186,-88.564014,/Oaks Rd
185,37.037948,-88.580251,Estes Ln/Yarbro Ln
160,37.150547,-88.861927,Ogden Landing Rd
160,37.046603,-88.561152,Carolina St
246,37.046521,-88.572363,Franklin St
276,37.059696,-88.684500,Woodcreek Blvd/Garland Dr
276,36.989470,-88.504959,Benton Rd
160,37.077449,-88.653263,Phillips Ave/N 36th St
185,37.031078,-88.657803,St Parker Ave/Winslow Dr
305,36.995244,-88.514151,Benton Rd
160,37.052447,-88.606173,Bechtdolt Rd/Bloom Ave
305,37.027957,-88.674543,Ora Ln/Jenn Ln
160,37.060505,-88.744062,Old Hinkleville Rd/Mayfield Metropolis Rd
865,37.074340,-88.631670,Joe Clifton Dr/N 28th St/Jefferson St
246,37.073445,-88.646259,W Jefferson St/Central Ave
185,37.033291,-88.587485,Blankenship Dr/Husband Rd
631,37.086230,-88.596147,Kentucky Ave/S 3rd St
362,37.024305,-88.686052,Pinebrook Dr/Old Farm Rd
246,37.072998,-88.753493,US Hwy 60
605,37.051285,-88.650978,I- 24/Lone Oak Rd
334,37.097153,-88.689561,/Cairo Rd
216,37.069209,-88.669680,Pheasant Run/Phesant Run
185,37.020732,-88.542845,/Copeland Rd
362,37.015538,-88.591536,/John L Puryear Dr
472,37.057527,-88.635632,Stonebrook Lane Bay/Stonebrook Dr
160,37.074503,-88.651718,Wilson St/N 37th St
160,36.984249,-88.492833,Bryant Ford Rd/Benton Rd/Rosebower Church Rd
305,37.063191,-88.612372,Division St/Goodman St
788,37.073360,-88.629324,S 27th St
160,37.046661,-88.709821,Sunningdale Ct
334,37.075476,-88.628918,N 26th St/Jefferson St
160,37.061995,-88.749410,Harting Ridge Rd/Iva Ct
472,37.068277,-88.624307,Ohio St/S 26th St
185,37.021800,-88.693843,Fairview Dr
305,37.040035,-88.569362,Oaks Rd/Henson St
305,37.063740,-88.622673,S 28th St
160,37.093919,-88.622162,10th St/Ellis St
216,37.090269,-88.614817,Burnett St/N 11th St
160,37.071274,-88.650024,Westwood Blvd/Niblick Ln
160,37.014135,-88.709635,Randale Dr/Jewell Ln
246,37.024425,-88.693505,Colony Dr
246,37.037669,-88.538851,/Clarks River Rd
160,37.026021,-88.681247,Beechwood Cove
160,37.067677,-88.747863,Red Pine Cir/Arcadia Way
334,37.070356,-88.696109,W Park Dr/Village Square Dr
216,37.023082,-88.724810,Odessa Way
185,37.025294,-88.582322,Railroad Grade/John L Puryear Dr
185,37.040675,-88.655464,Glenn St
160,37.005269,-88.564514,Hunter Ln (Private Dr)/Oaks Rd
216,37.008961,-88.504639,Kentucky Dam Rd/Old Calvert City Rd
246,37.046669,-88.556320,Clarks River Rd/Ike Ave
185,37.064699,-88.625618,S 28th St
160,37.059517,-88.571921,Wayne Sullivan Dr/Main St
216,37.064929,-88.658489,Kristen Cove/Buckner Ave/Buckner Ln
160,37.053791,-88.701944,Stinesprind Dr/Stinespring Dr/Deerhaven Ln
160,37.046444,-88.565646,Dillard St
276,37.059715,-88.684619,Woodcreek Blvd
390,37.079978,-88.681912,I- 24
246,37.070839,-88.649043,Westwood Blvd/N 38th St/Central Ave
160,37.010285,-88.747252,Lovelaceville Rd
526,37.068319,-88.635280,Clark St/S 31st St
445,37.077019,-88.623613,N 22nd St
160,37.058873,-88.627403,Fairway Dr
246,37.031006,-88.688156,Highland Church Rd/Lutes Rd
276,37.065752,-88.633607,Jackson St/S 31st St
185,37.068679,-88.774388,Steele Rd/Hinkleville Rd
526,37.128008,-88.689012,I- 24
216,37.025120,-88.693011,Palisades Cir
246,37.056313,-88.644390,Sanders St/Sycamore Dr
160,37.100921,-88.829675,/S Acid Rd
216,36.964787,-88.605804,Hardmoney Rd
160,37.019400,-88.670897,Lone Oak Rd
160,37.058908,-88.627564,Fairway Dr
390,37.069096,-88.639101,Wallace Ln/Maple Ave
160,37.024878,-88.583076,John L Puryear Dr
185,37.064389,-88.628308,Jones St
160,37.034505,-88.541470,Pugh Rd/Ic Ave
216,37.028382,-88.531367,/Ashland Rd
185,37.049132,-88.637298,Elmdale Rd
305,37.042970,-88.570858,Herman Ave
185,37.070164,-88.612378,Old Mayfield Rd/Wheeler Ave
276,36.996710,-88.528291,Geraldine Dr/Six Oaks Dr
160,37.063113,-88.733679,Old Hinkleville Rd/Roy Lee Rd
246,37.097698,-88.630575,/N H C Mathis Dr
246,37.066882,-88.686921,Perkins Creek Dr/Partridge Ln
216,37.071777,-88.725715,US Hwy 60
160,37.067594,-88.834466,Hobbs Rd
362,37.057762,-88.582402,Bridge St
160,37.068654,-88.763180,Hinkleville Rd
160,37.062972,-88.675652,Hansen Rd/Buckner Ave
185,37.095403,-88.681737,Charter Oak Dr
160,37.038717,-88.565461,Milliken Rd
185,36.995899,-88.675293,US Hwy 45
865,37.076915,-88.638022,Clay St
216,37.071544,-88.723406,US Hwy 60
276,37.064249,-88.656472,Buckner Ave/Northgate Ln
246,37.065614,-88.589255,Allen St/Bridge St
160,37.093464,-88.706027,Cairo Rd
216,36.979822,-88.643622,Oakhaven Dr/Lebanon Church Rd
185,37.048949,-88.571241,Old Benton Rd
216,37.076272,-88.600864,Tennessee St/S 10th St
552,37.076183,-88.642559,Trimble St/N 32nd St/Central Ave
160,36.986029,-88.676658,Evergreen Ln/Pine Creek Dr
160,37.100495,-88.656279,Cairo Rd/Potter Ln
185,37.077884,-88.702903,Shelldrake Ln/Sandpiper Cir
334,37.057409,-88.613856,Fairmont St/Bell Ave
185,37.049624,-88.696837,Holt Rd
160,37.066246,-88.646372,Hilldale Rd
276,37.097940,-88.686244,/Cairo Rd
246,37.012806,-88.585817,I- 24
362,37.065383,-88.667161,I- 24
185,37.025812,-88.580987,/Eich Rd
305,37.069114,-88.698096,W Park Dr
362,37.069167,-88.594808,Fisher St/S 9th St
216,37.080824,-88.592813,Ohio St/US Hwy 60 Bus
160,37.025420,-88.544805,Old Benton Rd
552,37.085774,-88.609840,Madison St/N 11th St
246,37.073487,-88.646202,W Jefferson St/Central Ave
246,36.981502,-88.642188,Greenvale Dr/Majestic Oak Dr
160,37.063334,-88.596197,Murray Ave
185,36.966532,-88.677337,St John Church Rd
160,36.967573,-88.600584,Husband Rd
276,36.994881,-88.523459,Greenwood Pl
216,37.073497,-88.657036,Ivy Dr
185,37.083630,-88.721736,Joretta Ave
216,37.009066,-88.531637,Miller Dr/Benton Rd
160,37.068498,-88.848454,Kingsway Dr/Bonham St
362,36.945880,-88.675609,US Hwy 45
160,37.014053,-88.522983,Kentucky Dam Rd/Reid Cir
185,37.059653,-88.575041,Tully St/Gilson St
160,37.065052,-88.726053,McCracken Blvd/Hinkleville Rd
216,37.039764,-88.722610,Marshall Ct/McCracken Blvd
788,37.069996,-88.623129,Jackson St/US Hwy 60
605,37.061100,-88.639274,Plum St/Lone Oak Rd
185,37.064944,-88.614020,S 25th St/Cherry St
305,37.019680,-88.603175,I- 24
185,37.078469,-88.672143,Friedman Ln/Springdale Cir
246,37.005440,-88.506572,Phelps St/Lee St
160,37.014103,-88.594541,Old Husbands Rd
185,37.071893,-88.602247,Caldwell St
246,37.047417,-88.560136,Royal Oak Dr/Clarks River Rd
185,37.028508,-88.546089,Pugh Rd/Old Benton Rd
185,37.036150,-88.677704,Lakeshore Dr/Denver Ave
160,37.012122,-88.814333,McKendree Church Rd/State Hwy 286
160,37.077968,-88.668055,Piedmont Rd/Alameda Dr
160,37.040786,-88.653732,T Underwood Dr
362,36.993616,-88.520409,I- 24
445,37.048162,-88.562669,/Clarks River Rd
160,37.016063,-88.725589,Odessa Way/Lovelaceville Rd
276,37.060406,-88.587070,Barnes St/Legion Dr
334,37.034060,-88.682717,Windmill Dr
160,37.066672,-88.697467,/W Park Dr
362,37.072571,-88.772589,Steele Rd/Hinkleville Rd
305,36.995000,-88.497383,I- 24/
185,37.013134,-88.615536,Wkyx Wkyq Rd
445,37.010293,-88.574209,I- 24
185,37.075692,-88.592718,Caldwell St/S 5th St
305,37.050340,-88.566898,Irvin Cobb Dr
362,37.021566,-88.695184,Fairview Dr
216,37.082197,-88.603008,Washington St/S 9th St
185,37.073793,-88.664814,Savoy Cir/Friedman Ln
185,37.076887,-88.616168,Washington St/S 17th St
334,37.058699,-88.684955,Wood Creek Blvd/Garland Dr/N Friendship Rd
160,37.017637,-88.592290,Old Husbands Rd
160,37.010138,-88.771335,Lois Ln/James Ln
418,37.060375,-88.652506,Sunset Ave/Audubon Dr
390,37.084234,-88.661590,Allen Ln
185,37.089231,-88.727807,Cairo Rd
216,37.074015,-88.646834,Branch St/W Jefferson St
276,37.032710,-88.622331,I- 24
246,37.083354,-88.629672,Park Ave/N 24th St
684,37.073362,-88.640521,N 32nd St/Madison St
216,37.067509,-88.698145,Westbrook Dr/W Park Dr
579,37.049905,-88.566150,Irvin Cobb Dr
334,37.062507,-88.614252,S 27th St/Old Mayfield Rd/Center St
160,37.032606,-88.697208,Whipporwill Ln/Canary Rd/Lutes Rd
246,37.062726,-88.618365,S 28th St/Georgia St
185,37.043405,-88.547639,Clarks River Rd
160,36.985983,-88.675779,US Hwy 45
185,37.033505,-88.628071,Old Mayfield Rd
276,37.045050,-88.568744,John L Puryear Dr
160,37.068351,-88.602812,Irvin Cobb Dr
362,37.065002,-88.747447,Jan-Lyn Dr
160,37.073013,-88.760010,Proposed Hwy 60
185,37.045149,-88.709907,Olivet Church Rd
160,37.084928,-88.615094,Harrison St/N 14th St
160,37.006679,-88.506580,Royal Ave/Phelps St
185,37.092001,-88.625470,N 12th St/Olive St
1123,37.039394,-88.661142,Lone Oak Rd
185,37.060234,-88.582834,Palmer St/Thurman St
658,37.085248,-88.604918,Jefferson St/N 9th St
552,37.083190,-88.600525,S 7th St/Washington St
185,36.998206,-88.524463,Verde Dr/Greenbrae Dr
160,36.991414,-88.494622,Wilton Cir
246,37.042241,-88.671765,Cumberland Ave
472,37.079748,-88.634118,Trimble St
276,37.044542,-88.567365,Valley St
246,37.060564,-88.636333,Goodman Dr
160,37.063613,-88.597777,Dav Dr/Green St/Irvin Cobb Dr
390,37.078117,-88.628788,N 25th St/Madison St
185,37.004199,-88.520325,Ridge Rd/Edwards Dr
246,37.075397,-88.654146,Bellevue Dr/Primrose Pl
216,37.018071,-88.675630,US Hwy 45
216,37.002825,-88.518686,Willow Lake Dr
185,37.009311,-88.508357,US Hwy 68/Kentucky Dam Rd
160,36.983055,-88.489879,Benton Rd
216,37.023340,-88.774799,Fisher Rd/Blandville Rd
185,37.002310,-88.532702,Stonegate Dr
390,37.046346,-88.697137,Blandville Rd
185,37.010688,-88.524174,Cascade Dr/Calvert Dr
472,37.064816,-88.636217,Parisa Dr/Jackson St
216,37.054976,-88.618207,Schneidman Rd
390,37.081894,-88.613196,Jefferson St/N 14th St
185,37.052932,-88.606140,Custis St
160,37.038759,-88.654650,Lakeview Dr/Milton Dr
305,37.090750,-88.636291,N 14th St
160,37.057922,-88.759474,Blackcreek Dr/Tribal Pl/Mesa Dr
185,37.031067,-88.678350,Ashcreek Rd/Lovelaceville Rd
216,37.085920,-88.615716,Martin Luther King Jr Dr/N 14th St
160,37.026835,-88.693318,Skylark Dr/Lovelaceville Rd
334,37.079029,-88.620247,Jefferson St
390,37.034860,-88.670397,Oregon St/Concord Ave
185,37.087956,-88.625459,Powell & Scott Dr S/Park Dr
276,37.030275,-88.685325,Phipps St/Lovelaceville Rd
362,37.034572,-88.660050,Illinois St/Atlanta Ave
305,37.081180,-88.648896,Roell Ct/Spring St
246,37.045409,-88.709162,Meadowlink Drive Nc/Meadow Links Dr
246,36.988663,-88.504538,/Benton Rd
185,37.068603,-88.630594,S 29th St/Adams St
160,36.942747,-88.694156,State Hwy 1820
276,37.046920,-88.567101,John L Puryear Dr/Bullard St
276,37.065857,-88.655409,/Idlewild Dr
579,37.057368,-88.635112,Stonebrook Dr
160,37.025704,-88.534726,Ic Ave/Epperson Rd
305,37.086142,-88.612131,N 12th St/Harrison St
445,37.087228,-88.599981,N 5th St/Jefferson St
305,36.993403,-88.511868,Benton Rd/Said Rd
891,37.072335,-88.701051,Hinkleville Rd
305,37.083615,-88.643973,Levin Ave/Park Ave
