Estimated daily crossings,Latitude,Longitude,Name
160,37.247035,-81.232019,Reid Ave/Liberty St
276,37.378014,-81.063396,Old Pisgah Rd
334,37.266832,-81.222421,Randolph Ter
246,37.342299,-81.155278,Knapp Ave
246,37.370283,-81.105190,Hueser Ave/High St/Heuser Ave
185,37.311782,-81.277125,/Nemours Rd
216,37.266736,-81.234906,Pulaski St//Rock St
246,37.245383,-81.220011,Bland Rd/US Hwy 460
185,37.314873,-81.225455,/Littlesburg Rd
160,37.324973,-81.309971,/Duhring St/N River St/Brick St
390,37.370904,-81.087877,Straley Ave/Thorn St
160,37.387182,-81.042810,Melrose Ln
185,37.426807,-81.038358,Unity Rd
160,37.371657,-81.098489,/Hale Ave
185,37.482120,-81.074821,/Eads Mill Rd
334,37.344861,-81.156530,/Maple Acres Rd
160,37.349640,-81.075447,Calm Pl
216,37.382361,-81.091995,Douglas Ave/Union Dr
418,37.261598,-81.187521,US Hwy 52
160,37.261905,-81.237017,Cherry St/Carolina Ave
160,37.390974,-81.056834,/Eads Mill
1563,37.362697,-81.052526,US Hwy 460
216,37.338440,-81.147825,/Glenwood Park Rd
160,37.358744,-81.025838,US Hwy 460
445,37.362311,-81.123012,3rd St/Guard Dr
499,37.425395,-81.014888,N State St/E Broadway St
305,37.369876,-81.090179,N 5th St/S 5th St/Thorn St
185,37.348849,-81.117354,/Morningside Dr
160,37.268172,-81.208787,Mintwood Rd/Elmwood Ave
160,37.424880,-81.023762,Holyrod Ln
334,37.277778,-81.143907,Old Co Rte 29 Section B Rd
185,37.244980,-81.225618,3 Springs Dr
418,37.362968,-81.075658,Raleigh St
445,37.316237,-81.265102,Lorton Lick Rd
160,37.356018,-81.145861,Pine Ridge Rd
216,37.279170,-81.248379,/Coal Heritage Rd
185,37.366801,-81.067905,/E Circle Dr
246,37.348413,-81.151429,Caudill Ct
246,37.302009,-81.154788,Lemay Ln
362,37.310844,-81.139822,/Old US 19 and Wv 71 Rd
185,37.376304,-81.077585,Gadd Ave/Ball St
362,37.391003,-81.052117,Carl Wade Rd/Broadway Apartment
276,37.366092,-81.072346,Oakvale Rd/Edgemont Dr
390,37.343658,-81.156003,Rae St/Jera-K St
185,37.512688,-81.012093,Chaweva Way/Pale Face Way
552,37.394813,-81.048213,Leah Dr/Brighton Cir
160,37.347590,-81.277647,Co Hwy 15/1/Goodwill Hollow Rd/Halls Rd
160,37.299719,-81.157845,Mercer Mall Rd
160,37.303889,-81.269359,Delta 68 Rd/Ridge
185,37.478874,-81.003186,State Rte 20
160,37.313640,-81.254745,Spurrier Rd/
160,37.344663,-81.159978,Rustic Hill Dr/Hager Dr
216,37.250591,-81.207465,/Leandrea Dr/Kyle Ct
160,37.379349,-81.066480,Red Ash Rd
216,37.371195,-81.090402,N 5th St/
1252,37.360391,-81.105924,/Bluefield Rd
499,37.250684,-81.235592,Ferndell Ave/
390,37.260905,-81.244100,/Mulberry St
185,37.244647,-81.222763,US Hwy 460
605,37.364067,-81.103681,South Ave/S Walker St
605,37.363702,-81.044229,US Hwy 460/Homestead Dr
160,37.354692,-81.252878,Virginia Gills St
631,37.266792,-81.227569,3rd St
216,37.454702,-81.064232,/I- 77
160,37.274131,-81.204995,Ronceverte St
418,37.312640,-81.260160,US Hwy 52/Old Wv 20
305,37.357405,-81.111656,Courthouse Rd
305,37.363196,-81.118862,C and W Trailer Pk
185,37.440535,-81.062953,/Eads Mill Rd
216,37.339697,-81.172509,Young Rowe
185,37.366410,-81.120722,Quail Valley Dr
1537,37.359513,-81.107047,Courthouse Rd
305,37.397463,-81.044975,Pershman Cir/Leah Dr/Providence Pl
276,37.364096,-81.086758,Brick St
246,37.379769,-81.109758,/Indian Rock Farm Rd
216,37.430212,-81.045454,/Unity Rd
445,37.365243,-81.069191,Oakvale Rd
445,37.313031,-81.260150,Nick St
216,37.327340,-81.146348,Elkview St/Fame Cr
160,37.264340,-81.221233,/Mineral St/Cooper St
160,37.475944,-81.275189,Clarks Gap-Flat Top Rd
362,37.364096,-81.079350,Saunders Ave
185,37.300228,-81.153398,Redden Village/
185,37.335667,-81.142122,Devin St
160,37.504137,-80.972732,State Rte 20
160,37.286070,-81.248771,Perdue Hollow Rd/Manassas Way
552,37.248909,-81.232838,Reid Ave/Whitethorn St
160,37.298888,-81.160330,/Mercer Mall Rd
246,37.357571,-81.100721,Garden Oaks
276,37.294147,-81.247795,/Littlesburg Rd
246,37.364272,-81.076996,Fayette St/Crotty St
276,37.305024,-81.261554,Pinnacle View Rd/Don Minnix Ln
216,37.375753,-81.078619,Gadd Ave/Peck St
216,37.511743,-81.012881,Cherokee Way/Pale Face Way
362,37.375119,-81.066050,Old Pisgah Rd
160,37.374545,-80.886370,Elgood Mountain Rd
334,37.342425,-81.158712,Dolittle Ln
216,37.368884,-81.119586,/Gott Rd
334,37.419502,-81.064834,/I- 77
362,37.337228,-81.169063,Buena Vista Dr/New Hope Rd
246,37.419708,-81.198103,Ruritian Ln
418,37.267618,-81.223754,Ramsey St/Russell St
276,37.361988,-81.060875,Elmore Ave/Elmore St/Thorne Ave
185,37.438990,-81.119509,Beckley Rd
305,37.362620,-81.124078,New Hope Rd/Hurst St
160,37.370821,-81.107412,Heuser Ave
216,37.374470,-81.080453,/Westview Ave
160,37.472832,-81.006906,Lilly Pond Rd
1046,37.248907,-81.228736,Walton Ave/Lebanon St
305,37.338665,-81.174664,Sandlick Rd/
216,37.322481,-81.139675,Shadetree Cir
185,37.353957,-81.109458,/Old Bluefield Rd
246,37.260561,-81.241936,Lynn St/Belmont Ave
160,37.464557,-81.011744,State Rte 20
362,37.323347,-81.134615,Big Laurel Hwy
216,37.275662,-81.246445,Coal Heritage Rd
160,37.299291,-81.158557,Mercer Mall Rd
185,37.343278,-80.956070,Goodwins Chapel Rd/US Hwy 460
631,37.373851,-81.076176,/Old Athens Rd
216,37.353561,-81.150028,New Hope Rd/Clemson Cir
185,37.371243,-81.078315,Prince St/N Caperton Ave
160,37.417551,-81.244733,Bailey St
185,37.354954,-80.874953,Kellys Tank Rd
160,37.314567,-81.225096,/Littlesburg Rd
305,37.373901,-81.077629,Robbin St
216,37.282715,-81.276777,Brushfork Falls Mill Rd
185,37.261415,-81.210675,/Monterey Hill Rd
305,37.436324,-81.071838,Thunder Valley Dr
552,37.308517,-81.258677,US Hwy 52/Camella Dr
160,37.511447,-81.013232,Pawnee Way/Pale Face Way
276,37.339031,-81.104669,/Mapledale Dairy Rd
160,37.365349,-81.107985,Cemetery Rd
160,37.426303,-81.164268,Foxcrest Pl
499,37.256228,-81.224759,/Woodland Ave
216,37.426141,-81.013619,State Rte 20
1071,37.422493,-81.010183,Narrow St/Weaver St
246,37.341055,-81.131170,Cassat
160,37.267696,-81.230469,Allen St
160,37.269402,-81.224497,Russell St/Princeton Ave
334,37.369111,-81.079693,S Caperton Ave/Thorn St
160,37.351184,-81.074717,Ambrose Ln
276,37.406382,-81.031858,State Rte 20/Monticello Ests
160,37.426491,-81.015938,N State St
160,37.299771,-81.148940,/Country Girl Rd
160,37.392071,-81.147915,Acorn Ln
160,37.336604,-81.244412,Lorton Lick Rd
160,37.359715,-81.084365,Roseland Ave/Bluestone Access Rd
334,37.366262,-81.113264,Glendale Ave
246,37.374579,-81.092833,Reynolds Ave
160,37.436388,-81.061938,Sandbranch Rd/Eads Mill Rd
418,37.432897,-81.065322,I- 77
334,37.338534,-81.167361,Sandlick Rd/New Hope Rd
160,37.370294,-81.067322,E Grandview Addition
276,37.344580,-81.148028,Olen Ave
160,37.369284,-81.124509,Osprey Pl/Quail Valley Dr
160,37.368502,-81.041482,Industrial Aly
160,37.370785,-81.075450,Butler St/Young Ave
185,37.275464,-81.153057,Cumberland Rd
185,37.350765,-81.048873,/Greasy Ridge Rd
246,37.406096,-81.040108,/State Rte 20
185,37.366227,-81.055539,E Reynolds Ave/Old Oakvale Rd
276,37.361165,-81.112168,Emory Ave
160,37.264059,-81.229668,Pendleton Ter/Hinton St
605,37.365239,-81.116930,New Hope Rd/Quail Valley Dr
160,37.323849,-81.311982,Bramwell-Pocahontas Ave/Bloch Rd
160,37.303741,-81.244770,Red Oak Ridge
160,37.378937,-81.025339,Pisgah Rd
160,37.256821,-81.253677,Adams St/Hale St
418,37.248841,-81.238027,Golf Ave/College Ave
246,37.272452,-81.165492,/US Hwy 460
185,37.291278,-81.254417,Littlesburg Rd
160,37.340078,-81.140763,Old Pepsi Rd
216,37.382818,-81.104343,/Regency Dr/Regal Ct
160,37.345546,-81.154975,Kramer Pl
160,37.340778,-81.136198,Oak Ledge Ln/Breezehill St
305,37.381918,-81.054013,Teresa St/Bailey Hollow Rd
246,37.288204,-81.259531,/Old Secondary 23 Rd
160,37.465110,-81.011710,State Rte 20
216,37.378751,-81.103695,Park Ave
246,37.359237,-81.089338,/12 Mile Rd
526,37.250241,-81.235341,Ferndell Ave/College Ave
658,37.363587,-81.094557,Trent St/Stafford Dr
246,37.309189,-81.262071,Laurel St
390,37.337277,-81.150061,/Glenwood Park Rd
276,37.369696,-81.079334,/N Caperton Ave
334,37.417005,-81.013056,/Cemetery Rd
216,37.302273,-81.252174,/Old US 52 Rd
160,37.305198,-81.269998,Pinnacle Vw
185,37.384097,-81.094443,Douglas Ave
185,37.298598,-81.161254,Mercer Mall Rd
305,37.356700,-81.097200,US Hwy 460
185,37.401155,-81.170077,Mount Olive Rd/Rock River Rd
334,37.377485,-81.066148,State Rte 20
216,37.270141,-81.183345,Horton Rd
276,37.435650,-81.070045,Begonia Way
185,37.319511,-81.133291,Goldcrest Ln
160,37.316133,-81.254335,New Hope Rd
216,37.410414,-81.039458,Mercer Springs Rd
390,37.381228,-81.048305,Sycamore Ct/
185,37.344042,-81.118785,US Hwy 460
160,37.354419,-81.118656,Hundley St/Kirkwood Ave
216,37.428991,-81.100762,Moore Hollow Rd/
710,37.257586,-81.218122,Gilmer St/Bland Rd
334,37.309275,-81.138199,/Big Laurel Hwy
1071,37.246554,-81.241752,/College Ave
185,37.423400,-81.174265,/Reese Harmon Ridge Rd
185,37.278230,-81.236694,/Dixie Dr
160,37.273544,-81.160522,US Hwy 52/Cumberland Rd
185,37.285233,-81.252734,Davidson Mobile Village
160,37.361543,-80.895636,Adairs Run Rd
185,37.368570,-81.089174,Bluefield Ave/S 4th St
160,37.377213,-81.092977,Washington Ave
499,37.425469,-81.064757,Poor Farm Ln
160,37.357652,-81.231129,Old Wv 71 Rd
160,37.427062,-81.016587,N State St/Wellswood Rd
276,37.447647,-81.066724,I- 77
185,37.264943,-81.222524,Genoa Ave/Nassau Ct
185,37.429151,-81.105266,/Kegley River Rd
246,37.366520,-81.119917,Quail Valley Dr/Bluejay Ct
160,37.419828,-81.194037,/Summerhill St
216,37.370910,-81.084197,Straley Ave
185,37.340220,-81.143265,Glenwood Rd
1071,37.367385,-81.103701,Honaker St
185,37.330360,-81.129046,/Shelter Rd
160,37.375654,-81.126289,Tanager Ln/Skylark Ln
276,37.372851,-81.089436,N 4th St
305,37.418231,-81.064313,I- 77
185,37.417646,-81.245986,Bailey St/Circle Dr
334,37.311279,-81.139537,Old US 19 and Wv 71 Rd
631,37.365791,-81.102001,/E Main St
160,37.257859,-81.255265,Bluefield Ave
445,37.342251,-81.153247,Windy Hill Dr/Maple Acres Rd
160,37.423955,-81.191599,Freshair Ln
334,37.277487,-81.143724,Old Co Rte 29 Section B Rd
216,37.271640,-81.166166,Bailey Dr
185,37.347429,-81.110448,/Old Bluefield Rd
160,37.269316,-81.202892,Union St
246,37.343952,-81.149690,Elder Ave
362,37.421353,-81.016633,Caldwell St
276,37.296350,-81.164359,Mercer Mall Rd
185,37.269992,-81.171959,Linkous Dr
160,37.274486,-81.216476,/Greenbrier St/Logan St
185,37.332795,-81.178208,Windy Oaks Dr/New Hope Rd
390,37.255204,-81.211563,/Bland Rd
390,37.365317,-81.069460,Oakvale Rd/Old Oakvale Rd
185,37.309191,-81.139562,/Mapledale Ln
216,37.383288,-81.103502,Royal Ct W
160,37.392062,-81.057550,Eads Mill
631,37.342145,-81.126679,Big Laurel Hwy/US Hwy 460/Courthouse Rd
160,37.401589,-81.188200,Jasmine Dr
160,37.399691,-81.126898,Kegley Rd
276,37.338586,-81.174263,Sandlick Rd/Young Rowe
472,37.368110,-81.098300,West St/Thorn St
160,37.398950,-81.127062,/Kegley Rd
1149,37.367130,-81.102763,/Honaker St
185,37.322517,-81.138717,Shadetree Cir
390,37.284510,-81.125341,Old Cumberland Rd/I- 77/Cumberland Rd
160,37.376459,-81.100014,Hinton St
813,37.422391,-81.015951,Caperton St/S State St
160,37.352893,-81.123171,/Sandrine Pt
246,37.332271,-81.150091,Buckeye Hollow Rd
160,37.281605,-81.255910,Old Bramwell Rd
362,37.375070,-81.106989,Pine St/Church St
334,37.366686,-81.113763,/Bailey Ln
185,37.252501,-81.208797,W Cumberland Rd/Bland Rd/E Cumberland Rd
276,37.294022,-81.179415,/Bull Tail Hollow Rd
185,37.342648,-81.155730,Knapp Ave/Boggs St
246,37.254189,-81.232367,Lyndale Ave
246,37.390169,-81.054993,Simmons Cir
185,37.383615,-81.110240,Hillcrest Dr
362,37.587496,-81.124296,I- 77
216,37.319703,-81.135087,Rainbow Rd/Big Laurel Hwy
185,37.370428,-81.106029,Karnes St/Heuser Ave
185,37.340594,-81.248493,Kade Hollow Rd
185,37.446524,-81.120886,Nubbins Ridge Rd/
216,37.296821,-81.261525,Oakpark St/Left Ave
160,37.324946,-81.311618,/Bloch Rd/Brick St
216,37.313222,-81.259633,Nick St
216,37.243937,-81.228100,US Hwy 460
185,37.251290,-81.234092,Augusta St/Copley Ave
160,37.341795,-81.141501,/Glenwood Haven Rd
160,37.271910,-81.217203,Grant St
185,37.257308,-81.250128,/Tulip St
160,37.417889,-81.192219,Matoaka Rd/Spanishburg Rd
185,37.355171,-80.895743,Christie Rd
216,37.340763,-81.170159,Lennox Ln/Azalia St
160,37.524468,-81.101050,/Dunns Rd
160,37.514361,-81.012245,/Hodi Way
185,37.429247,-81.067001,I- 77
185,37.377515,-81.120086,Fairview St
305,37.360532,-81.057792,Mars Dr/Elmore Rd
579,37.369581,-81.097301,Center St
658,37.283378,-81.250651,/Coal Heritage Rd
917,37.246065,-81.240582,Ohio St
185,37.276610,-81.213452,Norfolk St/Putnam St
216,37.373123,-81.087125,/N 2nd St/Lee Ave
185,37.302055,-81.093657,I- 77
334,37.479653,-81.073782,I- 77
499,37.407067,-81.195786,Gillespie Rd
160,37.323867,-81.212713,/New Hope Rd
1433,37.366074,-81.103028,Scott St/N Walker St/W Main St
390,37.470310,-81.067049,I- 77/Eads Mill Rd
216,37.524822,-81.108664,I- 77
185,37.266532,-81.224612,Randolph Ter/Holly St/Tazewell Ave
185,37.403511,-81.157475,Priv Ln
216,37.382660,-81.104895,Low Gap Rd/Regency Dr
160,37.368259,-81.120628,Partridge Dr
160,37.366410,-81.066048,/Old Oakvale Rd
216,37.372367,-81.104276,/Circle Dr
246,37.253850,-81.216180,Elwood St/Jefferson St
390,37.357835,-81.110647,/Courthouse Rd
499,37.367510,-81.095866,Bee St/S 9th St
160,37.375625,-81.106264,Upper Pine St
246,37.377306,-81.100495,Meador St
276,37.304715,-81.157073,State Rte 123
216,37.274507,-81.245963,/Coal Heritage Rd
390,37.362265,-81.078578,Berkley St/Locust St
246,37.265652,-81.182045,Horton Rd/E Cumberland Rd
362,37.391566,-81.055180,Simmons Cir
160,37.350945,-81.151012,Petty Rd
160,37.417272,-81.197060,Lashmeet Rd
185,37.377902,-81.073310,/N McNutt Ave
839,37.249599,-81.217490,/W Cumberland Dr/W Cumberland Rd
160,37.271704,-81.224367,Fairfax St/E Fairfax St
185,37.252272,-81.230493,Montclair St
305,37.381107,-81.105093,Edward Dr/Charlotte St
160,37.344739,-81.144861,Raintree Ln/Kirby Addition
276,37.374407,-81.077439,/Peck St
185,37.333216,-81.149962,/Maple Acres Rd
160,37.366176,-81.249529,/Hubbard-Hale Rd
276,37.267818,-81.235390,Rock St
160,37.505237,-81.134681,/Camp Creek Rd
418,37.247333,-81.236587,Golf Ave/Whitethorn St
839,37.365425,-81.104505,Wallace St/Princeton Ave
160,37.324567,-81.311606,Rose St/Bloch Rd
216,37.378866,-81.026975,Green Acres
160,37.310979,-81.277060,Gillion Rd
216,37.366469,-81.082840,S Wickham Ave
390,37.361509,-81.077716,US Hwy 460
390,37.563381,-81.114227,Hugh Lilly Rd/Beckley Rd
246,37.363920,-81.086613,Brick St
334,37.268505,-81.220903,Scott St/Yadkin St
185,37.343182,-81.129910,/Green Valley Rd
658,37.359639,-81.098501,Ingleside Rd/
160,37.389695,-81.056545,/Eads Mill
160,37.380156,-81.107635,/Basin Pl/East Dr
185,37.439635,-81.120702,Beckley Rd
185,37.342973,-81.127606,/Green Valley Rd
216,37.358638,-81.113367,Middlesex Ave
160,37.502080,-80.977201,Catie Ln/State Rte 20
185,37.288178,-81.166959,Big Laurel Hwy
276,37.258901,-81.247019,Balsam St
160,37.424886,-81.024210,/Holyrod Ln
684,37.245984,-81.239765,Blair Ave
605,37.266727,-81.231203,Bluefield Ave
216,37.348046,-81.172070,Teaberry St
246,37.374177,-81.113073,McDowell St/Beckley Rd
362,37.356448,-81.113902,Courthouse Rd/Overholt Ave
216,37.425413,-81.016924,/W Broadway St
185,37.363848,-81.336869,/Old Coaldale Mountain Rd
185,37.381476,-81.089785,Douglas Ave
185,37.306166,-81.260912,/Circle Drive Rd/Camella Dr
305,37.370223,-81.089168,N 4th St/Thorn St
185,37.263078,-81.209198,Mountain View Ave/Spring Garden Dr
631,37.269221,-81.223135,Bland St/McCulloch Ave
216,37.364690,-81.122874,2nd St
185,37.363858,-81.336561,Old Coaldale Mountain Rd
160,37.380155,-81.107686,/East Dr
276,37.435736,-81.070951,/Dusty Miller Rd/Marigold Cir/Begonia Way
160,37.363106,-81.064988,Fern St/Charlotte Ave
246,37.303926,-81.140165,Big Laurel Hwy
246,37.309708,-81.264521,Hastings St
216,37.317479,-81.268718,US Hwy 52
160,37.343188,-81.275614,Whittaker Hollow
445,37.499049,-81.108342,I- 77
160,37.371424,-81.106160,High St
160,37.306067,-81.148400,State Rte 123
246,37.258039,-81.212639,Parkway Ave/Ledge St
160,37.405216,-81.139987,State Rte 10/Beckley Rd
160,37.421756,-81.198601,/Platte St
216,37.311490,-81.143747,Blue Spruce Ln/Clary Dr
390,37.367678,-81.119082,/Gott Rd
246,37.282068,-81.125085,I- 77
216,37.270542,-81.216892,/Virginia Ct
160,37.340051,-81.105871,Mapledale Dairy Rd
216,37.341855,-81.149560,Summerfield Rd
276,37.317972,-81.059189,/I- 77
160,37.488055,-80.989309,Old Lerona Rd/State Rte 20
185,37.305132,-81.157970,/State Rte 123
160,37.308132,-81.141625,Old US 19 and Wv 71 Rd
185,37.294953,-81.196983,/Airport Rd
160,37.347968,-81.108891,Winfrey Ln/Willowbrook Rd
160,37.320743,-81.296502,US Hwy 52
160,37.306482,-81.226191,/Littlesburg Rd
185,37.323617,-81.139362,Countryside Rd
160,37.315047,-81.260938,Frankie St
334,37.266012,-81.226478,Tyler St/5th St
276,37.410164,-81.023337,State Rte 20
160,37.442056,-81.020385,Road To 3/5 Rd
160,37.394849,-81.039229,Redden Estates St/Morning Star
160,37.340519,-81.141519,Glenwood Haven Rd/Glenwood Rd/Green Valley Rd
1459,37.362782,-81.056689,Oney Gap-Stinson School Rd/Oakvale Rd
334,37.369905,-81.089914,Mercer St/Thorn St
160,37.355427,-81.147746,/Grannys Ln/New Hope Rd
216,37.381765,-81.095053,Thornton Ave/Bowling St
499,37.256186,-81.218376,Spring Grove Ave
185,37.275551,-81.210453,Carter St/Wayne St
160,37.378507,-81.066768,Red Ash Rd
160,37.386135,-81.086585,Union Dr
216,37.372125,-81.111006,Booker St
526,37.367938,-81.098526,/Thorn St
185,37.368297,-81.018729,/Halls Ridge Rd
160,37.390617,-81.065853,/Impassable Gate
160,37.376741,-81.018930,Grubb Rd
216,37.336957,-81.171278,/Lakeside Dr
216,37.378810,-81.104157,Low Gap Rd/Damewood Ave
160,37.298810,-81.245698,Littlesburg Rd
334,37.380261,-81.104267,Low Gap Rd/East Dr
216,37.269071,-81.175514,Cumberland Rd
160,37.317177,-81.217257,Lear Ln
246,37.328660,-81.130461,Big Laurel Hwy
185,37.314707,-81.259737,New Hope Rd
334,37.369251,-81.110496,Honaker St
334,37.366873,-81.095098,/Bee St/Ritchie St
362,37.350904,-81.109558,Pleasant Valley/Peppermint St
160,37.351021,-81.152936,New Hope Rd
1020,37.424190,-81.020894,Violets Way
160,37.400138,-81.113044,Co Rte 7/1
216,37.394466,-81.040834,/State Rte 20
276,37.356496,-81.114161,City View Hts
362,37.266751,-81.225895,4th St/S Mercer St
305,37.285882,-81.251997,Emerald St/Coal Heritage Rd
305,37.339384,-81.133066,/Village Green Cir
246,37.270626,-81.217495,Wyoming St/Monroe St
185,37.326418,-81.140202,Maple Acres Rd
160,37.266074,-81.220756,Vine St
631,37.269372,-81.222469,Federal St/McCulloch Ave
160,37.311766,-81.316109,State Rte 102/Cricket St
185,37.379387,-81.027405,/Green Acres
160,37.360276,-81.085099,US Hwy 460
276,37.388890,-81.050836,State Rte 20/Athens Rd/Carl Wade Rd
160,37.376737,-81.093015,Washington Ave/Christie Ave
605,37.365228,-81.116960,Springhaven Dr/New Hope Rd
160,37.362796,-81.037168,/Halls Ridge Rd/Old Johnson Chapel Rd
160,37.320400,-81.296352,/US Hwy 52
185,37.358806,-81.121894,Village Glen
552,37.363984,-81.083758,S Wickham Ave/Rogers St
305,37.362424,-81.049099,I- 77
216,37.255741,-81.229303,Luther St/Lyndale Ave
276,37.548469,-81.114267,/Fairview Sc 2/2 Rd
160,37.344481,-81.144830,/Kirby Addition
216,37.413927,-81.060784,Plato Pl/Eads Mill
185,37.272753,-81.164849,US Hwy 460
362,37.365221,-81.114697,Morrison Dr
246,37.302327,-81.093656,I- 77
418,37.365501,-81.090958,Maple St/Lazenby Ave
968,37.249449,-81.230932,Whitethorn St
1071,37.249782,-81.229747,Whitethorn St
160,37.426633,-81.200330,/Gillenwater Ln
246,37.405173,-81.151874,Matoaka Rd/Pago St/
216,37.344216,-81.118023,US Hwy 460
216,37.344716,-81.170200,Pinewood Dr/Sassafras Ln
305,37.372549,-81.111930,Vine St/Beckley Rd
216,37.264766,-81.232040,Chestnut St
526,37.368892,-81.099607,/West St
160,37.371352,-81.120432,Mockingbird Pl
185,37.348838,-81.117340,Morningside Dr
160,37.322932,-81.137936,/Shadetree Cir
160,37.345169,-81.112697,/Winfrey Ln
216,37.340496,-81.137974,Green Valley Rd
390,37.425145,-81.063319,/Eads Mill Rd/Mercer Springs Rd
160,37.283829,-81.223967,Stoney Ridge Rd
246,37.376335,-81.070956,/Murdock St Exd
362,37.362278,-81.062630,Fern St
160,37.252953,-81.229517,City Vw/Farmer St
658,37.250378,-81.231465,Maryland Ave/College Ave
216,37.274725,-81.246066,Labrador Dr/Coal Heritage Rd
160,37.361913,-81.084678,Shufflebarger St
305,37.386118,-81.052666,Pisgah Rd
160,37.252724,-81.207621,E Cumberland Rd/Henderson Dr
917,37.249415,-81.231056,Maryland Ave/Whitethorn St
160,37.299030,-81.245029,Maze Pl/Littlesburg Falls Mill Rd/Littlesburg Rd
305,37.423477,-81.018070,W Vermillion St
160,37.379212,-81.094200,Flint St
160,37.310912,-81.143086,Dill Ln
246,37.417225,-81.011982,Cemetery Rd
160,37.358122,-81.029707,/Hilltop Dr
246,37.375143,-81.079598,Robbin St/Gadd Ave
160,37.326815,-81.144541,Redsky Rd/Autrey Pl
160,37.256746,-81.252648,/Belmont Ave
160,37.253326,-81.203040,Christie Manor Dr
305,37.375324,-81.076167,Ball St/Kirby Ave
334,37.364154,-81.111990,Valley View St
216,37.270706,-81.216883,Wyoming St/
160,37.344328,-80.985317,/Goodwins Chapel Rd
276,37.372192,-81.074848,Oliver Ave
362,37.340021,-81.133036,Orange Ln
362,37.248796,-81.244603,/Stadium Dr
185,37.272660,-81.164940,/US Hwy 460
160,37.368032,-81.121152,Partridge Dr/Falcon Ln
160,37.307061,-81.173282,State Rte 123/Oldedison Rd
185,37.289721,-81.255846,Old Secondary 23 Rd
216,37.341780,-81.161776,New Hope Rd/Allenwood
160,37.366591,-81.062659,Chase Ln
605,37.363031,-81.060949,Oakvale Rd
160,37.263550,-81.205099,Edgewood Rd
526,37.252512,-81.223981,E River Ave/Albemarle St
160,37.383106,-81.119949,Puppy Ln
160,37.344901,-81.061522,Deer Mountain Dr
160,37.419852,-81.241729,/1st Ave
305,37.368743,-81.079965,S Caperton Ave
445,37.260229,-81.220357,Bland St/Preston St
160,37.385197,-81.096645,Sunrise Ave/Sunrise Exd
246,37.283280,-81.275158,Brushfork Falls Mill Rd
160,37.378984,-81.075473,Mink Farm Rd
160,37.376187,-81.091682,Silver Spring St/Thornton Ave/N Walker St
334,37.338737,-81.174989,Sandlick Rd/
160,37.309734,-81.160392,Julie Hts/Shermanoaks Rd
160,37.350572,-81.122076,/Blackoak-Black Lick Rd/Hunter Park
185,37.302027,-81.156826,Mercer Mall Rd
160,37.408007,-80.962530,/Pisgah Rd
305,37.250581,-81.217295,Toledo St/Fulton St
185,37.262761,-81.238913,Poplar St
334,37.253019,-81.218282,Stone Rd/Toledo St
1355,37.366363,-81.104111,W Main St
185,37.296173,-81.164659,/Mercer Mall Rd
334,37.285712,-81.251909,Davidson Mobile Village/Coal Heritage Rd
216,37.375117,-81.073648,/Lacy St/N McNutt Ave
445,37.370654,-81.091636,N 7th St/Straley Ave
185,37.459332,-81.010825,/State Rte 20
216,37.375066,-81.073660,/Mitchell Ct/N McNutt Ave
216,37.368836,-81.127067,Plover Pl/Redknot St
160,37.327658,-81.131141,Big Laurel Hwy
334,37.365515,-81.077700,Crotty St/Rogers St
160,37.266129,-81.184659,Brierwood Ct/Tower Rd
246,37.421085,-81.060383,Mercer Springs Rd
334,37.345708,-81.150638,/Borage Ave
160,37.380034,-81.094176,Flint St
362,37.252897,-81.237310,Ola Ave/Stadium Dr
185,37.385308,-81.092872,/Gayle St
246,37.260452,-81.192715,/Edgemont Dr
160,37.306175,-81.148326,/State Rte 123
216,37.353200,-81.101246,US Hwy 460
160,37.260067,-81.223485,Knox St/Roy Ave
246,37.266267,-81.224819,/Cole St/High St
305,37.257611,-81.216633,Bland Rd/Oakhurst Ave
185,37.369162,-81.089242,S 4th St/Harrison St
2009,37.361467,-81.052870,Meadowfield Ln
185,37.330447,-81.129746,/Big Laurel Hwy
246,37.382870,-81.103163,Royal Ct E
276,37.290659,-81.254481,Coal Heritage Rd
160,37.373738,-81.100439,Hale Ave/Christie Ave
276,37.379891,-81.048720,Rosewood Dr
185,37.353315,-81.117365,Courthouse Rd
276,37.367720,-81.109492,New Hope Rd/Cemetery Rd
160,37.285501,-81.255737,State Rte 123/Old Bramwell Rd
216,37.284177,-81.168044,Country Girl/Big Laurel Hwy/Old US 19 and Wv 71 Rd
160,37.249035,-81.223648,Pearl St/Pearl St Exd
362,37.290767,-81.123411,/I- 77
160,37.265119,-81.194201,Hilltop Ln
334,37.368046,-81.114371,Bailey St/Elmer St
160,37.298890,-81.186578,/Airport Rd
526,37.368760,-81.072784,1st Ave
160,37.324767,-81.256177,/Lorton Lick Rd
499,37.360891,-81.111150,Hillside Dr/Emory Ave
160,37.350452,-81.242684,/Gypsum Ave
216,37.366375,-81.119805,Bluejay Ct
160,37.370438,-81.056135,Christian Fork Loop/Nice St
185,37.328262,-81.203322,New Hope Rd
160,37.372412,-81.105600,Pine St//Hunt St
276,37.296351,-81.164444,Mercer Mall Rd
185,37.437963,-81.070938,Thunder Valley Dr
305,37.346502,-81.123521,Courthouse Rd
246,37.292856,-81.165751,Mercer Mall Rd
160,37.369931,-81.073183,Butler St
185,37.340460,-81.130520,Merrit/Village Green Cir
216,37.347949,-81.152189,Wolf Run Rd
418,37.255400,-81.219047,/Albemarle St
246,37.359650,-81.089530,12 Mile Rd/US Hwy 460
160,37.260771,-81.198575,Heatherwood Rd/Castlewood Ln
160,37.320241,-81.296226,US Hwy 52/Pinnacle Rock Memours Rd
216,37.377982,-81.030072,/Green Acres
762,37.363520,-81.114187,Morrison Dr
160,37.306372,-81.160428,Shermanoaks Rd/
472,37.425736,-81.014906,State Rte 20
216,37.420004,-81.250428,/N Thompson Hill/N Thompson St
185,37.362454,-81.082117,Wood Ave
185,37.343084,-81.162024,Allenwood Pl/Carr Ln
246,37.285430,-81.252394,/Davidson Mobile Village
246,37.277654,-81.236789,Dixie Dr
472,37.308875,-81.145201,/State Rte 123
160,37.284030,-81.253303,/State Rte 123
334,37.284424,-81.125608,/Cumberland Rd
390,37.364645,-81.098345,Ingleside Rd/E Main St
185,37.370424,-81.055280,Christian Fork Loop/Lance St
472,37.362815,-81.077403,Berkley St
216,37.327315,-81.259878,/Dogwood Hills Rd
246,37.342375,-81.158132,Griffith Ln
526,37.253425,-81.221756,Wythe Ave//Albemarle St
160,37.424734,-81.071900,Spanishburg-Athens Rd
160,37.280636,-81.255928,Old Bramwell Rd
185,37.257999,-81.234197,Cherry St
160,37.336644,-81.244441,Cleary Ln/Lorton Lick Rd
362,37.269647,-81.173343,Cumberland Rd
276,37.367301,-81.109677,Cemetery Rd
246,37.373302,-81.074690,N McNutt Ave/Roth St
160,37.359614,-81.084338,Roseland Ave//Roller Ln
160,37.418012,-81.047654,Beaver Branch
216,37.354226,-81.101153,Old Bluefield Rd
1485,37.366116,-81.103183,/W Main St
160,37.377872,-81.101797,Lilly St/Park Ave
185,37.381780,-81.063147,State Rte 20
185,37.363872,-81.077343,Fayette St
276,37.317250,-81.247647,New Hope Rd
185,37.279503,-81.247870,Cass Ln
160,37.439029,-81.058893,/Sandbranch Rd
362,37.369939,-81.087522,Mercer St/S 3rd St
216,37.271776,-81.166204,US Hwy 460
185,37.260289,-81.200233,Longview Ave/Fairfield Ave
160,37.317109,-81.131246,/Clover Dew Dairy Rd
334,37.254511,-81.233411,Lyndale Ave/Cherry St
362,37.343102,-81.157202,Casey St/Jera-K St
246,37.268097,-81.220682,Yadkin St
216,37.326900,-81.147346,Pansy Pl
160,37.380213,-81.073665,/Old Athens Rd
160,37.349926,-81.254008,/Methodist Hill Rd
246,37.256812,-81.222115,Jefferson St
418,37.388747,-81.055828,Eads Mill/Pendleton Pl
216,37.361607,-81.121496,Kim St
185,37.400532,-80.985390,Pisgoh/Low Gap - 24/2 Rd
160,37.299201,-81.159565,/Maple View Rd
216,37.335471,-81.150327,/Maple Acres Rd
216,37.249284,-81.222937,/Pearl St Exd/E River Ave
216,37.315557,-81.262307,Dogwood Ln/Gypsum St
418,37.253736,-81.217840,Washington St/Toledo St
160,37.354110,-81.005083,/Halls Ridge Rd
445,37.257472,-81.223079,North St/Pen Mar Ave
216,37.362423,-81.080666,Hearn Ave
185,37.353823,-81.118008,/City View Hts
185,37.418138,-81.192444,Matoaka Rd/
526,37.425850,-81.063305,Eads Mill Rd
160,37.319075,-81.239807,Houston Rd/Co Hwy 20/8
362,37.371678,-81.097091,Park Ave/Front St
276,37.327348,-81.060002,I- 77
160,37.378108,-81.055195,Old Pisgah Rd/Sunny Dr
185,37.269227,-81.219601,Commerce St/Scott St
684,37.267058,-81.226888,Tyler St/3rd St
185,37.276493,-81.212185,Virginia St
160,37.294854,-81.104312,Jugneck-Cumberland Big Spring Rd
246,37.365840,-81.080664,Meadow St
579,37.362918,-81.060510,Oakvale Rd/Thorne Ave
3364,37.425193,-81.007010,/College Courts Apartments
160,37.419611,-81.237666,Lick Branch Rd
276,37.362358,-81.102070,Justin Jesse St/Esther St
160,37.250203,-81.221122,Orchard St
246,37.264246,-81.236982,Pine St/Bluefield Ave
160,37.366682,-80.867612,Sartin St
160,37.341926,-81.144770,/Kirby Addition
994,37.249655,-81.230146,Whitethorn St
334,37.268476,-81.220976,Scott St/Edward Ter
160,37.383496,-81.094945,Spring Grove Ave
185,37.456044,-81.009930,State Rte 20
160,37.452417,-81.106146,/Beckley Rd
216,37.376742,-81.100171,/Park Ave
362,37.362830,-81.123498,3rd St/New Hope Rd
334,37.379839,-81.047450,Cottonwood Ct
216,37.267105,-81.221162,/High St
362,37.285106,-81.123780,/Old Cumberland Rd
160,37.267992,-81.208820,Elmwood Ave
276,37.370265,-81.090238,N 5th St
160,37.524688,-81.107825,Beckley Rd
160,37.379557,-81.027537,Green Acres
526,37.358402,-81.097320,Ingleside Rd
185,37.276625,-81.147612,/Old Co Rte 29 Section A Rd
160,37.354075,-81.249413,5th St/Main St
160,37.270332,-81.183384,Oxenford Rd/Horton Rd
246,37.351234,-81.150641,Howard Ln
185,37.514386,-81.012937,/Seneca Way
216,37.367543,-81.129608,Potomac Ln/Shenandoah Ests
160,37.261718,-81.203650,Heatherwood Rd/Mountain View Ave
276,37.367655,-81.064632,Shadowood Ln/Southview Dr
276,37.368614,-81.080056,S Caperton Ave
334,37.361284,-81.077868,/US Hwy 460
160,37.274614,-81.202971,Franklin St/Ronceverte St
160,37.348381,-81.109732,Willowbrook Rd
185,37.255679,-81.213997,Grandview Hts/Grandview Ave
472,37.338183,-81.165485,Faith Ln
445,37.249646,-81.238789,Augusta St/Golf Ave
305,37.280578,-81.249746,Pollard Ave
246,37.421934,-81.066598,I- 77
160,37.360507,-81.082808,US Hwy 460
246,37.341830,-81.161623,/Allenwood Pl/New Hope Rd
185,37.348073,-81.122095,/Courthouse Rd
185,37.377267,-81.078840,McKinley Ave
276,37.362960,-81.105468,10th St/Wallace St
160,37.305823,-81.237905,/Dinger Rd
185,37.296574,-81.261460,Bottom St
185,37.276142,-81.151104,/Old Co Rte 29 Section A Rd
216,37.350880,-81.116895,/Morningside Dr
216,37.391597,-81.130770,Beckley Rd
160,37.293529,-81.248545,/Littlesburg Rd
246,37.369013,-81.125817,Osprey Pl
246,37.591637,-81.127168,Huff Knob Rd
160,37.290169,-81.194489,/Bull Tail Hollow Rd
418,37.295245,-81.170589,/Bull Tail Hollow Rd
418,37.340969,-81.152984,Alabama Ave/Crawford St
185,37.341510,-81.133030,Breeze Hill St/Breezehill St
472,37.358561,-81.107272,/Union St
276,37.390039,-81.051522,Carl Wade Rd/Meadowbrook Mhp
160,37.374995,-81.110092,High St
160,37.265153,-81.196560,Sunrise Dr/Grassy Branch Rd
246,37.380207,-81.109734,Indian Rock Farm Rd/Valley Dr
305,37.336663,-81.060151,/I- 77
160,37.322336,-81.136583,/Maples Acres
362,37.261488,-81.188706,/E Cumberland Rd
276,37.257133,-81.234067,Cherry St
160,37.296515,-81.260277,Oakpark Dr/Bottom St
246,37.369496,-81.111476,Honaker St/Tracy St
305,37.436163,-81.071852,Jason Ave/Thunder Valley Dr
276,37.493105,-81.092424,I- 77
305,37.284253,-81.125530,I- 77
499,37.364158,-81.074437,Fayette St
185,37.330636,-81.152561,Cleveland Pl/Buckeye Hollow Rd
246,37.292712,-81.165175,/Big Laurel Hwy
390,37.354395,-81.116395,Courthouse Rd
246,37.374833,-81.113548,/Beckley Rd
334,37.401455,-81.041173,/State Rte 20
160,37.363577,-81.125971,Hurst St
185,37.266145,-81.186455,Beacon St
160,37.370106,-81.075811,Prince St/Young Ave
160,37.284059,-81.273745,Coppola Mobile Home Park
160,37.351927,-81.249321,5th St
246,37.245184,-81.220664,/US Hwy 460
160,37.384058,-81.066695,/Old Athens Rd/Duncan Rd
185,37.319212,-81.133333,Rainbow Rd
185,37.359296,-81.123176,Mobile Ln/Village Glen
305,37.260732,-81.245968,Bluefield Ave/Alder St
276,37.485946,-81.078123,Eads Mill Rd
185,37.390778,-81.131020,Orange Ln/Beckley Rd
185,37.355120,-80.895781,Christie Rd
684,37.370566,-81.093122,Straley Ave/Ruth St
160,37.242333,-81.235120,Southview Dr
185,37.366069,-81.058701,Parrot St/Old Oakvale Rd
160,37.319051,-81.135618,Maple Acres Rd
185,37.304491,-81.139674,Big Laurel Hwy
994,37.366931,-81.074580,Oakvale Rd
160,37.326038,-81.226162,/New Hope Rd
185,37.309012,-81.142107,/Greenvalley Trailer Park
334,37.362814,-81.123541,Chruch Ln/New Hope Rd
185,37.287064,-81.252548,Manassas Way/Coal Heritage Rd
216,37.383706,-81.103607,Royal Ct E
216,37.358048,-81.113723,/Cawthorn St
160,37.277672,-81.197005,Princeton Ave
216,37.376183,-81.121368,/Bell Ave
160,37.273546,-81.161631,US Hwy 52
160,37.264948,-81.209243,/Union St
185,37.354712,-80.875630,/Kellys Tank Rd
362,37.362538,-81.060659,/Thorne Ave
499,37.364145,-81.056675,/Coy Ave
1563,37.359801,-81.106650,Morrison Dr/Bluefield Rd
334,37.253249,-81.218115,Toledo St
362,37.391218,-81.050999,Rustic Way
160,37.322068,-81.105084,/Clover Dew Rd
762,37.361894,-81.098439,Ingleside Rd
185,37.384653,-81.057389,Bailey Hollow Rd/Cyphers Rd
160,37.367535,-81.120986,Falcon Ln
216,37.256266,-81.225877,Frederick St
216,37.344364,-81.118161,US Hwy 460
216,37.364701,-81.095476,/Trent St
185,37.269588,-81.227776,Barger St/Peck St
246,37.354495,-81.101288,/Old Bluefield Rd
216,37.254696,-81.210318,Oakdell Ave/Oak Grove Ave
185,37.370122,-81.064953,Grandview Dr
246,37.306141,-81.265525,North St/Pinnaci Ave/Fellowship St
445,37.347347,-81.170945,Pinewood Cir/Teaberry St
216,37.342966,-81.127801,/Green Valley Rd
185,37.350670,-81.122774,Blackoak-Black Lick Rd/Sanders Rd
216,37.271714,-81.215535,Giles St/Johnson St
160,37.395810,-81.045978,Taryn Cir
246,37.369157,-81.087891,/Bluefield Ave/Harrison St
246,37.341844,-81.161579,New Hope Rd
216,37.363279,-81.076507,Berkley St/Raleigh St/Crotty St
185,37.294810,-81.197278,/Airport Rd
334,37.253223,-81.219663,Fulton St
185,37.478946,-81.003108,State Rte 20
160,37.319028,-81.271489,/US Hwy 52
185,37.279150,-81.188178,/US Hwy 19
305,37.261258,-81.189176,E Cumberland Rd
788,37.360313,-81.102643,/Stafford Dr
552,37.358341,-81.097256,Ingleside Rd/Princeton-Ingleside Rd
185,37.430172,-81.101833,Gardner Rd
276,37.379442,-81.048220,Rosewood Dr
813,37.370072,-81.093267,N 8th St/
185,37.284143,-81.223509,Stoney Ridge Rd/Airport Rd
160,37.314224,-81.126404,Clover Dew Dairy Rd
185,37.247576,-81.228182,Walton Ave/Thompson Ave
185,37.331173,-81.148851,Nickles Rd/Maple Acres Rd
658,37.360194,-81.098506,Ingleside Rd/Davis St
160,37.268624,-81.225303,Tazewell Ave/McCulloch Ave
160,37.307276,-81.257169,Old US 52 Rd
185,37.355894,-81.111009,Overholt Ave/Crown Pt
499,37.266490,-81.226667,Tyler St/4th St
246,37.379044,-81.049052,Pine Tree Ln
276,37.379450,-81.043623,Old Pisgah Rd/I- 77
216,37.424040,-81.025208,Unity Rd/Pinehill Dr
1149,37.360622,-81.105701,Bluefield Rd/Old Bluefield Rd/S Walker St
185,37.340640,-81.248409,Lorton Lick Rd/Kade Hollow Rd
276,37.490493,-81.086806,I- 77
185,37.268483,-81.224107,Duhring St/Russell St
334,37.390522,-81.051837,Carl Wade Rd/Rustic Way
160,37.276269,-81.199813,Market St
160,37.308587,-81.263106,Laurel St/Pinnaci Ave
185,37.271971,-81.166556,Bailey Dr
160,37.337632,-81.230855,/Skating Rink Hollow Rd
160,37.260353,-81.199228,Heatherwood Rd/Cliffmont Ave
362,37.409844,-81.060443,/Eads Mill
185,37.255995,-81.228686,Stovall St/Lyndale Ave
185,37.265187,-81.186360,Kirk St
1693,37.426153,-81.007236,College Courts Apartments
160,37.359543,-81.121293,Woodbridge Rd
216,37.275118,-81.216869,Logan St/York St
216,37.359765,-81.111522,Hillside Dr/Summit St
334,37.350146,-81.120226,/Courthouse Rd
445,37.363934,-81.085630,Rogers St
216,37.263896,-81.233925,Locust St
216,37.369944,-81.127611,Quail Valley Dr/Redknot St
305,37.269470,-81.220632,Raleigh St/Stewart St
160,37.253585,-81.242493,Wildwood Dr
160,37.354048,-81.251195,Main St/Thrid St
216,37.346513,-80.928027,US Hwy 460
334,37.362691,-81.063641,Vine St/Fern St/Charlotte Ave
160,37.364628,-81.118555,New Hope Rd
305,37.313647,-81.256703,Tremont Park Cir
418,37.391140,-81.051761,Broadway Apartment
246,37.260329,-81.191438,Marellen Ave/E Cumberland Rd
160,37.369600,-81.131138,Catkin Ln
160,37.350618,-81.253404,/Methodist Hill Rd
390,37.257688,-81.222046,/S Towers St
216,37.418489,-81.192771,Matoaka Rd
185,37.375944,-81.105018,/Low Gap Rd
445,37.260371,-81.220028,Eldridge St/Preston St
160,37.282128,-81.252525,Brushfork School Rd/Hatcher St
1149,37.422819,-81.008906,Vermillion St
710,37.363515,-81.044201,US Hwy 460/Greasy Ridge Rd
246,37.339398,-81.150208,Work Shop Rd
216,37.264388,-81.194563,/Edgemont Dr
160,37.512465,-81.014033,Apache Way/Cherokee Way
390,37.363320,-81.122151,New Hope Rd/2nd St
334,37.316066,-81.136687,State Rte 123/Old US 19 and Wv 71 Rd
185,37.351686,-81.094223,Mt Horeb Rd
499,37.258375,-81.218896,Bland St/Lewis St
390,37.380973,-81.048272,Sycamore Ct/
160,37.362145,-81.040883,/Hilltop Dr
968,37.369938,-81.095165,N 9th St
334,37.485426,-81.078624,I- 77
334,37.269068,-81.223671,/McCulloch Ave
684,37.421775,-81.009140,Center St
362,37.380826,-81.048230,Sycamore Ct
418,37.386323,-81.054951,State Rte 20/Jays Ln
185,37.417206,-81.057554,Bethel Rd/Mercer Springs Rd
160,37.395156,-81.044612,Ring Ln
160,37.355038,-81.077743,Candlelight Dr
526,37.363048,-81.061013,Oakvale Rd
185,37.322917,-81.140395,/Countryside Rd
216,37.548177,-81.114936,/I- 77
305,37.369050,-81.091149,S 6th St/Harrison St
185,37.496355,-80.981561,State Rte 20
160,37.394564,-81.043288,Ring Ln
160,37.373341,-81.083021,Roundhouse Rd/Shopview Ave
813,37.254150,-81.222545,Wythe Ave/College Ave
160,37.273836,-81.221250,Warren St/Orange St
185,37.343572,-80.987047,Goodwins Chapel Rd//US Hwy 460
334,37.254869,-81.208948,Oak Grove Ave
185,37.286870,-81.252496,Coal Heritage Rd
185,37.404275,-81.156839,Matoaka Rd/Cabin Branch Rd
246,37.310569,-81.069165,State Rte 112
276,37.436012,-81.071825,/Thunder Valley Dr
160,37.270139,-81.231392,/Allen St/Lawson St
185,37.405057,-81.165128,Rock River Rd/Matoaka Rd
216,37.391562,-81.044205,State Rte 20
390,37.315701,-81.265061,Bluewell Cutoff Rd/US Hwy 52
246,37.282359,-81.275771,Coppola Mobile Home Park
334,37.374249,-81.095194,N 7th St
160,37.382875,-80.990240,Hatcher Farm Rd/Pisgah Rd/
305,37.362640,-81.124021,Willow St/New Hope Rd
246,37.376420,-81.123222,Bell Ave
334,37.364645,-81.077881,Oak St
994,37.248934,-81.230843,/Maryland Ave
160,37.374211,-81.108100,/Henderson St/High St
185,37.264627,-81.231955,4th St/Chestnut St
160,37.257641,-81.207951,Shady Ave
334,37.406808,-81.033783,Mercer Springs Rd
185,37.355921,-81.111353,Tanglewood Dr
160,37.310165,-81.143324,North St/Yarrow St
472,37.313014,-81.260536,US Hwy 52
276,37.370579,-81.126454,Quail Valley Dr
710,37.257956,-81.196445,E Cumberland Rd
185,37.254639,-81.214290,Verdun Hts/Sunset Dr
1123,37.369087,-81.094894,/S 9th St
160,37.374549,-81.128634,Puffin Ct
276,37.265984,-81.183277,/Brierwood Ln
185,37.267440,-81.198233,Edgewood Dr/Edgewood Rd
160,37.322081,-81.274210,US Hwy 52/Poetown Rd
216,37.381114,-81.045992,I- 77
216,37.428839,-81.104934,Gardner Rd/Kegley River Rd/Spanishburg-Athens Rd
160,37.353919,-81.253717,Crane Creek Rd
216,37.314107,-81.139212,/State Rte 123
160,37.413100,-81.039982,Pine Acre Way
246,37.363947,-81.100864,Fellers St
1641,37.361561,-81.052203,Meadowfield Ln
185,37.256778,-81.198753,/E Cumberland Rd/Windsor Dr
1877,37.361338,-81.056381,/Oney Gap-Stinson School Rd
160,37.382558,-81.036368,/White Pines Rd
185,37.386637,-81.062443,Mary I Johnson Rd
605,37.254193,-81.224816,/E River Ave/Augusta St
362,37.261306,-81.221140,Bland St
160,37.435378,-81.197865,Concept Pl
362,37.284866,-81.251455,/Coal Heritage Rd
160,37.356367,-81.144012,/Pony Farm
390,37.363362,-81.054908,E Reynolds Ave/Oakvale Rd
246,37.403791,-81.161794,Matoaka Rd/Tomahawk Loop
185,37.301934,-81.156889,Mercer Mall Rd
185,37.330408,-81.153463,/Buckeye Hollow Rd
160,37.513003,-81.011832,Seminol Way/Pale Face Way
160,37.419998,-81.250673,N Thompson Hill
160,37.383353,-81.089962,Spring Grove Ave/Union Dr
246,37.363462,-81.121759,Guard Dr/New Hope Rd
216,37.348011,-81.154132,/New Hope Rd
185,37.297141,-81.260609,Middle Ave/Bottom St
276,37.365139,-81.074760,Monroe St
390,37.312486,-81.260132,US Hwy 52
418,37.365177,-81.124892,Chruch Ln/3rd St/Church Ln
246,37.371366,-81.100657,N Walker St/College Ave
216,37.347415,-81.077006,12 Mile Rd
762,37.248392,-81.230607,Maryland Ave/Lebanon St
160,37.274148,-81.210975,Princeton Ave
246,37.308534,-81.081161,State Rte 112/
185,37.440348,-81.180027,Lockwood Rd
160,37.416442,-81.055891,Bethel Rd/Mercer Springs Rd
605,37.265847,-81.232031,Pearis St/Rogers St
362,37.363772,-81.098378,/Ingleside Rd/Princeton Ave
216,37.367526,-81.078802,Kirk St/S McNutt Ave
246,37.352810,-81.109524,Pleasant Valley
160,37.274107,-81.219244,Henry St
418,37.365772,-81.113109,Cross St/Glendale Ave
185,37.380278,-81.110387,Hillcrest Dr/Valley Dr
185,37.335880,-81.142217,Devin St
160,37.345835,-81.115483,/Mountain View Dr
418,37.372808,-81.068671,State Rte 20
276,37.268673,-81.175528,US Hwy 52
362,37.363659,-81.096386,New St/Princeton Ave
185,37.306554,-81.148060,State Rte 123
246,37.279783,-81.248710,/Coal Heritage Rd
362,37.344813,-81.156488,/Maple Acres Rd
160,37.326381,-81.315547,Bramwell Hill Rd
390,37.364731,-81.101962,Princeton Ave
160,37.376650,-81.119244,Honaker St/Fairview
160,37.243603,-81.227535,Co Rte 21/1
526,37.363730,-81.053972,/Oakvale Rd
472,37.265197,-81.234895,Bluefield Ave/Locust St
160,37.372316,-81.056716,Christian Fork Loop/Bratton Ave
160,37.245263,-81.229176,/W Cumberland Dr
160,37.349149,-81.122816,/Hunter Park
216,37.263008,-81.237873,Couch St
246,37.365876,-81.126290,Rolling Hls
418,37.248471,-81.239202,Frye Ave
246,37.374973,-81.080257,Ritter St
185,37.299838,-81.175189,/Middle Ridge Rd
185,37.379342,-81.027369,Mallow Ave/Green Acres
631,37.362953,-81.050383,/US Hwy 460
160,37.324912,-81.255934,Dogwood Hills Rd/Lorton Lick Rd
160,37.348812,-81.121437,/Courthouse Rd
160,37.285255,-81.268702,/Littlesburg Falls Mill
160,37.403948,-81.139876,/Beckley Rd
276,37.267597,-81.179226,Holly Park Ave
216,37.346305,-81.155461,New Hope Rd/Glade Pl
526,37.491247,-81.090173,Co Rte 3/8
185,37.395892,-81.062298,/Morris Rd
160,37.273181,-81.221231,Page St
185,37.401587,-80.997720,/Low Gap - 9/1 Rd
185,37.375699,-81.114200,Bell Ave/Beckley Rd
185,37.337057,-81.171280,Lakeside Dr
390,37.265680,-81.232522,/Rogers St/Chestnut St
185,37.277046,-81.146178,Old Co Rte 29 Section A Rd/Old Co Rte 29 Section B Rd/Ada Number 29 Rd
160,37.367083,-81.129702,/Shenandoah Ests
216,37.280820,-81.237994,/Brush Fork Stoney Ridge Rd
276,37.385745,-81.052507,I- 77
526,37.268807,-81.222962,Raleigh St/Bland St
185,37.311345,-81.130642,Green Valley Rd
160,37.374614,-81.104094,Low Gap Rd/Hinton St
216,37.499693,-80.979038,Old Lerona Rd/State Rte 20/Pine Grove Rd
418,37.315711,-81.264975,US Hwy 52/Lorton Lick Rd
445,37.308697,-81.258735,/US Hwy 52
305,37.259547,-81.248320,/Magnolia St
605,37.367722,-81.076419,Thorn St
185,37.313213,-81.142990,Tree Top Ln
160,37.422134,-81.202119,Cortez St
160,37.347479,-81.168087,Bayberry Ave/Oakland Dr
334,37.529533,-81.109624,I- 77/Beckley Rd
160,37.334731,-81.162661,/Buena Vista Dr
185,37.274270,-81.210456,Baoman Rd/Princeton Ave
160,37.359421,-81.112410,Summit St
305,37.362297,-81.076325,Wetzel St
185,37.419672,-81.248849,/N Thompson Hil St/N Thompson St
445,37.375223,-81.067104,State Rte 20
276,37.374132,-81.098163,/Park Ave
160,37.364430,-81.122738,2nd St
160,37.249922,-81.223936,Breezeview
246,37.375048,-81.098779,/Park Ave
185,37.348168,-81.114607,Mountain View Dr
216,37.339344,-81.145626,Redmont Pl/Glenwood Park Rd
185,37.361584,-81.064235,US Hwy 460
160,37.340262,-81.170497,Lennox Ln
390,37.370952,-81.087709,N 3rd St/Straley Ave
160,37.382752,-81.120753,Puppy Ln/Beckley Rd
160,37.379906,-81.029481,Orchid Way
246,37.340158,-81.130982,Orange Ln
552,37.245616,-81.239409,Blair Ave/Whitethorn St
472,37.344568,-81.125269,/Courthouse Rd
216,37.281714,-81.255907,/Old Bramwell Rd
526,37.255737,-81.224318,North St
216,37.265162,-81.232263,/3rd St/Chestnut St
160,37.246223,-81.227775,/Walton Ave
160,37.362244,-81.125094,New Hope Rd
160,37.353130,-81.112488,City View Hts
246,37.324983,-81.133682,Big Laurel Hwy
445,37.314362,-81.261765,New Hope Rd
160,37.395364,-81.039703,/Morning Star
362,37.253062,-81.237418,Ola Ave
160,37.337479,-81.126004,Copper St
334,37.364488,-81.066409,Oakvale Rd
216,37.421760,-81.064408,/Eads Mill Rd
472,37.551097,-81.113973,/I- 77
390,37.476758,-81.070766,I- 77
445,37.315359,-81.258283,/Dogwood Ln
305,37.368143,-81.096626,Bee St/Harrison St
305,37.535733,-81.114323,Twin Oaks Ln/Beckley Rd
216,37.343266,-81.122948,US Hwy 460
1123,37.249581,-81.229038,Walton Ave
160,37.264371,-81.229957,/Hoge St
185,37.365317,-81.058551,/Springdale Ave
305,37.367199,-81.080962,S Caperton Ave
390,37.416848,-81.013973,Cemetery Rd
305,37.345652,-81.170174,Hawthorn Ln
160,37.267094,-81.202860,Ridgemont Rd
160,37.420727,-81.100512,/Spanishburg-Athens Rd
362,37.409447,-81.060486,/Eads Mill
579,37.369848,-81.099073,Center St
185,37.246188,-81.225268,Crab Apple Ln/Tamarack St
334,37.364246,-81.065479,/Oakvale Rd
276,37.364387,-81.119233,New Hope Rd
160,37.378872,-81.105403,Damewood Ave
160,37.381124,-81.029731,Martin Ave/Green Acres
185,37.373788,-81.089615,N 4th St/Jefferson St
160,37.282044,-81.278735,/Brushfork Falls Mill Rd
1149,37.368198,-81.104714,/N Johnston St
216,37.310082,-81.259093,/US Hwy 52
216,37.375014,-81.091744,Reynolds Ave//N 5th St
185,37.351346,-81.130301,Abbony Ln/Pigeon Roost Trl/Pigeon Roost
160,37.296530,-81.174104,/City View Hts
160,37.417791,-81.196768,Mighty Oak Ln
185,37.247508,-81.230233,Maryland Ave/Liberty St
185,37.366805,-81.094134,Rome St/Knob St
160,37.387444,-81.098798,Low Gap Rd
160,37.422411,-81.006732,Witherspoon Dr
185,37.320002,-81.133273,Rainbow Rd/Somerset Pl
160,37.319057,-81.239378,New Hope Rd/Co Hwy 20/8
185,37.307282,-81.255059,/Old US 52 Rd
246,37.367466,-81.108173,/W Main St
216,37.367316,-81.093136,Knob St
390,37.361434,-81.077961,Wabash-Old Co 219/13 St/US Hwy 460
185,37.378932,-81.045056,Willow Oak Dr/Pine Tree Ln
216,37.363073,-81.101953,Hoge St/Esther St
160,37.318148,-81.117296,Hidden Hills Dr/Stone Mt Dr
362,37.345047,-81.124836,/Courthouse Rd
216,37.368235,-81.123336,/Hummingbird Ave/Quail Valley Dr
216,37.254196,-81.201071,/Valley Rd/Belcher Dr
185,37.353931,-81.149664,New Hope Rd/Clemson Cir
185,37.340019,-81.149564,Summerfield Rd
334,37.369368,-81.071100,1st St/2nd Ave
185,37.355983,-81.170455,/Harmon School Rd
185,37.281385,-81.238860,Brush Fork Stoney Ridge Rd
445,37.364808,-81.050895,Oakvale Rd
160,37.380054,-81.061510,Diane Ln/Old Pisgah Rd
788,37.364933,-81.103306,S Walker St
160,37.322227,-81.290510,US Hwy 52
305,37.372373,-81.095405,/Front St/N 9th St
334,37.338757,-81.167094,New Hope Rd
216,37.269244,-81.227657,Pulaski St/Peck St
185,37.428961,-81.104241,/Gardner Rd
362,37.295229,-81.170575,/Orchard St
445,37.282814,-81.167598,US Hwy 19/Big Laurel Hwy/US Hwy 460
185,37.344302,-81.107088,/Willowbrook Rd
216,37.381839,-81.103071,Royal Ct W/Royal Ct E
305,37.367574,-81.090071,/S 5th St
185,37.417523,-81.245064,Riverside Dr/Bailey St/Barger St
160,37.458672,-81.010646,State Rte 20
552,37.268994,-81.222266,Raleigh St/Federal St
579,37.364094,-81.083325,Rogers St
305,37.356390,-81.114019,Courthouse Rd
390,37.250733,-81.245275,Bluefield High School Rd
160,37.354044,-81.249665,Freedom Rd/Main St
305,37.371327,-81.069351,Northview Ave/1st St
246,37.262485,-81.202420,Heatherwood Rd/Fairfield Ave
185,37.341902,-80.958930,/State Rte 112
160,37.314809,-81.123306,Clover Dew Dairy Rd
305,37.428394,-81.065833,/I- 77
362,37.359227,-81.110126,Hillside Dr
276,37.352273,-81.151237,New Hope Rd
1200,37.367275,-81.103305,Honaker St/
160,37.367141,-81.071865,2nd St
185,37.460938,-81.011273,/State Rte 20
160,37.356655,-81.104032,Tabor Ave/Old Bluefield Rd
1226,37.367041,-81.102418,Honaker St/N Walker St
445,37.295324,-81.170640,/Bull Tail Hollow Rd
160,37.395846,-81.046024,Taryn Cir
216,37.365563,-81.096792,/Ritchie St
160,37.323527,-81.213637,/New Hope Rd
160,37.342538,-81.062977,Deer Mountain Dr
246,37.317165,-81.059202,I- 77
246,37.272386,-81.165252,/US Hwy 460
276,37.305756,-81.257703,/US Hwy 52
160,37.286135,-81.168329,Big Laurel Hwy
160,37.351235,-81.117505,Morningside Dr
216,37.353791,-81.109735,/Old Bluefield Rd
445,37.308780,-81.257540,Old US 52 Rd
276,37.346668,-81.154475,/Winterhaven Ave
1278,37.360332,-81.101484,/Stafford Dr
305,37.368437,-81.092140,S 7th St
305,37.313668,-81.137948,/Old US 19 and Wv 71 Rd
216,37.308421,-81.261208,Wintergreen St
246,37.366083,-81.073511,/Foster St/Thorn St
246,37.355867,-81.116865,/Wagner Ave
160,37.425402,-81.023785,W Broadway St
216,37.360772,-81.058305,Elmore Rd/2nd St
418,37.367379,-81.098444,Trent St/Alley Way
246,37.266198,-81.203904,/Groveland Dr/Media St
605,37.267786,-81.223174,/Ramsey St
185,37.314681,-81.138927,/State Rte 123
160,37.353902,-81.253597,Crane Creek Rd
185,37.364932,-81.113490,Ehn St/Randolph Ave
276,37.344352,-81.060738,I- 77
216,37.262315,-81.238795,Highland Ave
334,37.256597,-81.223767,North St
216,37.365688,-81.057544,Christopher Ave
185,37.307698,-81.086316,/State Rte 112
216,37.343036,-81.130361,/Green Valley Rd
276,37.362571,-81.105732,/Airport Dr
160,37.353839,-80.962075,Powell Mtn Rd
185,37.309607,-81.140638,Mapledale Ln/Old US 19 and Wv 71 Rd
185,37.488412,-80.986086,Old Lerona Rd
160,37.382281,-81.120831,Beagle Pl
160,37.287767,-81.260293,Old Secondary 23 Rd/Idle Acres
160,37.302925,-81.300083,Dolph-Nemours
185,37.371842,-81.108790,Martin Luther King Jr Ave/Cregg St
334,37.364736,-81.106163,S Johnston St/South Ave
499,37.364104,-81.103113,South Ave
160,37.384370,-81.094634,/Douglas Ave
185,37.301890,-81.156918,Mercer Mall Rd
362,37.310410,-81.069644,State Rte 112
160,37.445690,-81.121276,/Beckley Rd
1200,37.361111,-81.054865,Meadowfield Ln
276,37.342931,-81.124434,US Hwy 460
246,37.375033,-81.098770,/Park Ave
160,37.385100,-81.058484,State Rte 20
160,37.276436,-81.246926,Griswold Ln/Coal Heritage Rd
160,37.322643,-81.138519,Shadetree Cir
160,37.276060,-81.246726,Coal Heritage Rd/Harry Heights Rd
736,37.365066,-81.103101,Alvis St/Princeton Ave/S Walker St
160,37.322308,-81.309535,Duhring St/Shinbrier Hill Rd
334,37.259475,-81.220599,North St/
185,37.350648,-81.122690,/Blackoak-Black Lick Rd
160,37.421159,-81.199458,Matoaka Rd/Keith St
160,37.413539,-81.181105,Matoaka Rd
160,37.401951,-80.931238,Lovern Rd/
160,37.354333,-81.068512,/Ambrose Ln
216,37.260199,-81.254245,Hale St/Harry Ave
499,37.363285,-81.096046,New St
185,37.266543,-81.216938,Helton St/Vine St/Bird Ln
216,37.258653,-81.246954,Carolina Ave/Balsam St
160,37.251723,-81.211470,Fincastle Ln/W Cumberland Rd
216,37.287840,-81.253010,Edgewood Rd/Coal Heritage Rd
185,37.319343,-81.263943,/Lorton Lick Rd
185,37.270926,-81.217438,Monroe St/
684,37.359459,-81.108737,Orchard Ave
160,37.377569,-81.094635,/Broadway St
185,37.266169,-81.208531,Elmwood Ave
246,37.367149,-81.111207,New Hope Rd/Elmer St
185,37.375330,-81.080169,Gadd St
276,37.290804,-81.254610,US Hwy 52
185,37.257324,-81.253876,Walters Ave/Hale St
305,37.361559,-81.058927,US Hwy 460
185,37.280520,-81.247831,Cass Ln/Coppinger St
185,37.340453,-81.134956,Oak Ledge Ln/Green Valley Rd
839,37.422935,-81.007594,Pump House Rd
246,37.374239,-81.113118,/Beckley Rd
216,37.296892,-81.255740,/US Hwy 52
276,37.372034,-81.074596,Young Ave/Oliver Ave
216,37.381778,-81.095114,/Thornton Ave
160,37.392533,-81.049854,Nolan Cir/Lyndsey Dr
216,37.340483,-81.137458,Green Valley Rd
185,37.397886,-81.045088,Pershman Cir
445,37.264763,-81.234584,Locust St
160,37.413357,-81.180759,Matoaka Rd
160,37.501931,-81.019878,Ivy Rd/Pine Grove Rd
160,37.354994,-80.893407,/Willowton Rd
362,37.362094,-81.076828,Berkley St
160,37.395768,-81.168949,Rugby Ln
390,37.254180,-81.220715,Albemarle St/Fulton St
160,37.344525,-81.044483,Pvt Dr - 2056/Greasy Ridge Rd
418,37.367145,-80.867857,Bell St
246,37.359512,-81.090891,US Hwy 460
160,37.418938,-81.019007,W Concord St
472,37.258558,-81.210840,Parkway Ave/Hillside Dr
185,37.474035,-81.007761,State Rte 20/Lilly Pond Rd
334,37.369298,-81.071163,/1st St
185,37.362502,-81.109898,10th St/Magnolia Ave
216,37.397231,-81.041134,State Rte 20
246,37.353241,-81.058293,Deer Mountain Dr/Spike Ln
216,37.372403,-81.052737,Barbarosa Ln
160,37.245827,-81.218592,US Hwy 460/Bland Rd
216,37.361208,-81.062963,Vine St/US Hwy 460
185,37.421346,-81.017226,Caldwell St
185,37.339731,-81.130910,Village Green Cir
160,37.284250,-81.253662,State Rte 123
552,37.367926,-81.095303,/S 9th St
246,37.362829,-81.108169,/10th St/Sutton Ave
160,37.255644,-81.207442,Valley View Ave/Oak Grove Ave
246,37.357611,-81.141117,New Hope Rd
160,37.379989,-81.025864,Green Acres
160,37.286594,-81.254179,Moonlight Ln
185,37.262096,-81.233992,Spruce St
246,37.401630,-81.140170,/Beckley Rd
160,37.412572,-81.191089,/Basham Rd
334,37.374659,-81.074782,Royal St
185,37.380552,-81.062450,Diane Ln
445,37.369763,-81.072037,Athens Rd
185,37.420798,-81.237026,Lick Branch Rd
160,37.363381,-81.012803,/Halls Ridge Rd
246,37.313424,-81.059908,State Rte 112/I- 77
362,37.365412,-81.069832,/Oakvale Rd
276,37.337080,-81.154013,/Glenwood Park Rd
445,37.252274,-81.232480,Montclair St
216,37.413671,-81.041569,Pine Acre Way/Mercer Springs Rd
185,37.437199,-81.003828,Pump House Rd/Red Sulphur Tpke
185,37.397985,-81.131977,/Beckley Rd
362,37.247969,-81.232437,Lebanon St/Reid Ave
185,37.243152,-81.232357,South Ln/Southview Dr/Co Rte 21/1
160,37.297410,-81.259975,/Bottom St
160,37.369622,-81.064326,Southview Dr/Sunset Dr/Miracle Ln
334,37.370435,-81.095215,Straley Ave/N 9th St
305,37.357472,-81.111498,/Courthouse Rd
185,37.302463,-81.154292,Moss St
160,37.344717,-81.114363,Win Frely Rd/Winfrey Ln
305,37.357587,-81.111225,Courthouse Rd
246,37.304118,-81.262610,Pinnacle View Rd
160,37.326449,-81.145262,/Autrey Pl
390,37.367440,-81.112255,Elmer St/Tracy St
216,37.371791,-81.089229,N 4th St/Highland Ave
160,37.258025,-81.254646,Bluefield Ave
499,37.364371,-81.082243,Rogers St
160,37.344644,-81.114655,Win Frely Rd
216,37.372424,-81.073332,Roth St/Murdock St
185,37.458981,-81.010730,/State Rte 20
185,37.357575,-81.139896,/Pony Farm/New Hope Rd
334,37.371623,-81.070269,State Rte 20/Northview Ave
185,37.349940,-81.108684,US Hwy 460
185,37.306732,-81.148391,Woodys Mobile Home Pk Rd
246,37.356170,-81.106845,Overholt Ave
185,37.353934,-81.102667,Old Bluefield Rd
160,37.301151,-81.158365,Mourning Dove Ln
276,37.348653,-81.153671,/Don Morgan Rd
160,37.405564,-81.149772,Pago St/Blevins Ln
185,37.415264,-81.147846,Barkwood Rd/
276,37.359319,-81.124641,Mobile Home Park Rd/Ranch Ln
276,37.249752,-81.222977,Pearl St//E River Ave
246,37.259369,-81.250187,Bluefield Ave/Larch St
160,37.367338,-81.070091,1st Ave
216,37.375698,-81.115579,Bell Ave
276,37.261344,-81.190243,Shorter St/Bluemont Dr
605,37.363915,-81.084208,Roseland Ave/Rogers St
246,37.344740,-81.170364,Pinewood Dr/Hawthorn Ln
246,37.270778,-81.219105,Princeton Ave/Summer Pl
185,37.513984,-81.013188,Seminol Way/
216,37.421615,-81.007621,1st Ave/Plymouth St
246,37.369972,-81.127084,/Ovenbird Cir
185,37.340128,-81.151848,/Maple Acres Rd
160,37.357560,-81.124670,Pleasant Acres
445,37.269561,-81.226963,Pulaski St/Roanoke St/N Mercer St
276,37.353138,-81.150407,New Hope Rd
160,37.347504,-81.253601,/Simmons River Rd
276,37.304611,-81.261676,Pinnacle View Rd/Coke Plant Rd
185,37.369909,-81.069423,/2nd St
334,37.342138,-81.160694,New Hope Rd/Carr Ln
526,37.283061,-81.250481,State Rte 123/Airport Rd/Coal Heritage Rd
579,37.254284,-81.224733,North St//Augusta St
160,37.373639,-81.107695,Cook St/High St
160,37.374478,-80.886417,/Pleasant Hill Rd/Elgood Mountain Rd
185,37.305064,-81.139307,/Big Laurel Hwy
160,37.366741,-81.078647,Meadow St/Ira Ave
362,37.339204,-81.166575,New Hope Rd/Faith Ln
160,37.269418,-81.171746,Linkous Dr
710,37.425360,-81.012430,Old Hinton Rd/E Broadway St
216,37.263725,-81.238210,Bluefield Ave/Cherry St
160,37.322355,-81.308375,Duhring St
216,37.275064,-81.211933,Wayne St/Wise St
1615,37.423477,-81.008961,Mill St/Cooper St
736,37.364389,-81.052330,/Oakvale Rd
160,37.366614,-81.053144,Old Oakvale Rd/Field St
216,37.383730,-81.094195,Douglas Ave/Spring Grove Ave
246,37.340968,-81.130588,/Hassam
305,37.244142,-81.226549,US Hwy 460/Co Rte 21/1
499,37.386979,-81.055247,I- 77
185,37.280889,-81.136602,Cumberland Rd
185,37.324062,-81.138634,/Countryside Rd
185,37.306530,-81.160990,State Rte 123
216,37.247998,-81.226852,Pearl St/Hemlock Hill
246,37.270326,-81.227275,N Mercer St//Bedford St
526,37.248254,-81.238986,Frye Ave/College Ave
216,37.424844,-81.070173,/Spanishburg-Athens Rd/Blossom Rd
216,37.360973,-81.060206,Planet Dr/Elmore Rd
185,37.321006,-81.273168,US Hwy 52/Saunders Rd
160,37.368144,-81.089974,Bluefield Ave/Ritchie St
276,37.370394,-81.096733,/Park Ave/Straley Ave
362,37.371479,-81.069697,Northview Ave
246,37.390068,-81.050937,Meadowbrook Mhp
160,37.370464,-81.079604,Kee St
390,37.343893,-81.157195,Jodi St
185,37.286963,-81.252543,/Coal Heritage Rd
160,37.497847,-80.974337,Eden Valley Dr
185,37.338942,-81.270961,/Simmons River Rd
160,37.318868,-81.135318,Big Laurel Hwy
216,37.374692,-81.072995,Mitchell Ct
160,37.251965,-81.218635,Fulton St
334,37.388678,-81.055132,Pendleton Pl
160,37.367792,-81.068845,Circle Ct/E Circle Dr
185,37.437170,-81.003794,/Pump House Rd
185,37.377783,-81.074044,Linda St
160,37.343047,-80.987874,Fountain Park Rd
246,37.363014,-81.120781,/Kelly St
160,37.419419,-81.242029,Short St/
246,37.356166,-81.107444,Overholt Ave
526,37.255775,-81.224187,Woodland Ave
216,37.335826,-81.150219,Maple Acres Rd
216,37.403188,-81.161873,/Tomahawk Loop/Squaw Way
276,37.444537,-81.066633,I- 77
185,37.371842,-81.073891,Murdock St
160,37.310336,-81.142830,Yarrow St
160,37.348726,-81.054810,Rocky Hollow Rd
246,37.332812,-81.148134,Nickles Rd
276,37.275649,-81.202834,Virginia Ave
305,37.311316,-81.260216,/Clearview Ave
160,37.347829,-81.167679,Mayapple Ln
160,37.578695,-81.118763,Beckley Rd
499,37.252067,-81.225126,Albemarle St
160,37.382221,-81.101032,White Oak Valley
160,37.302623,-81.156417,Mercer Mall Rd
276,37.255571,-81.216742,Oak Ln/Powhatan Ave
160,37.511294,-81.013395,Pale Face Way
160,37.303678,-81.155401,Mercer Mall Rd
160,37.314260,-81.224887,/Littlesburg Rd
216,37.421327,-81.006865,2nd Ave
968,37.422910,-81.009465,Vermillion St
445,37.365089,-81.117324,New Hope Rd
445,37.364332,-81.095177,Trent St/Princeton Ave
334,37.309448,-81.143894,/State Rte 123
334,37.314604,-81.260736,New Hope Rd/Frankie St/Nick St
305,37.361308,-81.061206,US Hwy 460
185,37.394940,-81.038012,/Morning Star St/Morning Star
839,37.423245,-81.011765,Burch St/Vermillion St
216,37.473218,-81.010362,/Deerfoot Ln
160,37.358353,-81.124264,Pleasant Acres/Mobile Home Park Rd
246,37.367255,-81.117680,Gott Rd
216,37.365758,-81.050671,/Teri Cir
276,37.353232,-81.076688,Daytona Dr/Kerr Dr
185,37.364879,-81.053483,Stinson Ave
917,37.363272,-81.046177,US Hwy 460
216,37.256709,-81.213213,Bland Rd/Powhatan Ave
185,37.371904,-81.073830,Murdock St
305,37.366334,-81.082931,S Wickham Ave
160,37.357712,-81.243929,/State Rte 71
160,37.281141,-81.282563,/Brushfork Falls Mill Rd
762,37.365602,-81.105122,/Princeton Ave
684,37.259973,-81.216923,Lewis St
160,37.344106,-80.961519,Goodwins Chapel Rd/Many Springs Rd/Goodwyn Chapel Rd
362,37.365190,-81.077485,Crotty St/Oak St
445,37.366224,-81.098838,/Walnut St/Harrison St
246,37.267070,-81.230210,Allen St/Bluefield Ave/Thomas St
185,37.271915,-81.211906,/Ronceverte St
160,37.286210,-81.255833,/Old Bramwell Rd
160,37.374237,-81.060218,Ashley Ln/Spruce Dr
160,37.356613,-81.245569,Main St
276,37.364321,-81.119415,New Hope Rd/C and W Trailer Pk
418,37.385932,-81.055730,Willow Oak Dr/State Rte 20
185,37.380949,-81.102718,/White Oak Valley
418,37.371500,-81.095321,N 9th St/Highland Ave
390,37.369642,-81.086117,S 2nd St
160,37.259883,-81.202039,Mountain View Ave/Spring Garden Dr
472,37.381531,-81.058931,Hidden Meadow Ln
216,37.368042,-81.093107,S 8th St/Ritchie St
552,37.259216,-81.216996,Gilmer St/Lewis St
216,37.283242,-81.275269,/Brushfork Falls Mill Rd
160,37.381859,-81.100904,White Oak Valley
160,37.349790,-81.075454,/Calm Pl
362,37.479160,-81.072948,I- 77/Eads Mill Rd
390,37.343504,-81.155035,Windmere St/Maple Acres Rd
185,37.331434,-81.151490,/Buckeye Hollow Rd
216,37.296884,-81.255795,/US Hwy 52
445,37.265780,-81.241020,Couch St/Holbrook St
472,37.381517,-81.058893,Hidden Meadow Ln
160,37.474454,-81.102154,Wolf Creek Rd
246,37.406339,-81.040015,State Rte 20
246,37.302088,-81.155050,Moss St
160,37.446483,-81.108817,Maxwell Ln
216,37.258996,-81.250009,Larch St
185,37.372058,-81.109690,Cregg St
216,37.287929,-81.167398,Big Laurel Hwy
160,37.349968,-81.253954,/Methodist Hill Rd
160,37.447120,-81.197798,Beeson Rd
160,37.342702,-81.104699,/Evans Pl
216,37.355021,-81.149742,Home Pl
631,37.366989,-81.123775,N 2nd St/Undercliff Ter
418,37.374127,-81.062903,/Bratton Ave
305,37.372518,-81.111907,Booker St/Beckley Rd
216,37.321916,-81.057938,I- 77
185,37.281770,-81.175492,US Hwy 19
185,37.343886,-81.159741,Rustic Hill Dr/Hager Dr
552,37.362772,-81.050395,US Hwy 460
418,37.370661,-81.071236,State Rte 20
445,37.267048,-81.226007,S Mercer St/Ramsey St
246,37.321507,-81.134860,Big Laurel Hwy
552,37.422987,-81.024387,Caldwell St
216,37.255969,-81.226548,Woodrow Ave/Frederick St
160,37.284674,-81.270427,Brushfork Falls Mill Rd
185,37.259096,-81.251033,Bluefield Ave/Tulip St
160,37.269245,-81.243944,Couch St
276,37.338203,-81.060901,I- 77
160,37.323419,-81.215851,New Hope Rd/Littlesburg Rd
216,37.271524,-81.229709,Taylor St/Melcher St
185,37.306413,-81.148487,Woody Mobile Home Pk Rd
185,37.254222,-81.246201,Bluefield High School Rd
160,37.580511,-81.129536,/CC Trail Rd
418,37.265910,-81.240828,/Holbrook St
160,37.380937,-81.102845,/White Oak Dr
160,37.245242,-81.229244,Maryland Ave/W Cumberland Dr
160,37.381754,-81.041401,/Old Pisgah Rd
185,37.370963,-81.079842,N Wickham Ave/
185,37.419199,-81.063328,Eads Mill/Eads Mill Rd
246,37.349221,-81.153809,/New Hope Rd
445,37.266261,-81.227315,4th St/
216,37.326445,-81.146581,Crocus Way
246,37.375678,-81.074559,Lacy St
160,37.387337,-81.120177,Beckley Rd
362,37.382933,-81.061026,/State Rte 20
185,37.261452,-81.198939,Hilltop Ln/Castlewood Ln
185,37.355235,-80.895722,Christie Rd
334,37.366968,-81.106345,Pearis St/W Main St
160,37.338778,-81.270783,Simmons River Rd
246,37.263598,-81.185285,Kirk St/E Cumberland Rd
185,37.430417,-81.063117,Eads Mill Rd
276,37.259916,-81.248505,Bluefield Ave/Magnolia St
276,37.322569,-81.134839,Big Laurel Hwy
160,37.370653,-81.111672,Mahood Exd
305,37.428255,-81.063656,Eads Mill Rd
160,37.266098,-81.216390,Ash Rd/Bruce St
1563,37.359737,-81.106731,Bluefield Rd/Courthouse Rd
160,37.344202,-81.144862,Needham Pl/Kirby Addition
418,37.373979,-81.076886,Kirby Ave/Peck St
160,37.431909,-81.068316,Zinnia Ct/Fern St
185,37.342028,-80.960365,US Hwy 460
552,37.364256,-81.114441,Morrison Dr
362,37.406393,-81.033816,/State Rte 20
362,37.260634,-81.244936,/Willow St
160,37.368021,-81.121234,/Partridge Dr/Cardinal Ave
160,37.353929,-81.253836,Crane Creek Rd
185,37.245819,-81.225709,3 Springs Dr
160,37.350067,-81.254002,/Saddler Rd
160,37.269905,-81.171922,Linkous Dr/US Hwy 52
216,37.367593,-81.051993,N Greenview Dr/Greenview Dr
390,37.315861,-81.136028,State Rte 123/Big Laurel Hwy
216,37.375534,-81.074289,Lacy St
216,37.360434,-81.060317,Comfort Ct/3rd St/Planet Dr
305,37.373405,-81.105245,Burgess St
246,37.375942,-81.071109,Estill St
216,37.369565,-81.074640,Prince St/Oliver Ave
305,37.373541,-81.067942,/State Rte 20
216,37.380190,-81.106088,Glen Dr/East Dr
334,37.259076,-81.219406,Bland St/South St
418,37.362859,-81.111741,12th St
362,37.261004,-81.245122,Willow St/Bluefield Ave
605,37.256470,-81.218777,Hunter Ln
160,37.378270,-81.116836,/Beckley Rd
276,37.254126,-81.232704,Maryland Ave/Lyndale Ave/Cherry St/Stadium Dr
3671,37.426034,-81.005079,Beckett Rd
216,37.244049,-81.232776,W Cumberland Dr
160,37.297651,-81.259859,/Right Ave
276,37.390740,-81.046962,Athens Rd/State Rte 20
362,37.370638,-81.083350,Old Athens Rd/Thorn St
305,37.339993,-81.133611,Orange Ln
813,37.366054,-81.123633,2nd St
160,37.318150,-81.265704,/Duck Pond Rd
185,37.313159,-81.144120,Blue Spruce Ln
185,37.280778,-81.136552,Old Co Rte 29 Section B Rd/Cumberland Rd
216,37.375596,-81.070929,Estill St/Pisgah Rd
185,37.363322,-81.034243,Co Hwy 460/8/Fennel Ln
276,37.313112,-81.138315,/Old US 19 and Wv 71 Rd
605,37.250509,-81.228120,Hemlock Hill/Albemarle St
390,37.363241,-81.072693,Edgemont Dr
185,37.343599,-80.986862,US Hwy 460
160,37.348149,-81.109217,Willowbrook Rd/US Hwy 460
185,37.297945,-81.173953,City View Hts
185,37.269677,-81.216959,Virginia Ct
160,37.415361,-81.060982,Eads Mill
185,37.265244,-81.233552,Walnut St
526,37.248705,-81.227211,Hemlock Hill/Shenandoah Ave
276,37.249709,-81.223120,Pearl St//E River Ave
334,37.376099,-81.059772,Sunny Dr
185,37.250566,-81.206075,US Hwy 460
160,37.243545,-81.230513,/Co Rte 21/1
305,37.350091,-81.120274,/Courthouse Rd
246,37.292892,-81.165854,Rulltail Hollow Rd/Mercer Mall Rd
160,37.318127,-81.109538,Autumn Ln
246,37.302424,-81.093314,I- 77/Blake Rd
216,37.513444,-81.013996,Apache Way/Commanche Way
246,37.397417,-81.045488,Leah Dr
216,37.345255,-81.133109,Glenwood Park Rd
445,37.343894,-81.157789,/Ives Ln
160,37.327314,-81.170631,/New Hope-Ceres Rd
160,37.497457,-80.980716,State Rte 20
185,37.252610,-81.202085,US Hwy 460
160,37.426166,-80.995708,Red Sulphur Turn Pike/Athens - Glen Lyn Rd/Old Pisgah Rd
216,37.340487,-81.131056,Orange Ln
185,37.343714,-81.144942,Kirby Addition
160,37.382883,-81.120864,Beagle Ln/Beckley Rd
160,37.417780,-81.085283,Spanishburg-Athens Rd/Rocky Branch Rd
160,37.278375,-81.193377,Princeton Ave
160,37.349042,-81.285711,Co Hwy 15/1
216,37.364010,-81.064591,Oakvale Rd/Charlotte Ave
216,37.310311,-81.260172,Laurel St
160,37.348116,-81.109932,Old Bluefield Rd
943,37.421969,-81.010331,Weaver St/Center St
305,37.362034,-81.060857,Thorne Ave
185,37.472317,-81.008611,/State Rte 20
1149,37.423855,-81.011771,Burch St/Mill St
246,37.366093,-81.097681,/S 9th St
445,37.247564,-81.238345,Frye Ave
185,37.377293,-81.078804,/McKinley Ave
445,37.283004,-81.251032,/State Rte 123
216,37.405929,-81.147782,Pago St/State Rte 10
472,37.387754,-81.052982,State Rte 20
246,37.393013,-81.049613,Nolan Cir
216,37.367953,-81.092034,S 7th St/Knob St
160,37.268909,-81.216998,Boone St/Nicholas St
418,37.364053,-81.072469,Edgemont Dr
276,37.359617,-81.052573,/I- 77
216,37.322487,-81.136206,Maples Acres
445,37.471614,-81.067240,/I- 77
362,37.255224,-81.221151,College Ave
418,37.363877,-81.098374,Ingleside Rd
160,37.366172,-80.869194,US Hwy 460/Baxter Ln
216,37.361286,-81.111803,Morrison Dr
160,37.268375,-81.236743,Peters St
246,37.265080,-81.224366,Belcher St/Brown St
160,37.312084,-81.255409,Bluewell Ests
684,37.252500,-81.221207,/Rockbridge St
658,37.369721,-81.092282,S 7th St/Thorn St
216,37.256184,-81.212625,Memorial Ave/Bland Rd
276,37.363068,-81.099223,/South Ave
891,37.362459,-81.045235,/Greasy Ridge Rd
305,37.316125,-81.135094,Greenvalley-Ingleside Rd
762,37.416606,-81.015797,S State St/Cemetery Rd
185,37.377335,-81.058358,/Sunny Dr
216,37.430600,-81.048518,/Unity Rd
160,37.446779,-81.109103,/Maxwell Ln
185,37.270555,-81.219966,Scott St/Princeton Ave
552,37.369018,-81.072719,Athens Rd
216,37.306562,-81.261521,Circle Drive Rd/Pinnaci Ave/Hibiscus St
185,37.463446,-81.011730,State Rte 20
160,37.386356,-81.092886,Gayle St/Bane Ave
499,37.250966,-81.229635,Walton Ave/College Ave
246,37.266931,-81.180222,E Cumberland Rd/Cumberland Rd
185,37.361161,-81.107551,Airport Dr
160,37.308329,-81.141492,Greenvalley Trailer Park/Old US 19 and Wv 71 Rd
160,37.263637,-81.225092,W Ridge St
216,37.380820,-81.046565,Willow Oak Dr
631,37.257372,-81.203477,Longview Ter
160,37.346413,-81.147698,Center Ave/Valley Rd
418,37.256772,-81.218195,Vineyard St
499,37.313437,-81.260852,US Hwy 52
185,37.497186,-80.980919,State Rte 20
185,37.435471,-81.058478,Hogwild Pl
1746,37.362034,-81.056512,US Hwy 460/Oney Gap-Stinson School Rd
185,37.335928,-81.170759,New Hope Rd/Lakeside Dr
160,37.435342,-81.197657,Concept Pl/Rich Creek Rd
390,37.362351,-81.062443,Vine St//Carmello Ave
334,37.342824,-81.124108,US Hwy 460
334,37.313051,-81.139280,/Tabor Trailor Park
160,37.309775,-81.261941,Clearview Ave
445,37.369260,-81.092225,/S 7th St
185,37.389478,-81.049763,Athens Rd/Porter Dr
246,37.256549,-81.199200,E Cumberland Rd
160,37.349741,-81.045566,Pvt Dr - 1634/Greasy Ridge Rd
160,37.247073,-81.230048,Maryland Ave/Thompson Ave
160,37.275530,-81.205339,Green St/Princeton Ave
160,37.267436,-81.197716,Grassy Branch Rd
160,37.257595,-81.255750,Graves St/Bluefield Ave
362,37.298255,-81.255412,/US Hwy 52
185,37.409297,-81.225395,No Name Priv Ln
334,37.251837,-81.232100,Maryland Ave/Montclair St
185,37.309369,-81.140140,Mapledale Ln
185,37.378429,-81.105532,Davis Ln
185,37.343390,-81.144574,Eagle Ln
160,37.447207,-81.065074,/Eads Mill Rd
276,37.258817,-81.195437,Locust Grove Rd/E Cumberland Rd
185,37.261685,-81.235081,Pine St
160,37.353918,-81.254909,Crane Crk Rd/Buttermilk Junction Rd
276,37.373095,-81.074861,N McNutt Ave
276,37.375254,-81.060553,Sunny Dr/Butternut Dr
160,37.279662,-81.222986,Stoney Ridge Rd
160,37.263169,-81.201274,Heatherwood Rd/Cliffmont Ave
334,37.529362,-81.110331,Ashwood Rd/Clark School Rd/Beckley Rd
334,37.253167,-81.237792,Lowe St
762,37.422743,-81.008092,Vermillion St
334,37.354608,-81.117020,Penmar Ave/City View Hts
160,37.265469,-81.184113,Tower Rd/Brierwood Ln
160,37.346583,-81.111543,/Old Bluefield Rd
1200,37.423299,-81.015483,Caperton St/Vermillion St
246,37.264125,-81.223121,Brown St
160,37.354022,-81.252730,/Virginia Gills St
160,37.268892,-81.228611,Pulaski St/Barger St
943,37.250129,-81.226674,Rockbridge St/Dearborn Ave
160,37.364503,-81.037499,Halls Ridge Rd/US Hwy 460
418,37.373974,-81.106203,/Pine St
185,37.311572,-81.143210,Clary Dr
334,37.449656,-81.066299,I- 77
160,37.328476,-81.202955,New Hope Rd
445,37.492768,-81.094439,/I- 77
362,37.259196,-81.213426,Ledge St/Oakhurst Ave
160,37.293457,-81.248723,Littlesburg Rd
185,37.249595,-81.207977,US Hwy 460
216,37.541261,-81.116361,Beckley Rd
362,37.373636,-81.077298,Robbin St/Kirby Ave
605,37.256871,-81.220092,Jefferson St
160,37.409674,-81.067717,/Gardner Rd
276,37.354564,-81.056881,I- 77
246,37.315001,-81.263471,/US Hwy 52
276,37.339354,-81.166404,/New Hope Rd
362,37.371659,-81.097086,/Park Ave
526,37.367646,-81.098898,Trent St/Thorn St
160,37.277360,-81.247416,Coal Heritage Rd
160,37.447142,-81.197802,Beeson Rd
216,37.381625,-81.115066,Laurel Dr
160,37.287332,-81.168648,Old Princeton Rd
4787,37.424085,-81.009581,Pauley St/Repass St
246,37.256329,-81.209052,Belvue St/Shady Ave
216,37.262106,-81.202914,Heatherwood Rd
246,37.366987,-81.079197,S McNutt Ave/Meadow St
216,37.402457,-81.060439,Keaton Ln
276,37.311925,-81.260508,Dutch Rd/Quick St
334,37.281452,-81.249613,/Coal Heritage Rd
216,37.274891,-81.212421,Wayne St/Putnam St
185,37.293851,-81.165578,/Mercer Mall Rd
362,37.399769,-81.039865,State Rte 20
334,37.298410,-81.260968,Middle Ave
305,37.350089,-81.171099,Fuscam Way
305,37.263471,-81.195467,Grassy Branch Rd
499,37.359013,-81.108351,Orchard Ave
160,37.341004,-81.144302,/Kirby Addition
185,37.340436,-81.142072,Glenwood Rd
579,37.254718,-81.235039,Norma Ln
185,37.342440,-80.958309,/US Hwy 460
160,37.370645,-81.100942,Fredrick Ct/N Walker St
246,37.378698,-81.044477,Old Pisgah Rd/Barbarosa Ln
216,37.284083,-81.168261,Big Laurel Hwy/Old US 19 and Wv 71 Rd
276,37.379122,-81.046540,Cottonwood Ct/Pine Tree Ln
1097,37.367360,-81.103612,/Honaker St
276,37.363996,-81.086673,Brick St
160,37.282410,-81.169065,/US Hwy 19
160,37.342949,-81.145045,Elder Ave/Kirby Addition
246,37.309260,-81.140868,/Old US 19 and Wv 71 Rd
362,37.296713,-81.164023,/Mercer Mall Rd
216,37.369978,-81.111128,Mahood Ave
185,37.272159,-81.212702,Giles St/Lee St
160,37.344148,-81.214541,/Snow Vista Rd
160,37.354519,-81.118345,Hundley St
305,37.276103,-81.203094,Virginia Ave/Princeton Ave
390,37.368262,-81.106939,Honaker St/Karnes St
362,37.479596,-81.073347,I- 77
246,37.369900,-81.089315,Mercer St/S 4th St
160,37.250319,-81.221235,Pearl St/Orchard St
185,37.490251,-80.990936,Sunset Dr
160,37.252807,-81.210846,Springdale Ave/Grandview Ave
160,37.361715,-81.107452,/Airport Dr/Sutton Ave
246,37.252924,-81.234645,Hillcrest St
160,37.487423,-80.990877,State Rte 20
160,37.336618,-81.244422,Dahlia Rd/Lorton Lick Rd
160,37.352168,-81.073641,/Ambrose Ln
246,37.580721,-81.119367,CC Trail Rd/Clarks Gap-Flat Top Rd
160,37.248325,-81.211890,Parnell Rd
185,37.304989,-81.149297,/State Rte 123
216,37.269607,-81.173958,Cumberland Rd
362,37.366459,-81.113328,New Hope Rd/Glendale Ave
160,37.299168,-81.186066,2 Mile/Airport Rd
160,37.338504,-81.173823,Sandlick Rd
216,37.490844,-81.086674,Eads Mill Rd
334,37.256915,-81.221015,/Hancock St
246,37.265340,-81.231747,3rd St/Pearis St
185,37.295035,-81.196810,/Airport Rd
185,37.345980,-81.155731,New Hope Rd/Kramer Pl
185,37.462105,-81.011554,State Rte 20
579,37.257843,-81.219649,Vineyard St
499,37.394941,-81.048714,Brighton Cir
160,37.338258,-81.062676,/12 Mile Rd
579,37.363957,-81.094858,Trent St
246,37.372863,-81.095737,N 9th St
390,37.337262,-81.150078,Glenwood Park Rd
276,37.346219,-81.169188,Gardenia Way
160,37.490996,-80.989108,Parkview Terrace Rd/Chevelle St/Parkview Ter
246,37.356218,-81.114796,City View Hts
185,37.386018,-81.061699,Mary I Johnson Rd
334,37.389138,-81.050999,Carl Wade Rd
185,37.266364,-81.222633,Young St
216,37.373598,-81.061725,Bratton Ave
246,37.285607,-81.253569,Moonlight Ln
160,37.259598,-81.224154,View Ave/Gordon Ave
418,37.267158,-81.223580,Russell St/Russell Ter
185,37.264786,-81.231443,4th St/Pearis St
943,37.366937,-81.125311,Church Ln
160,37.495176,-81.104532,/Camp Creek Rd
185,37.353992,-81.098123,Windy Acre Pl
658,37.247677,-81.239925,College Ave
216,37.272345,-81.212799,/Lee St
185,37.256245,-81.214621,Grandview Ave/Powhatan Ave
276,37.592116,-81.126945,I- 77
185,37.513832,-81.013810,Apache Way/
160,37.283039,-81.224432,/Stoney Ridge Rd
185,37.369962,-81.074378,/Oliver Ave
216,37.473759,-81.007907,/State Rte 20
160,37.387361,-81.063976,/Impassable Gate
305,37.314490,-81.262498,Nemours Rd/US Hwy 52
579,37.368538,-81.076607,/Young Ave
160,37.264311,-81.231786,5th St/Carolina Ave/Chestnut St
605,37.358213,-81.097121,/Princeton-Ingleside Rd
579,37.364844,-81.080353,/Rogers St
160,37.318076,-81.265631,Duck Pond Rd
334,37.284500,-81.125628,/Cumberland Rd
472,37.343336,-81.126344,Old Bluefield Rd/Courthouse Rd/Green Valley Rd
160,37.475292,-81.101778,Wolf Creek Rd
160,37.374934,-81.093449,Washington Ave
276,37.362859,-81.117943,Fairview St
246,37.258274,-81.259451,Wood St
160,37.379086,-81.092224,Thornton Ave
216,37.341673,-81.131642,Orange Ln/Green Valley Rd
160,37.340187,-81.106127,Willow Top Rd/Mapledale Dairy Rd
160,37.375006,-81.103186,/Hinton St
390,37.374904,-81.075591,Old Athens Rd/Royal St
160,37.436075,-81.076324,Joshua St
362,37.384385,-81.060085,Mary Johnson Rd/Mary I Johnson Rd
160,37.352039,-81.073695,Ambrose Ln
185,37.318383,-81.271207,/Poetown Rd
472,37.269237,-81.226837,N Mercer St/S Mercer St
160,37.269633,-81.217911,Monroe St/Raleigh St/Raleigh Ter
160,37.246625,-81.227908,Walton Ave
160,37.360855,-81.032664,/Hilltop Dr
216,37.400684,-81.126988,Kegley Rd
160,37.313407,-81.255500,Spurrier Rd/
334,37.248396,-81.243565,N Leatherwood Ln
246,37.346107,-81.151602,Caraway St/Morgan Dr
246,37.262570,-81.216588,Bruce St/Payne St
334,37.486676,-81.078835,Eads Mill Rd
246,37.453579,-81.065482,I- 77
185,37.383013,-81.104437,Regal Ct
160,37.351837,-81.173838,Barkwood Ave
305,37.259290,-81.249165,Thorn St
185,37.404635,-81.154867,Matoaka Rd/Cornstalk St
246,37.360961,-81.060726,/Elmore Rd
305,37.255004,-81.217649,Jefferson St/Bay St
160,37.361906,-81.084219,Roseland Ave/Shufflebarger St
160,37.343514,-80.961383,Many Springs Rd/Possum Hollow Rd
334,37.251817,-81.220009,Wythe Ave/Shenandoah Ave
334,37.390646,-81.051906,Carl Wade Rd
160,37.373996,-81.127501,Quailwood Dr
216,37.423497,-81.022388,/Unity Rd
276,37.372225,-81.058075,Bratton Ave
246,37.366635,-81.126245,Rolling Hls
362,37.369243,-81.106511,Mahood Ave/Karnes St
334,37.370463,-81.085575,/N 1st St
579,37.394813,-81.048284,Brighton Cir
305,37.362198,-81.110731,10th St
160,37.426589,-81.199406,Gillenwater Ln
185,37.545978,-81.113718,Hanks Rd
334,37.268685,-81.197438,Grassy Branch Rd
216,37.374113,-81.072180,Pisgah Rd
246,37.246360,-81.226661,/W Cumberland Dr
362,37.483886,-81.077371,/I- 77
276,37.344376,-81.157985,New Hope Rd
246,37.361818,-81.065567,US Hwy 460/Charlotte Ave
246,37.259792,-81.211833,/Hillside Dr/Oakhurst Ave
160,37.360819,-81.126834,/Graystone
216,37.280829,-81.237828,Brush Fork Stoney Ridge Rd
160,37.375959,-81.111602,Indianrock Farm
994,37.367735,-81.102128,/N Walker St
185,37.269039,-81.229817,Church St/Marshall Rd
185,37.352294,-81.069849,Star Dr
418,37.361558,-81.078040,Wabash-Old Co 219/13 St/Locust St
762,37.421824,-81.009483,Cooper St/Center St
160,37.339027,-81.168236,Sandlick Rd/Harmon School Rd
418,37.338628,-81.165629,Faith Ln
276,37.435764,-81.071675,Thunder Valley Dr/Candace Ct
418,37.255855,-81.218779,Spring Grove Ave/Jefferson St
305,37.249243,-81.226136,Shenandoah Ave/Dearborn Ave
160,37.287033,-81.168973,/Old Princeton Rd
160,37.386783,-81.056803,Kinsman Ct
305,37.370143,-81.101142,N Walker St/Center St
185,37.348533,-81.121685,/Courthouse Rd
185,37.349914,-81.120430,Courthouse Rd
216,37.266093,-81.225573,S Mercer St
216,37.386329,-81.062021,/Mary I Johnson Rd
185,37.376115,-81.074290,Lacy St
160,37.354051,-80.905634,/Whitts-New Zion Rd/US Hwy 460
160,37.397239,-81.206774,Sam Davis Rd/Wright Mtn Rd
185,37.287562,-81.167403,Big Laurel Hwy
1407,37.362630,-81.053051,US Hwy 460
160,37.278488,-81.193259,Old Princeton Rd
160,37.361540,-81.080001,Berkley St/Hearn Ave
160,37.434956,-81.006153,State Rte 20
216,37.372081,-81.104359,Circle Dr
185,37.390222,-81.056641,Eads Mill
160,37.374915,-81.103397,Hinton St
160,37.367880,-81.017224,Halls Ridge Rd
185,37.423678,-81.020222,Morgan St
246,37.344876,-81.153721,/Windmere St
276,37.299130,-81.260377,Right Ave
185,37.373685,-81.090260,Jefferson St/5th St Aly
390,37.418308,-81.015659,State Rte 20/S State St
185,37.263008,-81.234617,Carolina Ave/Spruce St
160,37.363456,-81.125780,Stanley St/Hurst St
185,37.418694,-81.017639,W Concord St/W Concord Rd
160,37.264601,-81.230682,5th St
246,37.310730,-81.264157,Hastings St/Saxon St
445,37.339200,-81.176228,Sandlick Rd/
185,37.309643,-81.140614,Green Valley Methodist Church Rd/Old US 19 and Wv 71 Rd
185,37.447153,-81.120912,/Nubbins Ridge Rd
390,37.374837,-81.066337,Old Pisgah Rd
216,37.422132,-81.006417,Witherspoon Dr
160,37.423761,-81.027874,Park Ln
160,37.272236,-81.214496,Johnson St
246,37.251403,-81.208055,Leandrea Dr/Maple Ln
160,37.307763,-81.086038,/State Rte 112
216,37.354947,-81.101786,Garden Oaks/Old Bluefield Rd
185,37.362253,-81.069013,/US Hwy 460
216,37.266223,-81.182504,Horton Rd
216,37.383292,-81.100662,/White Oak Valley
246,37.387088,-81.056062,Kinsman Ct/Jay's Ln
445,37.355778,-81.115779,Brock Cir/City View Hts
305,37.316295,-81.266294,/US Hwy 52
216,37.327039,-81.258656,/Dogwood Hills Rd
160,37.396845,-81.208120,/Wheeler Rd
276,37.367076,-81.111434,New Hope Rd
499,37.358052,-81.095943,US Hwy 460
334,37.393803,-81.061147,Morris Rd/Old Athens Rd
185,37.328039,-81.143565,Redsky Rd/Maple Acres Rd
216,37.373639,-81.104355,Burgess St/Blake Ave
160,37.379635,-81.056966,Old Pisgah Rd/Butternut Dr
185,37.275812,-81.218340,Madison St
216,37.268926,-81.219754,Scott St
579,37.365082,-81.099422,E Main St/Harrison St
1381,37.359440,-81.105589,/Old Bluefield Rd
185,37.307219,-81.254938,/Old US 52 Rd
160,37.344177,-81.144498,/Needham Pl
362,37.343134,-81.159281,New Hope Rd/Dolittle Ln
246,37.370833,-81.083919,Thorn St
305,37.421317,-81.005280,Witherspoon Dr
865,37.246333,-81.240129,Ohio St/Blair Ave
160,37.268489,-81.232634,Park St/Wall St
185,37.257510,-81.253026,Walters Ave
362,37.426095,-81.012021,Burch St
185,37.365892,-81.094256,Bee St/Bluefield Ave
334,37.248077,-81.237296,Ohio St/Golf Ave
160,37.302849,-81.300200,Dolph-Nemours
160,37.365737,-81.061018,Chase Ln/Old Oakvale Rd
160,37.326588,-81.144458,Redsky Rd/Caywood Ln
160,37.329835,-81.096522,Clover Dew Dairy Rd
185,37.342716,-81.169698,Harmon School Rd/Oakland Dr
160,37.375946,-81.106322,Upper Pine St
160,37.366995,-81.077509,Kirk St/Young Ave
334,37.375138,-81.097190,Cove St
246,37.260015,-81.192515,E Cumberland Rd/Edgemont Dr
334,37.251793,-81.232081,/Maryland Ave
276,37.366093,-81.073972,/Thorn St
246,37.427539,-81.201032,Beeson Rd
216,37.361726,-81.060004,Greenview Ave
216,37.357669,-81.141435,/New Hope Rd
334,37.269029,-81.183223,/Oxenford Rd/Horton Rd
334,37.337873,-81.168209,New Hope Rd/Lakeland Park
185,37.294071,-81.169423,/Orchard St
185,37.268167,-81.211826,Glendale Ave
276,37.362340,-81.120759,Kim St
418,37.248441,-81.232626,Reid Ave
160,37.256045,-81.233002,Woodside Dr
160,37.263492,-81.218945,Beaver Pond Ave/Ellis St/Kidd St
185,37.375488,-81.103441,/Hale Ave
445,37.368500,-81.107837,Honaker St
160,37.315261,-81.138472,State Rte 123
160,37.324775,-81.141505,/Countryside Rd
160,37.319407,-81.263860,/Lorton Lick Rd
276,37.346823,-81.170190,Bayberry Ave/Gardenia Way
185,37.247970,-81.223444,W Cumberland Dr
418,37.255777,-81.225512,Louden St
276,37.423813,-81.024123,/Unity Rd
246,37.292157,-81.255256,US Hwy 52
216,37.390205,-81.051632,Gracy St/Carl Wade Rd
216,37.417774,-81.244922,Bridge St
605,37.423287,-81.014946,N State St/Vermillion St
499,37.374201,-81.096653,N Walker St/N 9th St
276,37.364113,-81.079021,Maple St
445,37.251438,-81.229858,/Walton Ave
185,37.392052,-81.061722,Old Logan Rd/Old Athens Rd
305,37.556021,-81.113753,/Beckley Rd
216,37.380575,-81.075894,Ford Rd/Mink Farm Rd
216,37.357727,-81.143433,New Hope Rd/Bella Dr
185,37.296262,-81.247388,Scenic Vista Cir
185,37.371714,-81.102140,Forest St/College Ave
246,37.366257,-81.094563,/Bee St
160,37.354931,-81.251271,Thrid St
684,37.256896,-81.219303,Hunter Ln/College Ave
160,37.341419,-81.162848,/New Hope Rd
160,37.277777,-81.193907,Dexter St
418,37.363081,-81.076853,Berkley St/Wetzel St
362,37.311429,-81.259592,US Hwy 52/Clearview Ave
216,37.326859,-81.143843,Caywood Ln
160,37.274896,-81.203786,Green St
418,37.422925,-81.026209,Pine Cir/Pinehill Dr
160,37.423454,-81.032684,/Unity Rd
160,37.382620,-81.101091,/White Oak Valley
472,37.267276,-81.226092,/S Mercer St
160,37.364950,-81.057842,Springdale Ave/Worrell St
216,37.253521,-81.216643,/Elwood St
160,37.364884,-81.042542,Lazy-L Cir
276,37.362475,-81.120345,Kim St/Kaye Dr/Kelly St
185,37.389363,-81.058557,Jays Ln
216,37.417593,-81.245607,Bailey St/Circle Dr
305,37.390280,-81.054898,/Simmons Cir
246,37.264442,-81.185910,Kirk St/Brierwood Ln
216,37.302738,-81.093071,I- 77
185,37.356062,-81.170245,Harmon School Rd
160,37.366241,-81.057454,/Old Oakvale Rd
334,37.327534,-81.146889,Elkview St/Pansy Pl
160,37.468895,-81.033139,Horton Ln Rd
445,37.362250,-81.104516,/S Walker St
185,37.451674,-81.105759,/Beckley Rd
185,37.376003,-81.114465,Beckley Rd/High St
160,37.379264,-81.110512,Indian Rocks
246,37.345419,-81.156298,New Hope Rd
276,37.487966,-81.081126,Eads Mill Rd/3 Crosses Rd
185,37.414407,-81.061049,Plato Pl
216,37.329483,-81.130308,/Big Laurel Hwy
185,37.294068,-81.165530,/Mercer Mall Rd
185,37.374671,-81.064670,Bratton Ave
216,37.392784,-81.042520,Fairgrounds Rd
276,37.364608,-81.056748,Oakwood Ln/Coy Ave
445,37.263974,-81.245081,/Hill Ave
276,37.307284,-81.260074,Hibiscus St
185,37.322318,-81.275109,Pepper St/US Hwy 52
216,37.372057,-81.106600,Mlk Ave/High St
160,37.366913,-80.869848,Baxter Ln
246,37.280278,-81.250658,Pollard Ave
216,37.259677,-81.193691,E Cumberland Rd/Grassy Branch Rd
160,37.299005,-81.174091,City View Hts
276,37.267467,-81.179252,Holly Park Ave/Cumberland Rd
276,37.367203,-81.089759,S 5th St/Princeton Ave
865,37.366627,-81.075174,Thorn St
276,37.256447,-81.227035,/Woodrow Ave/Lyndale Ave
185,37.377265,-81.056224,Inspiration Ln
246,37.435425,-81.070239,Dusty Miller Rd/Begonia Way
185,37.432932,-81.061545,Unity Rd/Eads Mill Rd
418,37.264597,-81.239814,Couch St
185,37.507819,-80.990385,Pine Grove Rd
276,37.425374,-81.022506,Bondurant St
160,37.354412,-81.125303,/Sandrine Pt
160,37.373939,-81.127414,Quailview Dr/Quailwood Dr
160,37.272670,-81.220184,Hardy St/Surry St
160,37.352093,-81.094449,Mt Horeb Rd
160,37.408533,-80.963573,/Pisgah Rd
185,37.252978,-81.238702,Lowe St
160,37.357901,-81.139098,Doddril Hollow/New Hope Rd
276,37.362627,-81.110943,11th St
160,37.357460,-80.891555,Goodwins Chapel Rd/Willowton Rd
390,37.311388,-81.259851,Dutch Rd/Clearview Ave
160,37.293592,-81.174105,Napa Ln
160,37.409981,-81.140456,Beckley Rd/Rich Creek Rd
552,37.386858,-81.054169,Pisgah Rd/State Rte 20/Eads Mill
216,37.266140,-81.241515,Couch St
185,37.326809,-81.143304,Caywood Ln
185,37.274511,-81.220124,/Sussex St
839,37.359244,-81.055764,/Ambrose Ln/Oney Gap-Stinson School Rd
185,37.377669,-81.104833,Low Gap Rd
276,37.400479,-81.040138,/State Rte 20
246,37.248736,-81.209207,US Hwy 460
736,37.364763,-81.093326,/Bee St
185,37.269339,-81.217150,Raleigh Ter
160,37.360358,-81.084306,US Hwy 460
160,37.314796,-81.269300,/Nemours Rd
526,37.370055,-81.071777,Athens Rd/State Rte 20
160,37.354318,-81.251975,2nd St
185,37.282865,-81.240363,Stowers Mhp
185,37.282892,-81.276271,Brushfork Falls Mill Rd
334,37.351289,-81.058144,Deer Mountain Dr/Fawn Ln
160,37.270553,-81.169492,/US Hwy 52
216,37.371715,-81.081412,Roundhouse Rd
160,37.299511,-81.158048,/Mercer Mall Rd
305,37.370662,-81.126522,Oriole Ave/Quail Valley
185,37.314634,-81.122823,Clover Dew Dairy Rd/Stonecreek Ln
216,37.352481,-81.135305,Harley Dr/Powerhouse Rd
1123,37.424879,-81.021489,Holyrod Ln
246,37.366961,-81.079383,Dejarnette St
185,37.376333,-81.065345,Old Pisgah Rd
246,37.393523,-81.061469,Old Athens Rd/Pleasant Hill
216,37.251736,-81.230446,Augusta St
185,37.258732,-81.250849,/Tulip St
305,37.365893,-81.069016,/Old Oakvale Rd
185,37.382346,-81.123222,Beagle Ln
305,37.343861,-81.132322,/Glenwood Park Rd
185,37.302449,-81.156539,Mercer Mall Rd/Spery St
160,37.351207,-81.074209,Country Field Dr/Ambrose Ln
334,37.369162,-81.070681,2nd Ave
185,37.367073,-81.088047,S 4th St/Lazenby Ave
276,37.254841,-81.223291,Augusta St
185,37.366501,-81.079809,Dejarnette St
305,37.366859,-81.051984,Old Oakvale Rd/Greenview Dr
605,37.358602,-81.097532,Ingleside Rd
160,37.299155,-81.159548,/Maple View Rd
185,37.496567,-81.105798,Camp Creek Rd
246,37.490382,-81.086594,/I- 77
160,37.352778,-81.136315,Harley Dr
276,37.368518,-81.114220,/Bailey St
160,37.299974,-81.157712,/Mercer Mall Rd
160,37.349547,-81.045239,Wildlife Rd/Greasy Ridge Rd
160,37.304731,-81.110729,State Rte 112/
305,37.363346,-81.098387,/Ingleside Rd
1563,37.362766,-81.051964,US Hwy 460
334,37.340649,-81.153641,Crawford St
160,37.396242,-81.039417,Wynn Ct
216,37.282134,-81.124853,I- 77
185,37.254323,-81.184307,Bland Rd
185,37.315439,-81.145314,Hickory Point Dr
305,37.356836,-81.096383,Mt Horeb Rd
185,37.505391,-81.010193,Pine Grove Rd
160,37.293885,-81.181988,Bull Tail Hollow Rd
276,37.349096,-81.153025,Caudill Ct
865,37.366389,-81.100211,Honaker Ave/Thorn St
160,37.511564,-81.100313,Pigshin Ridge Pl
185,37.266149,-81.221456,Jones St/Bland St/Clifford St
216,37.259454,-81.193224,/US Hwy 52
276,37.304285,-81.256939,US Hwy 52
418,37.263884,-81.235384,Highland Ave/Spruce St
216,37.317488,-81.268812,US Hwy 52
305,37.492254,-81.095423,/Co Rte 3/8/Pincy Flat
160,37.350721,-81.077345,/12 Mile Rd
390,37.257706,-81.223550,/Pen Mar Ave
334,37.351743,-81.118779,Courthouse Rd
362,37.251341,-81.231887,Maryland Ave/Augusta St
390,37.372130,-81.086894,N 2nd St/Highland Ave
160,37.276932,-81.200076,Princeton Ave
305,37.307177,-81.260293,Hibiscus St
160,37.272026,-81.217269,Grant St
418,37.370092,-81.086122,Mercer St/S 2nd St
276,37.285751,-81.252402,Emerald St
334,37.367270,-81.079838,Meadow St
185,37.402680,-81.059864,Eads Mill
160,37.417606,-81.244806,Barger St
160,37.379801,-81.074687,N Wickham
334,37.369489,-81.080584,/Thorn St
276,37.391790,-81.059619,/Old Logan Rd
185,37.341024,-81.133832,/Breezehill St
160,37.409611,-81.140420,Beckley Rd
216,37.400706,-81.126321,/Kegley Rd
305,37.253727,-81.227838,Kell St/Melrose St
160,37.302751,-81.311039,/Nemours Valley Rd
160,37.358834,-81.030124,Hilltop Dr
305,37.307102,-81.090190,/State Rte 112
334,37.426490,-81.065955,I- 77
418,37.374104,-81.062853,Bratton Ave/Linkous St
185,37.281814,-81.239335,/Brush Fork Stoney Ridge Rd
276,37.279969,-81.138859,Cumberland Rd
160,37.246782,-81.224843,Rhododendron Ln/3 Springs Dr
418,37.368186,-81.073462,/Athens Rd
160,37.354553,-81.252911,Virginia Gills St
160,37.271275,-81.224176,Hardy St/Fairfax St
216,37.270195,-81.172044,Linkous Dr/Cumberland Rd
276,37.345874,-81.151559,Morgan Dr/Don Morgan Dr
185,37.259761,-81.193399,US Hwy 52/E Cumberland Rd
390,37.436374,-81.070648,Dusty Miller Rd/Carnation Ln
160,37.263536,-81.232197,/Walnut St
246,37.294152,-81.168710,/Orchard St
472,37.424982,-81.067006,/I- 77
160,37.352452,-81.072526,Star Dr/Country Field Ln
185,37.391403,-81.044465,State Rte 20/Pond Rd
160,37.334959,-81.172190,/New Hope Rd
1174,37.366477,-81.123964,Church Ln
390,37.356333,-81.113768,Overholt Ave
160,37.271316,-81.167799,US Hwy 52/US Hwy 460/Cumberland Rd
185,37.384572,-81.045275,Pisgah Rd//Melrose Ln
185,37.360912,-81.071864,Misty Hills Dr
185,37.317631,-81.264868,Lorton Lick Rd/Duck Pond Rd
185,37.265891,-81.226029,Summit Rd/Summit St
160,37.377054,-81.064455,Old Pisgah Rd
160,37.382672,-81.227688,Vest Dr
390,37.374819,-81.067191,/State Rte 20
246,37.364512,-81.118893,Undercliff Ter/New Hope Rd/Fairview St
334,37.373512,-81.067969,/State Rte 20
276,37.312543,-81.259425,Old Wv 20
246,37.270407,-81.227304,N Mercer St//Bedford St
418,37.342137,-81.153148,Phelps St/Maple Acres Rd
334,37.344748,-81.151111,Olen Ave/
160,37.371366,-81.127960,Sparrow St
390,37.256837,-81.203040,Longview Ter
160,37.348115,-80.928555,Whitlow Rd
160,37.332508,-81.243056,Lorton Lick Rd
276,37.473343,-81.008117,State Rte 20/Lilly Pond Rd
216,37.423678,-81.026062,Pine Cir
246,37.362681,-81.124257,Lowe Ln/Hurst St
216,37.259960,-81.193782,Grassy Branch Rd
160,37.273971,-81.209410,Franklin St/
305,37.368825,-81.092184,/S 7th St/Harrison St
185,37.315210,-81.145433,Hickory Point Dr
160,37.409297,-81.067716,/Gardner Rd
276,37.251081,-81.213441,W Cumberland Rd
445,37.316404,-81.265092,Lorton Lick Rd
334,37.375316,-81.075449,/Old Athens Rd
1226,37.366997,-81.102435,Honaker Ave/N Walker St
160,37.286638,-81.117099,Old Cumberland Rd
185,37.341001,-81.133796,/Green Valley Rd
160,37.293150,-81.255636,/US Hwy 52
160,37.370676,-81.062937,Northview Ave
305,37.339180,-81.060690,/I- 77
160,37.252446,-81.211927,Verdun Hts
305,37.266570,-81.225822,S Mercer St/Russell Ter
390,37.364838,-81.067687,Oakvale Rd
160,37.270983,-81.225407,Roanoke St/Bedford St
185,37.394588,-81.040811,State Rte 20
160,37.435307,-81.197688,Pinoak Rd/Rich Creek Rd
216,37.338982,-81.130841,Sargent St/Village Green Cir/Singer St
390,37.370969,-81.095271,/N 9th St
305,37.368898,-81.109166,Honaker St/Grape St
276,37.285763,-81.252367,Emerald St
185,37.421623,-81.201170,Matoaka Rd
185,37.357633,-81.244043,/State Rte 71
246,37.261102,-81.225583,Gordon Ave
246,37.283327,-81.275310,/Coppola Mobile Home Park
160,37.273851,-81.164277,/US Hwy 460
305,37.427018,-81.018552,Wellswood Rd
160,37.317101,-81.270068,/Co Hwy 52/11/Poetown Rd
334,37.395433,-81.040861,Wynn Ct/State Rte 20
160,37.362944,-81.012471,/Halls Ridge Rd
160,37.378495,-81.030577,Damson/Green Acres
185,37.311265,-81.140685,/State Rte 123
160,37.345775,-81.117459,Winfrey Mobile Home Park/Old Bluefield Rd
305,37.343381,-81.156598,Jera-K St/Jodi St
276,37.381790,-81.047961,Sycamore Ct/Willow Oak Dr
160,37.380380,-81.093564,Thornton Ave/Flint St
472,37.366299,-81.074671,Thorn St
276,37.285456,-81.253055,Emerald St
160,37.296518,-81.260339,Linden Ave/Oakpark Dr/Bottom St
1563,37.359971,-81.106427,/Bluefield Rd
185,37.246008,-81.225620,/Three Springs Dr/Tamarack St
334,37.268509,-81.197528,/Grassy Branch Rd
185,37.304639,-81.139323,Big Laurel Hwy
305,37.365406,-81.083485,/S Wickham Ave
160,37.394723,-81.039778,Redden Estates St
185,37.251654,-81.212355,W Cumberland Rd
185,37.268094,-81.216723,Bird Ln/Jones St
185,37.342817,-81.275354,Whittaker Hollow
160,37.447540,-81.107353,Horner Ln
216,37.285597,-81.120327,Old Cumberland Rd
185,37.262105,-81.200184,Cliffmont Ave
160,37.431646,-81.068778,Daisy St
499,37.425421,-81.015485,State Rte 20/E Broadway St
276,37.304267,-81.151012,/State Rte 123
160,37.357526,-81.230915,Sandlick Rd/Old Wv 71 Rd
185,37.289688,-81.255995,Old Secondary 23 Rd
216,37.293027,-81.165131,Big Laurel Hwy
305,37.369740,-81.108269,Mahood Ave
1149,37.369534,-81.095126,N 9th St/Thorn St
160,37.302704,-81.267846,Pinnacle Vw
445,37.369806,-81.071998,Athens Rd
334,37.255710,-81.225665,Melrose St/Louden St
160,37.359430,-81.263250,Crane Creek Rd
276,37.361025,-81.128241,/New Hope Rd
362,37.352725,-81.150771,/New Hope Rd/Assembly Ln
362,37.371406,-81.097016,Park Ave/Highland Ave
185,37.368106,-81.081757,S Wickham Ave/Industrial St/Meadow St
334,37.371425,-81.096556,Highland Ave
334,37.373169,-81.068309,State Rte 20
160,37.338995,-81.087744,/Clover Dew Dairy Rd
216,37.246730,-81.225663,Crab Apple Ln
160,37.415618,-81.049436,/Mercer Springs Rd
246,37.349187,-81.153813,/New Hope Rd
185,37.368372,-81.074725,/Kee St
216,37.365792,-81.081540,S Caperton Ave/Wysong St
185,37.359842,-81.236142,/State Rte 71
246,37.354471,-81.149061,New Hope Rd/Home Pl
552,37.365791,-81.125526,3rd St/Rolling Hls
334,37.362994,-81.079153,Fayette St/Locust St
445,37.509127,-81.119479,I- 77
472,37.314793,-81.258989,New Hope Rd
185,37.372180,-81.101984,Blake Ave/Forest St
276,37.362180,-81.075466,US Hwy 460
246,37.362503,-81.080072,/Fayette St
185,37.366878,-81.061241,Chase Ln
160,37.445747,-81.121200,Beckley Rd
762,37.425353,-81.011947,Burch St/E Broadway St
1046,37.365981,-81.102684,E Main St/Alvis St/N Walker St
160,37.261072,-81.203112,Parkway Ave/Mountain View Ave
445,37.248725,-81.236212,Ohio St
160,37.285620,-81.164888,Country Girl
246,37.343637,-81.120555,/US Hwy 460
334,37.336595,-81.150425,/Maple Acres Rd
216,37.263114,-81.233314,/Locust St
362,37.298593,-81.261028,Middle St/Top St
160,37.314148,-81.126060,/Clover Dew Dairy Rd
160,37.323949,-81.212518,/New Hope Rd
216,37.286709,-81.252357,Perdue Hollow Rd/Coal Heritage Rd
526,37.386557,-81.054587,State Rte 20/I- 77
246,37.341693,-81.149572,Summerfield Rd/Von Nida Bahn Ave
160,37.310652,-81.240871,/Red Oak Ridge
246,37.249046,-81.209467,Fincastle Ln
246,37.583386,-81.120242,/I- 77
334,37.406292,-81.032325,State Rte 20/Mercer Springs Rd
160,37.370068,-81.077127,N McNutt Ave
246,37.326763,-81.061128,Mt Horeb Rd
185,37.258102,-81.200737,Mountain View Ave
334,37.368033,-81.114376,/Bailey St
160,37.335960,-81.245170,Dahlia Rd
305,37.364188,-81.075460,Summers St/Fayette St
362,37.280919,-81.249325,Coal Heritage Rd/Pollard Ave
185,37.358588,-81.144943,/Bella Dr
185,37.311517,-81.143315,Clary Dr/Mountain Ash Dr
160,37.420042,-81.190233,Acuff Rd
185,37.255497,-81.214253,Grandview Hts
216,37.377597,-81.091264,Thornton Ave
185,37.342356,-81.156315,/Boggs St
631,37.416016,-81.015872,/S State St
160,37.420410,-81.078964,Spanishburg-Athens Rd
684,37.421436,-81.010485,Weaver St
185,37.372769,-81.101797,Low Gap Rd/Forest St
160,37.365829,-81.042633,Lakeview Dr
390,37.341039,-81.152818,Maple Acres Rd/Crawford St
185,37.262134,-81.233891,Locust St
185,37.272795,-81.212390,Franklin St
334,37.369122,-81.079718,N Caperton Ave/Thorn St
160,37.257231,-81.225817,Lyndale Ave/Woodland Ave
246,37.390043,-81.050257,/Porter Dr
418,37.367714,-80.868376,US Hwy 460
160,37.371344,-81.120448,Mockingbird Pl
160,37.416340,-81.196613,Mount Olive Rd/Wright Mtn Rd
305,37.368981,-81.092196,/S 7th St/Harrison St
788,37.257699,-81.218549,Bland St/Bland Rd/College Ave
160,37.377512,-81.093128,Washington Ave
246,37.363798,-81.120837,New Hope Rd/Hope Ln
552,37.371082,-81.093350,/N 8th St
160,37.370734,-81.063261,Northview Ave
246,37.437366,-81.071230,/Dusty Miller Rd/Thunder Valley Dr
185,37.384437,-81.190535,Simpson Ct
160,37.334873,-81.172359,New Hope Rd
160,37.262588,-81.222950,Ridge St/W Ridge St
185,37.364595,-81.110454,Valley View St/
246,37.283758,-81.127936,/Cumberland Rd
216,37.266599,-81.180038,US Hwy 52
445,37.282756,-81.167346,/US Hwy 19/Big Laurel Hwy/US Hwy 460
276,37.342931,-81.123640,US Hwy 460
160,37.380102,-81.101630,/White Oak Dr
160,37.294863,-81.174727,Bull Tail Hollow Rd/Hurricane Rd
185,37.372667,-81.109618,Park St
445,37.253031,-81.236939,Ferndell Ave/Stadium Dr
160,37.473563,-81.006497,Lilly Pond Rd
305,37.381128,-81.053335,Teresa St
246,37.341249,-81.169616,Harmon School Rd
160,37.255566,-81.238255,Taft St
216,37.345297,-81.117498,Winfrey Mobile Home Park
160,37.342729,-81.049695,/Pvt Dr 2222
185,37.369317,-81.083035,Kirk St/Hines Ave
472,37.422606,-81.007865,Plymouth St
362,37.370389,-81.096077,/Straley Ave
216,37.275975,-81.213033,Putnam St
362,37.255050,-81.219536,Washington St/Albemarle St
160,37.286911,-81.167799,Big Laurel Hwy
246,37.285750,-81.253373,/Moonlight Ln
216,37.374572,-81.091458,N 5th St
160,37.251178,-81.214504,/Washington St
216,37.364115,-81.064990,/Oakvale Rd
185,37.271233,-81.217816,Monroe St/Princeton Ave
418,37.268369,-81.226531,S Mercer St/Bluefield Ave/Princeton Ave/McCulloch Ave
185,37.319293,-81.264001,/Lorton Lick Rd
762,37.368097,-81.101970,Douglas St/N Walker St
334,37.256894,-81.201106,Crestwood Dr
246,37.329293,-81.130146,/Big Laurel Hwy
362,37.384212,-81.059830,Mary I Johnson Rd
526,37.264279,-81.235614,Spruce St
390,37.291176,-81.165196,Mercer Mall Rd/Big Laurel Hwy
1071,37.424877,-81.020795,Marsh St
160,37.268454,-81.201061,Ridgemont Rd
185,37.257496,-81.253096,Walters Ave
216,37.359481,-81.136830,/New Hope Rd
185,37.360162,-81.078119,Jennings St
160,37.322484,-81.214894,Hurricane Ridge Rd
185,37.353452,-81.110109,Pleasant Valley/Old Bluefield Rd
160,37.421884,-81.199098,Platte St/Keith St/Presbyterian Ave
185,37.274327,-81.216891,Greenbrier St
185,37.531058,-81.112108,Ashwood Rd
185,37.318771,-81.264479,Lorton Lick Rd
160,37.370038,-81.075686,Prince St
185,37.354338,-81.250315,/4th St
160,37.321110,-81.272356,Redhead Rd
216,37.270489,-81.218646,Summer Pl
185,37.372660,-81.053087,Bratton Ave/Barbarosa Ln
160,37.317228,-81.117763,Landsend Ct/Stone Mt Dr
160,37.264055,-81.224775,W Ridge St
276,37.339397,-81.060974,I- 77
246,37.273329,-81.213387,Princeton Ave/Lee St
185,37.304088,-81.151809,/State Rte 123
276,37.266056,-81.225865,Summit St
246,37.362703,-81.116564,Springhaven Dr
185,37.367553,-81.050778,Teri Cir
160,37.419579,-81.241790,/Court St
160,37.272999,-81.202725,/Ridgemont Rd
185,37.298802,-81.160608,Mercer Mall Rd
160,37.403740,-81.159979,/Matoaka Rd
160,37.358759,-81.263233,Happy Hollow Rd
160,37.332604,-81.243081,Lorton Lick Rd
276,37.361050,-81.127086,/Graystone/Guard Dr
160,37.387453,-81.097894,Thornton Ave/Low Gap Rd
390,37.258770,-81.219883,/South St
216,37.244095,-81.228271,US Hwy 460
276,37.372363,-81.058660,Bratton Ave
185,37.344163,-80.986696,/Goodwins Chapel Rd
390,37.370260,-81.096694,Park Ave
684,37.369307,-81.098560,North St
185,37.352637,-81.073267,Ambrose Ln
334,37.383493,-81.099944,Short St//Gum St
334,37.312375,-81.138809,/Old US 19 and Wv 71 Rd
216,37.383412,-81.093910,Douglas Ave/Spring Grove Ave
160,37.339528,-81.076258,12 Mile Rd
605,37.264732,-81.235895,Bluefield Ave/Spruce St
305,37.253032,-81.232385,Hillcrest St
390,37.363721,-81.075469,Summers St
362,37.269484,-81.173146,US Hwy 52
160,37.318103,-81.109647,Autumn Ln
276,37.368909,-81.128783,Redknot St
185,37.404505,-81.155581,Matoaka Rd/Cornstalk Ln
160,37.364332,-81.037457,Halls Ridge Rd/US Hwy 460
160,37.261487,-81.236654,/Cherry St
334,37.258576,-81.220175,South St
160,37.379081,-81.075482,N Wickham/Mink Farm Rd
160,37.338668,-81.066681,12 Mile Rd
185,37.342243,-81.174763,Hare Ct
362,37.363466,-81.096786,E Main St/Princeton Ave
710,37.416605,-81.015253,Cemetery Rd
160,37.379568,-81.074123,/Old Athens Rd
276,37.288372,-81.167452,Old Princeton Rd
185,37.356868,-81.140406,Pony Farm/Saddle Way
305,37.344997,-81.156973,/New Hope Rd
246,37.366588,-81.090898,S 7th St/Princeton Ave
445,37.364361,-81.083815,S Wickham Ave
160,37.372499,-81.059194,Bratton Ave
246,37.321545,-81.134989,Big Laurel Hwy
160,37.500392,-81.064756,Ellison Sc Rd/Sugar Maple Rd
445,37.249713,-81.238860,Golf Ave
362,37.284880,-81.251384,/Coal Heritage Rd
160,37.281287,-81.281641,/Brushfork Falls Mill Rd
276,37.285302,-81.253285,Emerald St
246,37.256492,-81.204226,Tolosa St
160,37.283367,-81.232520,Airport Rd
445,37.282713,-81.167534,US Hwy 19/US Hwy 460
305,37.255032,-81.211375,Bland Rd/Shady Ave
160,37.362142,-81.040920,Hilltop Dr
472,37.364774,-81.051055,/Oakvale Rd/Old Oakvale Rd
