Estimated daily crossings,Latitude,Longitude,Name
246,40.069123,-80.784256,National Rd
160,40.088386,-80.898479,N Sugar St
579,40.089079,-80.728532,Monroe St/S 1st St
579,40.049259,-80.734173,/I- 470
305,39.992697,-81.190048,/Hospital Dr
472,39.974836,-80.751353,W 38th St
216,39.964037,-80.763220,Wegee Rd/Shaver Hill Rd
579,40.080030,-80.902967,E Main St/N Marietta St/W Main St/S Marietta St
216,39.864892,-80.797867,Main St
305,40.006158,-80.744396,/E 21st St/State Rte 7
160,40.004661,-81.129533,/Oak Ln
185,39.989178,-81.170831,Railroad St
472,40.073887,-80.897674,/S Sugar St
579,40.030438,-80.737958,48th St/State Rte 7
276,40.071989,-80.907523,Overlook Ct
362,40.014471,-80.744888,Oak Aly/32nd St
160,39.924525,-80.782693,/Big Run Rd
160,40.125684,-80.938393,/Crapple Rd
160,40.060287,-81.161288,North Rd/Sewellsville
185,40.019235,-80.748112,35th St/Clinton St
334,40.014688,-80.757524,Elm St
658,40.092804,-80.725372,Clay St/Grant Ave
552,40.023133,-80.746166,/41st St
185,40.067544,-81.043689,Oakwood Dr/Ashwood Dr
160,40.045081,-80.848600,/Willow Grove Rd
160,40.102402,-80.739278,Ayers Dr/Darrah Rd
246,39.862981,-80.812667,Ohio River Hwy
216,40.053768,-80.816389,I- 470
160,39.990826,-81.161911,Railroad St
185,40.117911,-81.217741,Sewellsville/Hibbstown Rd
362,40.070948,-80.758568,Patterson Rd
305,40.031783,-80.739157,Cummins Rd
160,39.989547,-81.150451,Roosevelt Rd
216,39.981054,-81.179995,/Carl St/Dorsey Ave
499,40.030895,-80.740025,48th St
160,40.070681,-80.779613,/Commercial Dr
605,39.969157,-80.753703,Central Ave
185,39.898528,-80.826578,/Little Captina Rd
160,40.146756,-80.708179,/Tin Plate Pl
710,40.093296,-80.724818,Locust St/Grant Ave
185,40.063632,-81.108563,/National Rd
526,40.020577,-80.743293,38th St
334,40.017746,-80.781168,/Ann St
362,39.973032,-80.752512,Adams Ave
160,40.057853,-81.119686,McMillian Rd/I- 70
579,40.090512,-80.731650,/Monroe St
418,40.005979,-80.745209,/W 20th St
246,40.076863,-80.890941,Plum Aly
334,40.151571,-80.712363,State Rte 7
246,39.994023,-81.167559,/Wiley Ave
246,39.957314,-81.175129,Wright Rd/Somerton Hwy
216,40.059459,-81.157645,/Sewellsville
276,39.964311,-80.759879,Wegee Ln
185,39.983690,-81.160344,Morgantown Ave
160,40.094621,-80.736750,W Vine St
160,40.063170,-80.739405,Grandview Ave
185,40.066615,-80.808256,Bobby Douglas Brg
160,40.149506,-81.038613,/Flushing New Athens Rd
160,40.110238,-80.710097,Ohio Ave/
185,40.079013,-80.913375,Myrtle Dr
160,39.990637,-81.150589,Roosevelt Rd
185,39.947031,-81.231681,Twp Hwy 745
246,40.069332,-80.783005,National Rd
710,39.988272,-81.181417,/S Cmns
160,40.072947,-80.951684,Pine Ln/W Main St
579,40.083671,-80.897855,N Sugar St/Legion Rd
605,39.988479,-81.182303,/S Cmns
390,40.096847,-80.732907,Belmont Ave
185,40.074421,-80.792171,Chermont Rd/National Rd
216,40.015038,-80.755147,Dorer Ave/Maple Ave
185,40.151067,-80.717917,Charles St
185,40.096416,-80.910175,Jug Run Rd/Provident Rd
216,40.072270,-80.766144,6th St/Spring St
1046,39.973157,-80.746756,W 38th St/E 38th St/Central Ave
305,40.047649,-80.733959,/Jefferson St
684,40.010898,-80.743837,27th St/Plum Aly
216,40.098630,-80.735480,Colerain Pike/Crescent Rd
160,39.955305,-80.780059,Wegee Rd/Webb Heights Rd
185,39.994450,-80.743053,11th St
334,39.967764,-80.749554,/E 44th St
185,40.077626,-80.922029,W Main St
160,39.860285,-80.813556,/Sycamore St
362,40.066405,-80.774698,Main St
216,39.974450,-80.753678,W 39th St/Jamison Ave
160,40.048233,-81.046559,Twp Hwy 92 A/Loy Rd
160,40.123373,-80.943928,/Columbia St
160,40.032915,-81.158636,/Barnesville Hendrysburg Rd
160,40.024045,-81.073516,N 26th Rd
334,40.071317,-80.739286,I- 70
276,39.865033,-80.799181,/Hopple St/Allen Ave
216,39.919604,-80.772644,Ferry Landing Rd
160,39.955291,-80.840734,/Lockwood Run Rd
917,40.021673,-80.742317,Noble St
160,40.076331,-80.787100,Terrace Ave/Maple Ave
362,40.078549,-80.891889,Locust Ln
418,40.096933,-80.727340,/S 7th St
246,40.069455,-80.789138,Wabash St
216,40.072972,-80.782386,Alley C/Mutton Hollow Rd
160,39.868138,-80.828779,E Captina Hwy
334,40.017257,-81.074004,/N Main St
305,39.958076,-81.175101,/Somerton Hwy
216,40.070826,-80.765678,2nd St
526,40.077487,-80.917844,W Main St
246,40.069318,-80.781495,Willow Ave/National Rd
246,40.082695,-80.895865,Newell Ave Exd
1485,40.017701,-80.742178,Cherry Aly
216,39.964025,-80.762966,/Wegee Rd
185,40.065672,-80.830471,I- 70
305,40.066504,-80.842332,Kings Run
160,39.980515,-81.179516,Carl St/Robinson Ave
160,40.025078,-81.060387,Bethesda Belmont Rd
160,40.065030,-80.766260,Plum St/Boyd Ave
390,40.077821,-80.909233,Johnet Dr/W Main St
160,39.959093,-81.169972,Chestnut Ridge Rd
185,40.002906,-80.744964,17th St/Guernsey St
160,39.859096,-80.813541,/Cedar St
185,39.911285,-81.138796,Somerton Hwy
160,40.105792,-80.841063,Maple Dr
185,40.148852,-80.842008,/Colerain Rd
246,40.067208,-80.901241,Belmont Ave/Warnock Saint Clairsvi Rd
276,40.077585,-80.920628,/W Main St
499,39.985950,-81.178134,/S Chestnut St
216,40.014795,-80.746111,Quarry St/Hamilton St/32nd St
216,40.059698,-80.829465,/I- 470
216,40.148964,-81.038542,/Saint Clairsville St
305,39.864749,-80.798713,/Hopple St
160,40.119382,-80.875921,Hall St/Sister's St
216,40.071472,-80.998854,Lloydsville St
216,40.137927,-80.710559,Old State Hwy 7
246,39.865175,-80.801918,Joyven Park
160,40.075899,-80.902650,South St
276,40.075441,-80.909770,Johnet Dr/Iona Dr
216,40.118574,-80.713125,Bridge St
1850,40.085811,-80.735250,Broadway St
445,40.019890,-80.743338,Noble St
246,40.028428,-80.814859,/Union St/Elm Aly
526,40.083235,-80.890571,E Main St/Parshall Ave
160,39.984981,-81.169788,Ohio St
185,39.860150,-80.815023,Ohio River Hwy
160,39.881260,-80.848719,E Captina Hwy
216,40.016694,-80.784564,Old Twp Rd 310/Merrits Row/Patterson Hill Rd
160,40.021163,-81.138344,Mount Olivett Rd/Neptune Ln/Mt Olivett Rd
216,40.139787,-80.713636,/State Rte 7
472,40.153964,-80.710350,Sinclair Ave/Wilson
216,40.066820,-80.859879,Jennifer Ln/
305,40.061599,-81.047626,/I- 70
334,40.097273,-80.728358,S 8th St/Hickory St
736,39.969904,-80.752020,/Central Ave
605,40.012855,-80.743153,Plum Aly
246,39.914722,-80.758011,Ferry Landing Rd/Twp Hwy 533 A
276,40.022467,-81.071521,Bethesda Belmont Rd/2nd St/Maple Ave
185,40.075521,-80.890452,Apple Aly
246,39.862767,-80.804518,Mellott St
246,40.072651,-80.751111,Maple St/Maple Ave
305,39.988513,-81.159103,Bernhard St/Shamrock Dr
390,40.099376,-80.729364,Walnut St/S 12th St
160,40.150364,-80.842496,Pleasent/Pleasent Grove Rd/Emerson Rd
362,40.096117,-80.720714,Park St/N 2nd St
216,40.064212,-80.768413,Winning Ave/S Winning St
276,39.981995,-81.176190,Pike St
305,40.099764,-80.720244,/Ellet St
276,40.058386,-81.058163,/I- 70
185,40.067470,-80.808282,Crosley Rd
579,39.987431,-81.175303,N Arch St/E Main St
160,39.995665,-80.992855,Belmont Centerville Rd/Hart Rd
1097,40.019652,-80.742580,37th St/Oak Aly
246,40.066994,-80.777007,Wheeling Ave/National Rd
499,39.972909,-80.753186,W 40th St
334,40.010065,-80.743182,W 26th St
658,40.014178,-80.743812,32nd St/Cherry Aly
160,40.138040,-80.818731,Firemans Ln
246,40.062803,-81.075998,Main St/Alley 4
160,40.057664,-81.119665,McMillian Rd
276,39.865904,-80.792738,Witten Ave
160,39.971666,-80.862636,/Crozier Ridge Rd
305,40.074881,-80.790213,Scott St/Lansing Terrace Ln
185,40.003830,-80.869204,Glencoe Stewartsville Rd
160,40.097285,-80.752823,Buckeye Run Rd
472,39.971195,-80.752186,/Washington St
334,40.068107,-80.744235,/Dekalb St
185,40.120999,-80.946988,Crabapple Rd/Jo Henry Rd
160,39.979187,-81.143580,/Pigeon Point Rd
499,40.068357,-80.741616,Whitely St/Kirkwood Heights St
160,39.860534,-80.807402,Water St/Front St
276,39.987414,-81.169640,E Main St/Ohio St
552,40.089328,-80.735893,/Virginia St/Willow Ave N
160,40.116414,-80.951875,Crabapple Rd/Campbell Rd
216,39.977775,-80.741850,Elk St
362,40.071130,-80.754303,West St/High St
334,40.004869,-80.743915,/E 18th St
160,39.911861,-81.236005,Zanesville St/Temperanceville Rd
160,40.015265,-81.073641,Front St
276,40.076441,-80.928734,W Main St
579,40.090316,-80.728332,Grant Ave
445,40.084550,-80.887111,Barton Rd/Forest Lawn Ave/Walnut Ave
472,40.086557,-80.736232,S Zane Hwy/Union St
185,39.988220,-81.150465,/Roosevelt Rd/Sandy Ridge Rd
472,40.028607,-80.741173,46th St/Harrison St
736,39.971120,-80.755380,Jefferson St/W 43rd St
1433,39.970719,-80.750594,W 41st St/Central Ave
216,40.098783,-80.734879,West Rd/Crescent Rd
160,40.004614,-81.120796,/Spiedel Dr Exd
160,40.025300,-81.157068,Walker Rd/Barnesville Hendrysburg Rd
160,40.052917,-80.796202,/High Ridge Rd
334,40.108062,-80.711327,Kuckuck Ln
216,40.118710,-80.797628,Colerain Pike/Negus Rd
813,40.012987,-80.743732,Belmont St/31st St
917,39.975363,-80.745218,/W 36th St
216,40.082002,-80.904636,N Marietta St/Jepson Ave
185,39.875877,-80.796053,Ohio River Hwy
334,40.070264,-80.906454,I- 70
305,39.974100,-80.749312,W 38th St/Grandview Ave
185,40.123831,-80.807930,S Colerain Rd
246,40.016334,-80.760375,High St
526,40.099385,-80.724778,N 8th St/Park St
160,40.146258,-81.067862,Morristown St
579,40.077103,-80.745347,Cadiz Pike/Laipple St
216,40.031206,-80.744325,47th St/B St
160,40.094935,-80.720424,Reichart Way/N 1st St
216,40.155608,-80.708440,4th Ave/Market St
499,40.014297,-80.758489,2nd Ave/Plum Aly
276,40.038636,-80.735143,N Guernsey St
216,40.132518,-80.992798,Uniontown-Flushing Rd
160,39.876330,-80.795987,/Ohio River Hwy
276,40.010039,-80.742874,/W 26th St
185,40.003532,-80.870069,Glencoe Stewartsville Rd
334,40.068740,-80.974817,/I- 70
334,40.070806,-80.746919,Hall St/Sumpter St
526,39.969372,-80.751136,Library Dr/
499,40.093532,-80.732552,S Zane Hwy
305,39.993897,-81.168314,Neva Ave
1071,39.970189,-80.751520,/Central Ave
499,40.069437,-80.740524,S Lincoln Ave/Jefferson St
710,40.095799,-80.730139,Delaware St
246,40.151727,-81.044673,E High St
185,40.159705,-81.137811,Center Ave
185,39.997384,-81.150462,Tacoma Rd/Hickory Ln
160,39.891430,-80.909237,/E Brown Peavine Rd
185,39.980757,-81.179232,Carl St
246,40.063632,-81.008199,/I- 70
185,39.976163,-81.142822,/Pigeon Point Rd
631,39.971357,-80.755252,Jefferson Ave
160,40.012239,-81.072546,S Main St/Spruce St
362,40.022247,-80.743499,41st St/Harrison St
185,40.074756,-80.938665,W Main St
736,40.088321,-80.730549,Railroad St/Grant Ave
160,40.025682,-81.047550,Brown St/Hunter St
305,40.007221,-80.743925,E 22nd St
276,40.085721,-80.897641,Talbot Ave
526,40.090374,-80.731116,Monroe St/Broadway St
185,40.107193,-80.839883,Bilmar Rd/Church St
160,40.125611,-80.808560,S Colerain Rd
2435,40.070980,-80.865252,/Mall Rd
160,40.060225,-81.160648,Sewellsville/Bond Rd
276,40.063105,-81.074842,W Cross St/Main St/S R 26
334,40.066701,-80.756354,Boyd Ave
334,40.068933,-80.890110,High St Exd
160,39.991828,-80.896289,Mellott Rd
499,40.099304,-80.724874,Park St/N 8th St
276,40.071777,-80.766162,5th St
185,39.988218,-81.150334,/Roosevelt Rd/Sandy Ridge Rd
185,40.121551,-80.945920,Crabapple Rd/Columbia St/Dudek-Subdivision Rd
246,40.070899,-80.883086,Saint Clair St
305,40.036951,-80.736054,Jefferson St
305,39.864246,-80.809986,Ohio River Hwy/Lynn Dr
445,40.087497,-80.732725,/Broadway St/Buckeye St
160,39.970309,-80.964099,Anderson Run Rd
216,40.066895,-80.744185,Kennon Rd/Gould Rd
3364,40.074724,-80.869309,Mall Rd
605,40.068034,-80.742539,/Lee St
160,39.899669,-80.969007,/Pugh Ridge Rd
160,39.856464,-80.954508,/Clover Ridge Rd
185,39.917041,-80.766501,State Rte 7
216,40.119096,-80.712648,Bridge St/W Victory Rd
943,40.021289,-80.742774,Chestnut Aly
160,40.066735,-80.831250,National Rd
390,40.068474,-80.744214,Whitely St/Dekalb St
185,40.072250,-80.907493,Overlook Ct
305,40.021215,-81.140158,Church St/Neptune Ln
160,40.074735,-81.058105,Robin St
185,40.065888,-80.780004,Kennedy Ave
305,40.070240,-80.849099,Ebbert North Rd
216,40.038316,-80.734532,Guernsey St
160,40.095496,-80.748428,Crest St
246,40.065370,-81.072024,/Memory Ln
160,39.917414,-80.806533,/State Rte 7
216,39.991967,-81.157942,Bethesda St Exd/Bethesda St/Eastview Ct
185,40.120455,-80.804042,Silouette Dr/Silhouette Dr/High View Row
246,39.977066,-80.924444,Glencoe Rd
216,40.089881,-80.909605,Jug Run Rd/Vineyard Rd
160,40.021014,-81.071558,/2nd St
305,40.068152,-80.895796,Clark Rd
362,40.070020,-80.856245,I- 70
579,40.067485,-80.892033,Willow Grove Rd
276,40.073050,-80.983583,/W Main St
631,40.016401,-80.743409,Guernsey St/34th St
334,39.866892,-80.794481,/Witten Ave
185,39.978088,-80.740603,State Rte 7
185,40.077045,-80.791854,Maple St
216,40.062915,-81.044437,I- 70
185,39.964670,-80.757992,State Rte 7 Scn
216,39.860491,-80.813977,Sycamore St/Maple St
216,40.126560,-80.711537,Old State Hwy 7
185,40.076682,-80.944844,Dutch Ln/Vineyard Rd
185,40.111243,-81.017127,Mount Hope Rd/Lafforty Station Rd
185,40.075138,-80.889230,Broadland St/Bankbarn Ter
160,39.938934,-81.195660,/Wright Rd
305,40.028331,-80.738589,State Rte 7
216,40.077700,-80.932598,/I- 70
185,40.015957,-80.783962,Old Twp Rd 310
216,40.090370,-80.908018,N Market St Exd
246,39.983373,-81.175858,S Lincoln Ave/Clinton St
246,40.038635,-80.734524,N Guernsey St
185,39.962953,-80.754626,State Rte 7
185,40.076453,-80.898591,Spring St/Ruggles Ave
390,40.074230,-80.891359,Tudor Dr/Saint Clair St
362,40.068458,-80.861785,Banfield Rd
305,40.076699,-80.929015,I- 70
160,40.062082,-80.954203,W Alamar Ln
418,39.988652,-81.160149,E Main St
445,40.079043,-80.904860,S Butler St/Patrick Ave
526,40.099579,-80.724753,Park St/N 8th St
216,40.066339,-80.780350,Wilson Ave
216,40.071896,-80.909385,Patti Ln
160,40.005927,-80.830495,/Sand Hill Rd
160,40.034426,-80.741474,Hospital Rd
160,40.055943,-81.223395,I- 70
710,40.015745,-80.741382,State Rte 7
160,40.066593,-80.851209,Guiniro Dr
917,39.972678,-80.748972,/W 39th St
185,40.077402,-80.788628,Lansing Ln/Poplar Ave
362,39.966646,-80.756694,State Rte 7 Scn
160,39.994120,-81.177667,Kirk Ave/1st Ave
160,39.994052,-80.806620,/Margie Ave
1123,40.077017,-80.868455,E Lawn/Matthew Dr
160,39.869010,-80.835971,E Captina Hwy
185,39.984364,-81.175486,Vine St/S Lincoln Ave
185,40.072280,-80.891526,Tudor Dr/Chaucer Ct
185,40.002341,-81.124105,/Barnesville Bethesda Rd
160,40.030402,-81.070353,/Helen Gregg Rd
216,39.863671,-80.797323,Clark St/Hopple St
185,40.077154,-80.926195,W Main St
160,39.978632,-81.183317,Somerton Hwy
334,40.027876,-80.817349,Ohio St/Locust Aly
185,40.050866,-80.810893,Dixon Hill Rd/McGregor Hill Rd
216,40.055149,-81.229404,I- 70
160,40.029143,-80.744432,46th St/Candlewick Ln
526,40.024812,-80.740324,Jefferson St/43rd St
216,39.967355,-80.758987,/Jefferson St
160,39.961046,-80.971754,/Ogilbee Rd
185,40.010207,-80.777427,Trough Run
160,40.006787,-81.174995,Barnesville Hendrysburg Rd
185,39.988237,-81.151142,Sandy Ridge Rd
160,39.969348,-81.178428,/Somerton Hwy
160,40.124246,-80.911618,/Fairpoint Maynard Rd
305,40.098171,-80.727140,S 8th St/
160,40.056085,-81.229396,Fairview
216,40.065623,-81.026739,Pineview Dr
160,39.966461,-80.760364,Jefferson St/Green Acres Rd/W 50th St
526,40.071186,-80.764353,Driggs Ln/Overbrook Dr
160,40.093078,-80.742700,Twp Hwy 479
1877,40.074285,-80.868932,Red Roof Ln/Mall Rd
160,40.077422,-80.995775,Lude
631,40.015051,-80.742778,33rd St/Belmont St
305,40.063908,-80.999556,I- 70
160,39.942596,-81.165608,Somerton Hwy
1304,39.970736,-80.749428,Short St/E 40th St
185,40.097297,-80.735139,Colerain Pike
334,39.996382,-81.177182,/Old B and H Pike
362,39.870292,-80.797932,Wheeling Ave
276,40.006040,-80.758062,W 23rd St
246,40.067367,-80.780569,Brookview Dr
185,40.027159,-80.819266,Pike St
499,40.092534,-80.728325,Maple Pl/S 4th St
658,40.069545,-80.900199,Imhoff Dr/S Marietta St
631,40.070359,-80.744094,Hall St/Dekalb St
362,39.997510,-80.742667,/Belmont St
216,40.031547,-80.743639,Three Hills Dr
472,39.996667,-81.173901,/Kennard Ave
334,40.090344,-80.726691,S 1st St/Jefferson St
552,40.068237,-80.778194,/Industrial Dr
246,40.067054,-80.845903,/Traco Dr
276,40.029150,-81.038633,/John St
160,40.152519,-80.841071,Emerson Rd
216,39.854770,-80.818298,Chestnut St
185,39.985091,-81.176471,Mill St/S Arch St
472,39.967974,-80.750116,Highland Ave/E 44th St
362,39.969966,-80.754790,W 44th St/Adams Ave
526,40.069310,-80.863506,/Mall Rd
216,40.076530,-80.928411,W Main St/I- 70
216,40.087546,-80.879114,Cindy Dr
160,40.142931,-81.033777,Amos Rd/Dutton Dr/Saint Clairsville St
631,40.012837,-80.743163,Plum Aly/31st St
362,39.864697,-80.803425,/Joyven Park
216,39.961341,-80.760791,/State Rte 7 Scn
160,40.099659,-80.738496,Colerain Pike
246,39.969793,-80.755559,Terrace Ave
246,40.137575,-80.710568,Old State Hwy 7
865,40.083781,-80.736085,Mill St
185,39.987835,-81.150279,/Roosevelt Rd
160,40.012716,-81.068487,/Pear
276,39.988204,-81.160845,Morgantown Ave/Fairmont Ave
160,40.015409,-81.069248,/High
334,40.069731,-80.904559,/I- 70
160,39.863106,-80.796645,Riverview Rd/Hopple St
305,40.030141,-81.035114,E Main St
1097,39.974869,-80.745067,Central Ave
160,39.965426,-80.758482,Wegee Ln/
276,40.074845,-80.788767,Lansing Ln/Lansing Terrace Ln
276,40.016807,-80.748733,Clinton St
246,40.016370,-80.761406,High St
160,40.131223,-80.992743,South St
276,39.989582,-81.171414,/Mulberry St
185,40.028199,-81.041877,Abbey St/W Market St
160,40.069141,-80.985700,Split Oak Dr
160,40.150057,-80.710799,Deep Run Rd
216,40.062978,-81.005630,S 70 Rd/Plainfield Rd
305,40.007210,-80.744005,E 22nd St
658,40.095918,-80.721428,Reichart Way/N 2nd St/Lincoln Ave/2nd St
1381,40.095503,-80.722357,Hanover St
185,39.862136,-80.804730,/Railroad Ave
185,40.008537,-80.761964,/W 23rd St
160,40.071527,-80.848645,E Lawn/Ebbert North Rd
246,39.980611,-81.182868,S Chestnut St/Sycamore St/Somerton Hwy
160,40.026401,-81.090425,/Garrett Rd
160,40.069312,-80.753557,Pine St
216,40.066841,-80.820987,Pasco Dr
362,40.073044,-80.762339,Brookside Ave/Elm St
216,40.067240,-80.754156,Buckeye St
185,40.157270,-80.703222,River Rd
276,40.072719,-80.764894,Elm St
216,40.112797,-80.709724,Burlington St/Don St
160,40.025082,-81.060235,/Bethesda Belmont Rd
418,39.968214,-80.750758,/E 44th St
305,40.075880,-80.910292,Harbel Dr/Circle Dr
362,39.967997,-80.755640,W 47th St/Central Ave
246,39.942485,-80.824011,Lockwood Run Rd/Greig Rd
276,39.863833,-80.810188,/Lynn Dr
160,40.100222,-80.737672,Overlook Dr
658,40.090796,-80.732723,Monroe St
185,39.966545,-80.761863,Kennedy Ln/W 50th St
276,39.991182,-81.174153,N Arch St
160,40.022787,-81.138488,/Jackson St/Jackson
305,39.981604,-81.179112,Brill St/Robinson Ave
246,40.151090,-80.711002,Market St/Euclid Ave
185,40.020199,-81.075330,Chestnut St
334,40.102677,-80.717530,N 5th St/Cemetery Rd
276,40.082588,-80.890243,/Norris St
185,40.055867,-80.771771,Morningstar Ln
216,40.089925,-80.961303,Country Lake Dr/Country Lake Rd
216,40.063813,-81.007177,I- 70
418,40.071261,-80.760030,Walnut Ave/Chestnut St
334,40.029547,-80.738222,State Rte 7
390,40.100254,-80.717337,Center St
362,39.926543,-81.097935,Stumptown Rd/New Castle Rd
185,39.974721,-80.746725,W 37th St/Leona Ave
216,40.058232,-81.147838,I- 70
1278,39.971007,-80.750089,Central Ave
160,40.056570,-80.739716,Kilgore Rd
185,40.029366,-80.814371,/St Mary's Ave
334,40.005754,-80.743874,E 19th St
362,39.994302,-81.175887,Bond Ave
160,40.110087,-80.713450,N 9th St/N 11th St
362,39.968389,-80.751241,E 44th St/Lincoln Ave
246,40.076583,-81.056885,Nicki Lynn Dr/Robin St
160,40.160660,-81.129335,Ashton St
160,40.118303,-80.822701,Beaver Rd
552,40.103201,-80.716145,Dehass St
305,40.104709,-80.716216,Sherman Ave
1772,39.971982,-80.748425,/Central Ave
499,40.068181,-80.745872,/Marion St
185,40.066582,-80.780350,Grant Ave
160,40.021698,-80.802969,Saint Joe St/Main St/Saint Joe Rd
160,40.002566,-81.132613,/Barnesville Bethesda Rd
305,40.076414,-80.863461,Woodcroft
160,40.114925,-80.958589,Crabapple Rd
305,40.091914,-80.724566,S 1st St/Clay St
865,40.101092,-80.721984,Ellet St/N 7th St
1667,40.011794,-80.744806,Mc Cauley St
526,40.090649,-80.732179,Monroe St/Pearl St
160,40.099987,-80.893703,Crestview Ln
185,40.085268,-80.738758,1st St/Totterdale Addition St
160,40.068789,-81.004058,Plainfield Rd
710,39.972029,-80.753241,W 41st St/Adams Ave
216,39.983461,-81.161106,Morgantown Ave
276,40.157164,-80.704821,Belmont Ave
216,40.093869,-80.754544,Ferryview Rd/Highland Ave
160,40.104423,-80.713736,Burlington Rd/2nd St
246,40.021063,-81.072613,/1st St
160,40.126010,-80.808920,Vickers Rd/S Colerain Rd
276,40.067498,-80.839136,/E Lawn
185,40.118781,-80.713286,Creek Rd
246,39.919128,-80.771821,Ferry Landing Rd/
160,40.066971,-80.817576,/Pasco Rd/National Rd/Handel St
185,39.989016,-81.171489,Railroad St
160,40.145250,-81.059743,Markatan St
390,40.021022,-81.074546,/Maple Ave
418,40.078798,-80.902846,Woodrow Ave
160,40.119655,-80.711626,Post Rd
160,40.024366,-80.751212,Jordan Run Rd/Rosser Ave
305,40.102300,-80.728797,Dixon Rd
418,40.153839,-80.709982,/Wilson
216,40.017702,-80.749287,34th St
1020,39.972154,-80.745717,/Lincoln Ave
276,40.065624,-80.774444,Beal St/2nd Ave
185,40.017342,-80.755361,Wagner Ave
390,40.153766,-80.710888,Heiland Ave/
418,40.091512,-80.735476,Monroe St/Hughes Ave
216,40.016086,-81.071862,/Railroad St
160,39.867895,-80.800747,Hillview Dr
216,40.072650,-80.782415,Mutton Hollow Rd
390,40.068338,-80.740889,S Lincoln Ave/Whitely St
305,40.013873,-80.765322,6th Ave/Grape Aly
160,40.016166,-81.075609,Lake St
160,40.002358,-81.124927,Barnesville Bethesda Rd
499,40.009175,-80.744484,25th St
418,39.981428,-81.182636,Grandview St/S Chestnut St
160,39.964535,-80.764385,/Shaver Hill Rd
526,40.009485,-80.745107,/Mc Cauley St
185,40.077213,-80.925973,W Main St/Watson Rd
160,40.057386,-80.906318,/Reservoir Rd
246,39.991605,-81.172766,N Lincoln Ave/Grey Ln
305,40.027112,-80.812989,Dixon Hill Rd/Pike St
736,40.071663,-80.740372,S Lincoln Ave
216,39.983491,-81.161104,Morgantown Ave
362,39.995443,-81.174535,/Bond Ave
276,40.083918,-80.901991,Franklin St/Glendale St/N Market St
216,40.006360,-80.802214,Bell Haven
445,40.021218,-80.741556,Oak Aly
445,39.869244,-80.797128,Ohio River Hwy/E Cove Dr
160,40.067454,-80.816363,Grade Or Lane A
305,40.024250,-80.744148,/Pine Aly/42nd St
160,39.922789,-80.785609,Dilles Bottom Rd
305,40.018862,-81.078493,Virginia St
216,40.103177,-80.720611,N 8th St/Cemetery Dr
813,40.072077,-80.745639,/Marion St
865,40.090385,-80.734933,Adams St
968,40.078119,-80.895429,/Fair
362,39.863996,-80.806061,Brown Rd/Bank St
185,40.149892,-80.842174,Colerain Rd/Crescent Rd/Pleasent Grove Rd
472,40.070473,-80.747408,/Sumpter St
362,40.152623,-80.710666,Park St/
185,40.058208,-81.120101,I- 70
445,39.862010,-80.803474,Allen Ave/Mellott St
1355,39.970863,-80.750721,W 41st St/Central Ave
276,40.018320,-81.073929,Church St/N Main St
499,40.024929,-80.740804,43rd St/Walnut Aly
185,40.080220,-80.889067,John Ave/Orchard Dr/Edgewood St
185,40.032733,-81.042747,Palmer Rd
362,40.070833,-80.901731,Linda Dr
185,40.018103,-80.787121,Merrits Row
185,39.997842,-80.763637,Winding Hill Rd
362,40.025973,-80.741352,/44th St
160,40.024683,-81.036322,Green St
246,39.992053,-81.175560,/Mackey Dr
185,40.026972,-80.814779,Walnut St/Union St
160,39.851850,-80.822829,Union St/Ohio River Hwy
579,40.010465,-80.743808,Plum Aly
499,39.971672,-80.753469,Adams Ave
552,40.090912,-80.733180,S Zane Hwy/Monroe St
1149,40.096056,-80.725637,Walnut St
160,40.053191,-81.049663,Belmont Morristown Rd/Harlan Acres Rd
390,40.032343,-80.737162,/49th St
160,40.116408,-80.793381,Ohio Ave//Belmont St
216,40.107549,-80.841368,Barton Colerain Rd/Bilmar Rd
362,39.971315,-80.759706,Monroe St
160,40.074364,-80.888495,Ingold St/Clark Ave Exd
305,40.038872,-80.775466,Pine Knob Rd
216,40.076029,-80.791892,Alley A
160,39.993819,-80.789707,Key Bellaire Rd/Brown Hollow Rd
276,40.077429,-80.862402,Burrwood Dr/Woodcroft
499,40.048891,-80.737485,/I-470 Ramp
445,40.072680,-80.762220,Maple St/Brookside Ave
246,39.867415,-80.795555,Witten Ave
160,40.064931,-80.841115,I- 470
276,40.030626,-80.736946,48th St
334,40.019064,-80.744617,36th St/Harrison St
305,40.077149,-80.930639,I- 70
160,40.065777,-81.026717,Pineview Dr
246,40.076289,-80.895645,Maher St
472,39.996273,-81.173453,Bond Ave/Kennard Ave
185,40.098920,-80.715636,Clark St/Center St
334,40.107823,-80.713605,N 8th St//Mackey Ave
526,40.087002,-80.734659,Pearl St/Breitenstein Ln
526,39.970276,-80.754322,Adams Ave
968,39.970284,-80.751732,/Central Ave
445,40.075432,-80.790169,Green Bank Ave/Scott St
185,39.988179,-80.803931,Key Bellaire Rd/Sunny Acres Rd
160,40.010009,-80.766016,Key Bellaire Rd
1071,40.095513,-80.726228,Hickory St
276,39.987816,-81.160863,Morgantown Ave/Bernhard St
305,40.013927,-81.069950,Boardman St/Joanna St
185,39.993055,-81.179511,Walton Ave
185,40.104489,-80.713849,/N 5th St/Burlington Rd
160,39.989296,-81.087508,Hogue Heskett
334,40.083780,-80.898780,Orchard Ln
246,40.021273,-80.803864,Brick Run Rd
305,40.077899,-80.912483,W Main St
736,40.094262,-80.723083,Walnut St
276,40.089401,-80.884908,W Justice Dr/Barton Rd
362,39.972409,-80.751854,W 40th St/Olive Ave
160,40.025904,-80.770690,/Breezy Point Dr
160,39.870274,-80.791905,/Belt St
216,40.015136,-80.755712,Frazier Ave/Maple Ave
499,40.025864,-80.740528,44th St/Noble St
276,40.027345,-80.817092,Pike St/Ohio St
246,40.086411,-80.898892,Park Dr
276,39.987189,-80.740198,State Rte 7
160,40.052287,-81.005947,Wesley
160,39.910370,-80.994930,W Captina Hwy
2141,40.096063,-80.723157,Hanover St
216,40.130111,-80.759124,Treadway Rd
334,40.079562,-80.889097,/Orchard Dr
216,40.063947,-80.815560,I- 70
185,40.027340,-80.770566,Breezy Ln/Breezy Point Dr
246,40.066180,-81.060707,National Rd
216,40.077460,-80.925033,Rolling Acres Dr/W Main St
216,40.060043,-80.831022,I- 470
160,39.903398,-81.211030,/Twp Rd 2
362,40.012567,-80.742237,State Rte 7
390,39.868792,-80.797207,Ohio River Hwy
160,39.997442,-81.176202,Pleasant St
246,39.974018,-80.954955,/Centerville Jacobsburg Rd
216,40.143398,-80.823757,Wildwood Dr
160,39.957940,-80.843480,Cash Ridge Rd
276,40.027109,-80.812943,/Pike St
276,40.029923,-80.741901,Franklin St/47th St
246,40.013214,-80.763520,/Grape Aly
390,40.152469,-80.710219,Park St/Market St
216,40.078093,-80.913484,W Main St/Myrtle Dr
526,40.102905,-80.716235,/Dehass St
362,39.973244,-80.754090,Jefferson Ave/W 40th St
276,40.077330,-80.892191,Neff St/Hickman Ave
1798,39.972086,-80.748258,E 39th St/Central Ave
216,40.115696,-80.795013,Colerain Pike/Thomas Rd
160,39.984146,-80.747839,/New Cut Rd
185,40.082168,-81.057398,/Morristown Flushing Rd
160,40.017478,-80.752803,/High Ridge Rd
160,40.025075,-80.763148,Twp Hwy 1199/High Ridge Rd
418,40.032583,-80.738320,49th St/Walnut Aly
185,40.002413,-80.744884,Guernsey St
185,40.115733,-80.928345,Stella Dr
246,40.107744,-80.713261,/Mackey Ave
445,40.065279,-80.860121,/Twp Hwy 314 B
305,40.075817,-80.905688,Hutchinson Dr/Sunset Dr
246,39.973555,-80.742352,Riverside Dr
472,39.996517,-81.173147,Bond Ave
216,40.081826,-80.907258,Maple Ave
362,40.092725,-80.726762,Fayette St/S 3rd St
160,39.858517,-80.804013,Filmore St
658,40.088599,-80.731896,School St/Broadway St
276,39.993633,-81.176438,/Old B and H Pike
362,39.862650,-80.801646,/Ramsey St
160,40.069499,-80.913953,Breezy Acres/Reservoir Rd
185,39.903940,-81.137303,/Washington St
276,40.076057,-80.792428,Alley A
762,40.010108,-80.744794,Belmont St
994,40.093902,-80.723991,Hickory St/Lincoln Ave/Grant Ave
160,39.905650,-80.810102,State Rte 7
185,39.968385,-80.759182,W 48th St/Madison Ave
499,40.033889,-80.737279,Jefferson St
445,39.865088,-80.803926,/Sherrie Ln
246,40.085324,-80.898125,N Sugar St/Bellview St
305,40.065946,-80.774699,National Rd
445,40.098754,-80.724103,/Park St
305,40.088509,-80.737313,Breitenstein Ln
160,40.022146,-81.140140,Church St
472,40.024752,-80.740094,43rd St
160,40.068703,-80.768237,Boyd Ave/National Rd
579,39.972747,-80.752744,W 40th St/Adams Ave
216,40.017676,-80.748572,34th St/Clinton St
1020,40.073642,-80.740388,Cadiz Pike/Lincoln Ave
2141,40.080156,-80.896383,Norris St/E Woodrow Ave
246,40.014136,-80.765295,/6th Ave/Birch St
160,40.110300,-80.710400,/N 6th St/Jeanette Ave
160,40.012308,-80.750283,Washington St/Hamilton St
276,39.984693,-81.175364,S Lincoln Ave
185,40.009738,-80.850880,Patch St
216,40.117727,-80.709890,Burlington Rd/State Rte 7
305,40.097472,-80.718903,Penn St/N 2nd St
160,40.122719,-80.889856,Fairpoint Maynard Rd
185,39.997940,-80.763278,/Winding Hill Rd
160,40.073454,-80.945032,W Main St/Vineyard Rd
216,40.025895,-80.763607,High Ridge Rd
418,40.077556,-80.916164,W Main St
185,39.990399,-81.177756,/1st Ave
418,40.076960,-80.790065,Scott St/Maple St
362,39.986209,-81.172665,/Henderson St
526,40.093362,-80.728201,Broadway St/Grant Ave
185,40.076039,-80.865349,E Lawn/Maplewood Dr
216,40.021001,-81.078307,Maple Ave
276,39.957703,-81.175112,Somerton Hwy
246,39.995977,-81.176581,/North St
160,39.861924,-80.812045,Front St
362,40.076050,-80.909321,Johnet Dr/Trabar Dr
276,40.155559,-80.714885,Eileen St/Gilbert St
605,40.092898,-80.734574,Virginia St
160,40.098819,-80.732815,Crescent Rd
185,39.958870,-81.146832,/Chestnut Ridge Rd
246,40.020980,-81.079237,Barnesville Bethesda Rd/Maple Ave
160,40.023630,-81.138272,/Water St
216,40.087825,-80.882259,Cindy Dr
185,40.143184,-80.836378,/Buena Vista Dr
390,39.869269,-80.793970,/Elizabeth Ave/Marian-Dell Ave
445,40.087095,-80.731906,Grant Ave
160,39.990621,-80.827270,Key Bellaire Rd
216,40.161818,-81.131428,/2nd St
605,39.971807,-80.750222,/W 40th St
185,40.009663,-80.765990,Key Bellaire Rd/Milligan Ave
185,39.866248,-80.796481,/Division Ave
445,40.020166,-80.743509,Chestnut Aly
276,40.065085,-80.836733,High Ridge Rd
185,39.983173,-81.174817,Franklin St/Clinton St
276,40.010015,-80.742512,E 26th St
445,40.099512,-80.727657,Hanover St/S 10th St/N 10th St
160,39.979881,-81.142382,Opal Dr/Warner Dr
246,40.063914,-81.005068,Plainfield Rd
305,40.151948,-81.045261,/E High St
160,39.975052,-80.741450,State Rte 7
160,39.961186,-81.082017,Bill Moore Rd/S 26th Rd
445,40.069722,-80.747455,/Sumpter St
305,39.993364,-81.176496,Bond Ave/N Chestnut St/Old B and H Pike
160,40.116272,-80.877617,Jug Run Rd/Maynard Crescent Rd
390,40.070751,-80.745706,Hall St/Marion St
658,40.088461,-80.729618,S 1st St
160,40.036475,-80.891664,Garrett Hill Rd
160,39.917295,-80.764381,Ferry Landing Rd
160,40.054870,-80.773368,Kilgore Rd
246,39.858800,-80.814087,Cherry St
160,40.111847,-81.017599,McDu Dr/Harrah St
276,40.005713,-80.758637,2nd St
160,40.000666,-81.111711,/Spiedel Town Rd
839,39.971266,-80.751165,/W 41st St
185,40.017070,-81.078580,/Virginia St
418,40.007513,-80.745091,/Belmont St
246,40.076085,-80.930018,/W Main St
246,39.856481,-80.818291,Ohio River Hwy/Beech St
160,40.019081,-80.747872,Bellaire and St Clairsville Pike/35th St
526,39.967020,-80.756362,Central Ave
216,40.162173,-81.131429,Main St/2nd St
362,40.072273,-80.895128,Windermere Dr/Tudor Dr
216,40.102537,-80.740775,Circle Dr
1355,39.970845,-80.749237,Short St
185,40.062987,-81.002375,S 70 Rd
362,40.070089,-80.905833,I- 70
305,40.029719,-80.745912,46th St/Hillview Ave
160,39.960753,-81.175249,Somerton Hwy
246,39.860826,-80.809162,/Sarich St
390,40.063805,-80.771854,Berkley Ave
276,39.863954,-80.810462,Lynn Dr
216,40.109182,-80.728278,Memorial Park Rd
276,40.012882,-80.762535,Grape Aly/B Aly
362,39.971330,-80.753681,W 42nd St/Adams Ave
160,40.042890,-81.117079,Mount Olivett Rd NE
216,40.014634,-81.069337,/High
605,40.014881,-80.742213,33rd St/Plum Aly
762,40.015903,-80.741618,34th St
276,40.144791,-81.076591,Poland Rd
160,40.077285,-80.890104,Hickman Ave/McFadden St/Bankbarn Ter
185,40.109394,-80.710838,N 6th St/Wilson Ave
216,39.914575,-80.757644,Ferry Landing Rd
160,39.995131,-80.809256,Key Bellaire Rd/
160,40.152920,-81.107826,/Flushing Holloway Rd
216,40.063786,-81.006601,I- 70
305,40.129909,-80.944209,Fairpoint New Athens Rd
552,40.092227,-80.728688,/S 4th St
160,40.086133,-80.895002,Greentree Dr//Legion Rd
160,40.154359,-80.966532,/Fairpoint New Athens Rd
185,40.066409,-80.780975,Poplar Ave/Brookview Dr
334,40.107963,-80.714156,/Mackey Ave
160,40.146198,-81.067761,Mill Rd
276,40.065672,-80.837287,Poplar Dr/High Ridge Rd
1772,40.011175,-80.744580,/Mc Cauley St/Belmont St
160,39.882581,-80.933571,E Brown Peavine Rd
246,40.120415,-80.796406,/Negus Rd
631,40.027297,-80.740485,/Noble St/45th St
276,40.020666,-80.782945,Conno Mara Dr/Bel Capre/Ann St
160,40.027690,-80.975791,McKelvey Rd
445,39.995899,-81.173944,North St/Bond Ave
185,40.027134,-81.048641,Helen Gregg Rd/Bethesda Belmont Rd
445,39.972074,-80.756858,/Madison Ave
185,40.020883,-81.080352,Barnesville Bethesda Rd
185,40.062432,-81.015578,/Foxtrail Rd
246,40.149837,-81.063660,Wood St/High St/E High St
305,40.150030,-80.712837,Deep Run Rd/Main St/State Rte 7
160,40.153550,-81.107861,Reservior Hill Rd
334,40.075277,-80.897533,Broad St/S Sugar St
684,40.019595,-80.741016,Cherry Aly
216,40.137285,-80.714330,State Rte 7
160,40.059319,-81.119453,/Egypt North Rd/National Rd
160,40.069677,-81.001954,Lew Jan Dr
160,40.110152,-80.709637,/Burlington Rd
246,39.982785,-81.180536,Pike St
185,40.094058,-80.758928,/Twp Hwy 478
605,40.071400,-80.752222,Main St/Coal St
499,40.098372,-80.718403,Dewey St
788,39.969732,-80.751545,Short St
185,40.098544,-80.732337,Colerain Pike
216,39.862192,-80.799417,Clark St/Riverview Rd
658,40.072546,-80.867122,I- 70
305,40.019368,-80.783553,/Bel Capre
276,40.003174,-80.743076,17th St/Union St
362,40.015615,-80.744857,/33rd St
185,40.075143,-80.894652,Broad St/Jefferson St
246,39.996761,-81.176342,Pleasant St/Kennard Ave
445,40.071411,-80.764437,Frederick St/Overbrook Dr
631,39.988711,-81.178265,1st Ave/N Broadway Ave
276,39.967448,-80.752734,Lincoln Ave/E 45th St
160,40.088561,-80.898509,N Sugar St/Crescent Rd
499,40.009363,-80.744684,25th St/Belmont St
362,40.098111,-80.730053,Elm St/Grant Ave
216,40.125035,-80.877805,Twp Rd 463/Pike St/Co Rd 10/Maynard Crescent Rd
160,40.128308,-80.816907,S Sharon Rd
160,39.974864,-81.128367,/Sandy Ridge Rd
246,40.117153,-80.709961,Burlington Rd
160,39.914771,-80.755949,/Ferry Landing Rd
579,40.079483,-80.902771,S Marietta St/Patrick Ave
499,40.090542,-80.736101,Adams St/Hughes Ave
216,39.995012,-81.169975,/Hutchinson Ave
216,40.104148,-80.717785,Columbus Ave/Reservoir/Woods Ln
445,39.970190,-80.745557,Grand Ave
185,40.042953,-80.847464,/Willow Grove Rd
160,40.059075,-81.119560,McMillian Rd/Egypt North Rd
305,40.071290,-80.758693,Patterson Rd/Chestnut St
276,39.965850,-80.753770,Highland Ave
472,40.070669,-80.740467,S Lincoln Ave
160,39.963443,-80.768786,/Wegee Rd
305,39.865939,-80.797605,Ben Ave/Main St
418,40.069422,-80.752037,/Hall St
499,39.968429,-80.753669,E 45th St
390,40.020654,-80.743583,/38th St
185,40.077515,-80.791394,Poplar Ave/Church St
390,39.969854,-80.760625,Monroe St/W 47th St
216,39.983521,-81.179623,Leggett Ave
160,40.109575,-81.000309,Harrah Dr
216,39.992617,-81.156885,/Bethesda St Exd
334,40.114237,-80.711485,N 9th St
334,40.115387,-80.709773,Unnamed Boundary/Burlington Rd
472,40.087213,-80.732137,Buckeye St
160,39.977111,-80.964871,/Firehouse Ln
472,40.067358,-80.771514,/National Rd
160,40.110415,-80.710085,Ohio Ave/Halmway St
362,40.022355,-81.073338,Glenwood Dr Way
160,40.011369,-80.749201,Commerce Pkwy
276,39.986158,-81.174835,S Lincoln Ave/E South St
418,40.072728,-80.750123,Spring St/Maple St/Maple Ave
362,40.014036,-80.745122,Oak Aly
390,40.008376,-80.745196,Belmont St
305,40.066729,-80.775907,Main St
246,40.009388,-80.762775,W 23rd St
579,40.071510,-80.761858,Driggs Ln/Brookside Ave
160,40.015425,-81.076750,Grace St
1329,40.084358,-80.735462,Mill St/State Rte 7
160,40.106867,-80.840018,Church St/Barton-Blaine/Center St
185,40.149207,-80.842030,Colerain Rd
472,39.965234,-80.752472,Riverside Ave
160,40.031352,-80.745341,/47th St
185,39.968544,-80.761666,Monroe St/Monroe
160,40.065687,-80.903141,Liberty Ave/Elizabeth St
334,40.007803,-80.744722,E 23rd St
185,39.962911,-80.754780,State Rte 7
160,40.024543,-80.754048,Jordan Run Rd
160,40.098089,-80.893473,Crestview Ln/Crescent Rd
185,40.102065,-80.715159,/Dewey St
813,40.086258,-80.735343,Pearl St/Union St
185,40.152399,-80.842161,Charose Ln
185,39.961955,-80.760625,/State Rte 7 Scn
276,40.023355,-80.746589,/41st St
552,39.970144,-80.746395,/E 39th St
246,40.076437,-80.898078,/Ruggles Ave
160,39.984033,-81.178502,Cemetery St/
160,40.134685,-80.823774,Orchard Dr
216,40.005740,-80.759647,3rd St/Spring St
185,40.069418,-80.898550,Carroll Dr
160,40.073740,-80.887447,Clark Ave Exd
276,40.065760,-80.778657,Johnson
445,40.009051,-80.744257,25th St
216,40.021040,-81.076239,Gail Ave/Maple Ave
788,40.095607,-80.726331,Hickory St
246,39.860957,-80.808937,Front St/Sarich St
762,40.080882,-80.898816,/E Main St
684,39.973685,-80.750816,Olive Ave
246,39.973615,-80.742794,E 37th St/Highland Ave
185,40.121453,-80.947571,Jo Henry Rd
160,40.057475,-81.118259,I- 70
216,40.064671,-80.983558,/Pogue Rd
185,40.029274,-80.814381,Union St/St Mary's Ave
246,39.917903,-80.768517,/Ferry Landing Rd
185,40.014044,-80.762944,4th Ave/Birch St
526,40.020557,-80.743223,38th St/Chestnut Aly
305,40.103886,-80.718953,Cemetery Rd
160,40.074639,-80.970639,Twp Hwy 1518
276,40.107246,-80.711256,Mackey Ave
276,40.070101,-80.861060,Ebbert South Rd/Twp Hwy 314 A/Banfield Rd
276,40.010210,-80.763440,Key Bellaire Rd/Klee Cross Rd
445,39.986679,-81.174640,/S Lincoln Ave
362,40.098620,-80.726539,S 8th St/Hanover St
216,39.981027,-81.181157,Grandview St/Leggett Ave
246,39.861948,-80.813533,/Ohio River Hwy
185,39.860002,-80.815843,Green St
526,40.083307,-80.890196,Norris St/E Main St
160,39.993829,-81.178870,Park St//2nd St
605,39.970489,-80.752616,/Washington St
160,40.069358,-80.817433,Handel St
246,40.067318,-80.779927,Adams Dr/Lincoln Ave/Kennedy Ave
160,40.092849,-80.964726,Wren Dr
160,40.059524,-81.078196,National Rd
185,40.130700,-80.844400,/Mercer Rd
216,39.982216,-81.178171,Pike St
305,40.013347,-80.755129,/Birch St
185,40.009106,-80.743438,25th St
362,40.078085,-80.939730,I- 70
160,40.106572,-80.931034,/Deerfield Dr
305,40.075554,-80.897517,/S Sugar St
276,39.940722,-81.195889,Wright Rd
246,40.109980,-80.864053,Posocco Dr/Crescent Rd
362,40.050071,-80.733320,/Jefferson St
334,40.090243,-80.736537,Hughes Ave
552,40.095725,-80.729030,/S 7th St
499,40.013408,-80.759045,Mound Ave/
1304,39.971189,-80.747403,E 39th St/Lincoln Ave
994,40.021702,-80.742586,Chestnut Aly
362,40.079360,-80.738782,/Lincoln Ave
362,40.014691,-80.757929,1st Ave/Elm St
736,40.017614,-80.743578,Oak Aly/35th St
276,40.013686,-80.757081,Wagner Ave/Birch St
185,40.122393,-80.889704,Fairpoint Maynard Rd
334,40.107302,-80.711455,Mackey Ave
246,40.023717,-81.037393,High St/Central Ave
160,40.057782,-81.151702,I- 70
445,40.072022,-80.752850,Bench St/Oak St/Coal St
276,40.147839,-81.068124,Kirk St/Morristown St/Spring St
362,40.014692,-80.758472,2nd Ave/Elm St
185,39.994157,-81.191426,W Highland Ave/W Main St
216,40.073867,-80.943188,/W Main St
390,39.870517,-80.796998,Ohio River Hwy
160,40.124346,-80.907563,Dewey Ave
160,39.990691,-80.836757,Key Bellaire Rd
390,40.021031,-81.074765,Maple Ave
216,39.866942,-80.825077,/Arman Hill Rd
472,40.091924,-80.729035,Jefferson St/S 4th St
334,40.083390,-80.888854,Orchard Dr/E Main St
305,40.010052,-80.743042,/W 26th St
160,40.026156,-80.742803,Franklin St/44th St
160,40.025896,-80.819062,Angel Row
418,40.072250,-80.764722,Center Ln/Overbrook Dr
160,40.067015,-80.815608,National Rd
526,40.088565,-80.733058,Pearl St
865,39.970150,-80.751969,Central Ave
865,40.093527,-80.726426,/Clay St
160,40.090327,-80.905263,Edinburgh Way
216,40.088578,-80.909596,Jug Run Rd
445,40.023365,-80.740770,Walnut Aly
160,40.044573,-80.848331,/Willow Grove Rd
216,40.143381,-81.071312,Morristown St/Morristown Flushing Rd
579,39.972762,-80.752785,W 40th St/Adams Ave
185,40.085868,-80.900808,/Overbaugh Ave
160,39.987480,-81.112740,/Russell Long Run Rd
658,40.072548,-80.867168,I- 70
160,40.118414,-80.954961,/Simpson Rd
390,39.972250,-80.751408,/W 40th St
276,39.869016,-80.793446,Neff St/Elizabeth Ave
1304,39.972515,-80.748525,W 39th St/Leona Ave
631,39.969117,-80.753774,Central Ave
160,40.084502,-80.788552,Mutton Hollow Rd
472,40.016012,-80.744164,/Oak Aly
160,40.122150,-81.081958,Morristown Flushing Rd
185,40.088255,-80.909359,Jug Run Rd
1097,40.019490,-80.741997,Guernsey St/37th St
160,40.024336,-81.066204,/Bethesda Belmont Rd
160,39.990261,-80.837755,/Key Bellaire Rd
185,40.082437,-80.883426,E Lawn/Spring St
246,39.862906,-80.799365,/Philip St
736,39.969843,-80.751852,Library Dr/
216,40.081453,-80.803598,Chermont Rd/Pine Terrace Rd
160,39.958793,-81.146260,/Chestnut Ridge Rd
305,40.068055,-80.771810,Stop 17 Rd
160,39.988642,-81.162639,/E Main St/Barnesville Bethesda Rd
185,40.070911,-80.801327,National Rd
276,40.077898,-80.951826,/I- 70
216,40.149569,-81.066006,/High St
305,40.029848,-81.037244,E Main St/E Market St
246,40.067392,-80.745464,W Kennon St/Kennon Rd
160,40.018420,-80.778053,/Bellaire Neffs Rd
185,39.994468,-80.743587,11th St
185,39.990678,-81.168723,/Mount Olivett Rd/Mulberry St
305,40.016331,-80.749007,32nd St/Clinton St
160,39.857803,-80.808962,2nd St
160,40.110419,-80.709938,Halmway St
305,40.075759,-80.907793,Trabar Dr
276,39.989693,-81.179959,N Cmns/Church St/N Gardner St
160,40.021265,-80.756658,Rogers Ln/High Ridge Rd
418,40.060120,-81.052910,Belmont Morristown Rd/I- 70
418,40.051871,-80.877748,Anna Dr
418,40.077518,-80.906615,Hutchinson Dr
160,40.152552,-80.841029,/Emerson Rd
552,39.992275,-81.170861,Watt Ave
246,40.015293,-80.756609,Wagner Ave/Maple Ave
246,40.067810,-80.780364,Brookview Dr
185,40.066873,-80.820727,Pasco Dr
246,40.068145,-80.842466,I- 70/I- 470
160,39.863949,-80.807829,/Ohio River Hwy
305,40.072433,-80.782455,Mutton Hollow Rd
362,39.982587,-81.181355,S Chestnut St/W Pike St
362,40.066716,-80.862471,Banfield Rd/Mall Rd
499,40.016821,-80.744994,34th St
246,40.049623,-80.795531,I- 470/High Ridge Rd
185,40.019348,-80.784291,/Patterson Hill Rd
160,39.993051,-81.182624,Prospect St
276,40.125361,-80.939846,State Rte 9//Fairpoint New Athens Rd
276,40.078564,-80.903780,Border Ln/Woodrow Ave
736,40.012207,-80.760059,Poplar St
185,40.059530,-80.829529,I- 470
160,39.868409,-81.069197,N Park Dr/Lane School Rd
216,40.010122,-80.748978,Commerce Pkwy
160,40.060470,-80.895098,/Clark Rd
276,40.017806,-80.746857,Franklin St/Ravine St
362,40.008738,-80.745227,Mc Cauley St/Belmont St
216,40.076815,-80.865412,Flagstone Dr
390,40.079384,-80.906102,W Main St
160,40.072678,-80.999895,Lloydsville St/National Rd
216,40.036524,-81.044110,Belmont Morristown Rd
305,40.104781,-80.716351,Woods Ln
362,39.989340,-81.174572,N Arch St/E Walnut St
445,39.862253,-80.803129,Allen Ave
185,40.068622,-80.747505,Whitely St/Whitley St
160,40.067602,-80.807180,Crosley Rd
788,40.091266,-80.731312,/Madison St
334,40.114254,-80.711229,N 9th St/Hill St
445,40.072281,-80.964491,Hill N Dale Dr/W Main St
579,40.029716,-80.739980,/47th St/Cummins Rd
684,40.030714,-80.739285,Noble St/48th St
276,39.990068,-81.173354,Cherry St/N Lincoln Ave
2221,40.084880,-80.735076,Aetna St
216,40.071790,-80.935325,Meadow View Dr
658,40.011891,-80.759172,Mound Ave
390,39.966310,-80.757492,Wegee Ln
1020,40.075883,-80.869689,Mall Rd
390,40.044212,-80.733470,/Jefferson St
246,40.014455,-80.756857,Wagner Ave
216,40.075276,-80.903393,Curtis Ln/Efaw Ave
216,40.059862,-80.831027,I- 470
216,40.065555,-80.902724,Liberty Ave/Maple Aly
362,40.091326,-80.725373,S 1st St
216,40.077867,-80.887577,Young Ln
160,40.076907,-80.903267,Bethel Ln/Border Ln
160,40.037711,-81.044441,Belmont Morristown Rd
185,40.070712,-80.765936,Brookside School Rd/Ascension Dr/2nd St
160,39.860039,-80.807329,Taylor St/Emma Aly
160,40.018416,-80.753565,Shepard Rd
160,40.093980,-80.878419,Barton Rd
160,40.007667,-81.141726,Dusty Ln
246,39.992865,-81.176627,Walton Ave/N Chestnut St
216,40.149066,-81.058131,Luchi Rd/E High St
160,40.049396,-80.896457,Little McMahon Creek Rd
185,40.125378,-80.876933,/Church St
160,40.112238,-81.016529,Harrah Dr/Mount Hope Rd/Harrah St
246,39.965895,-80.757970,Wegee Ln/
334,40.091046,-80.725745,Washington St/S 1st St
160,40.066959,-81.004162,Plainfield Rd
185,40.069723,-80.845339,/I- 470
334,40.068751,-80.888283,I- 70
631,40.030508,-80.738448,48th St
472,39.987224,-81.174438,S Lincoln Ave/E Main St/N Lincoln Ave
246,40.012720,-81.069965,Boardman St/Pear
160,39.991155,-81.173533,Grey Ln
185,40.043022,-80.847506,Willow Grove Rd
305,40.073985,-80.909611,Coroline Dr/Harbel Dr
445,40.069128,-80.742473,Bennett St/Lee St
160,39.974738,-80.741548,State Rte 7
185,40.036624,-80.776572,/Patterson Hill Rd
160,40.015507,-80.759167,Center Ave/Maple Ave
334,40.070659,-80.860749,Banfield Rd
216,39.866498,-80.800790,/Ohio River Hwy
631,40.096262,-80.728254,/S 7th St
390,40.014355,-81.070972,/Oak St
246,40.088054,-80.738293,Hughes Ave
246,40.071286,-80.756122,Bench St/Ross St
472,40.072594,-80.748462,Maple St
160,40.029744,-81.157234,Barnesville Hendrysburg Rd/Twp Hwy 139
305,40.071915,-80.912221,I- 70/Reservoir Rd
246,40.098266,-80.729616,S 10th St/Hickory St
160,40.131552,-81.071087,/Morristown Flushing Rd
216,40.069081,-80.886645,/I- 70
160,40.067904,-80.781411,Railroad St
334,40.067607,-80.740160,Jefferson St
185,39.899185,-80.970015,Crabapple Rd
305,40.007201,-80.744067,E 22nd St
160,40.073739,-80.887403,Clark Ave Exd
526,40.088743,-80.734150,S Zane Hwy/Willow Ave N
160,39.959300,-81.170716,Chestnut Ridge Rd/Barnesville Waterworks Rd
216,40.014632,-80.745473,/Oak Aly/32nd St
185,40.040069,-81.159408,Barnesville Hendrysburg Rd/Twp Hwy 712
160,40.126057,-80.808984,S Colerain Rd
305,40.071880,-80.912095,I- 70
185,40.084614,-80.908369,/Pecks Ln
552,40.068802,-80.751579,Belmont Heights Rd
276,40.064899,-81.071769,/Church/Alley 2
185,39.973791,-80.743263,/E 37th St
185,40.115776,-80.980638,Uniontown-Flushing Rd
185,40.030627,-80.743253,47th St/Bellview Dr
276,40.075580,-80.742823,Cadiz Pike
216,39.995838,-81.171460,/North St
445,39.976621,-80.743711,State Rte 7 Scn/Lincoln Ave/Central Ave
246,39.872057,-80.797579,/Sandy Dr
160,40.099805,-80.861816,Barton Rd
334,40.067065,-80.755316,/Elm St
472,40.032469,-80.737857,Jefferson St/49th St
276,39.864313,-80.810456,Ohio River Hwy/Cove Rd
305,40.070144,-80.895214,High St Exd/Clark Rd/High St
216,39.866430,-80.796853,/Division Ave
216,40.058932,-80.737319,Moores Run Rd/Mor Hill Ln/Moorewin Dr
160,40.050501,-81.006271,Wesley
160,39.919028,-80.765584,/Grandview Dr
160,40.000235,-80.744222,Guernsey St
160,40.132135,-80.821357,N Colerain St
362,39.925413,-81.097435,Shady Lane Rd/New Castle Rd
160,40.099593,-80.779977,Sunset Hts
276,40.067468,-80.840418,I- 70
160,39.859134,-80.803336,/1st St
362,39.973070,-80.752481,Adams Ave
216,40.028501,-81.039851,W Market St/Jefferson St/E Market St
160,39.999153,-80.778242,Key Bellaire Rd
216,39.990262,-81.183944,N Cmns/Prospect St
246,40.066725,-80.740587,S Lincoln Ave
160,39.988649,-81.162838,E Main St/Barnesville Bethesda Rd
185,40.046728,-80.781768,/High Ridge Rd
160,40.009111,-81.010324,Belmont Centerville Rd/
185,40.097182,-80.735015,Colerain Pike
216,40.021219,-81.140471,Neptune Ln/Fairview St
305,40.010905,-80.743009,State Rte 7
160,40.124724,-80.908576,/Main St
276,40.026015,-80.741729,44th St/Harrison St
362,40.010738,-80.743630,27th St
246,40.075213,-80.891971,Neff St
160,40.116999,-80.712614,Ivy Ln
472,40.018930,-80.744142,36th St
334,40.079168,-80.875785,E Lawn
334,40.075297,-80.963939,Extension Rd
390,40.066127,-80.838379,Maple Dr
472,39.976551,-80.743765,State Rte 7 Scn//Central Ave
605,40.049324,-80.733806,Jefferson St/I- 470
362,40.071809,-80.765386,Spring Heights Rd
552,39.969485,-80.752752,Central Ave
160,40.020102,-80.804983,/Saint Joe St
160,40.134188,-80.750633,/Main St
160,39.972301,-80.862743,Wegee Rd/Crozier Ridge Rd
160,39.867624,-80.839859,Captina Dr
246,40.005861,-80.757727,/W 23rd St
185,39.865365,-80.794678,Belt St/Division Ave
305,39.993865,-81.176173,Bond Ave/Greenmount Ave
305,39.992676,-81.190072,Hospital Dr/W Main St
160,39.979859,-81.188443,/Main St
526,39.969869,-80.746119,Grand Ave/E 39th St
276,39.857401,-80.817398,/Ohio River Hwy
631,40.070033,-80.746122,Howard St
499,40.049509,-80.732759,I- 470
185,39.888704,-81.182251,Rock River Rd
160,40.053930,-80.957012,/Magee Rd
160,39.999351,-80.744043,Guernsey St
160,40.002153,-81.210943,/Douglas Rd
185,40.129681,-80.759652,/Treadway Rd
276,40.014265,-81.069373,High/Oak St
334,40.012667,-80.742632,Union St
418,39.870648,-80.796984,/Ohio River Hwy
1615,39.971540,-80.749173,/Central Ave
362,40.083734,-80.896854,/Nelson Ave
788,39.974211,-80.745648,Marshall Ave/Central Ave
605,39.969159,-80.753320,E 44th St/Central Ave
865,40.072381,-80.745619,Marion St
160,40.060766,-80.744568,Eleanor St/Kirkwood Heights Rd/Willow Ln
246,39.985119,-81.174118,Franklin St/Clifton St
418,40.153479,-80.711044,Heiland Ave/Fayette
160,40.022400,-81.139982,Church St/High St
216,40.058213,-81.147943,I- 70
736,39.973794,-80.745973,Central Ave
185,39.870480,-80.840152,E Captina Hwy
185,40.030439,-81.038936,E Barrister St/John St
160,39.888278,-81.184014,Rock River Rd
160,40.062195,-80.955454,Southwin Dr
160,40.121104,-80.803911,Silouette Dr/Silhouette Dr/Reflection Dr
246,40.068119,-80.780227,Brookview Dr
216,40.074010,-80.991502,/Lloydsville Bannock Rd
185,40.076537,-80.791857,Maple Ave
216,40.069344,-80.786646,Maple Hts
160,39.960590,-80.760638,State Rte 7 Scn/State Rte 7
276,40.149855,-80.712872,State Rte 7
185,40.113834,-80.979369,/Uniontown-Flushing Rd
305,40.077612,-80.921565,W Main St
499,40.082319,-80.897784,N Sugar St/E Newell Ave/Newell Ave Exd
160,40.018444,-80.778030,Bellaire Neffs Rd
160,40.022920,-81.076326,Gail Ave
246,39.988435,-81.173943,/E Church St/Mulberry St
334,40.007812,-80.744266,E 23rd St/State Rte 7
246,39.870320,-80.798319,Wheeling Ave/York St
185,40.026407,-81.042828,Fair St/2nd St
160,40.141863,-80.832797,Colerain Rd
445,40.069004,-80.740532,Jefferson St
185,39.859920,-80.815213,Ohio River Hwy/Cherry St
418,40.096051,-80.720948,N 2nd St
499,40.020275,-80.740493,State Rte 7
362,39.977178,-80.742212,Elk St
185,40.044550,-81.045748,Belmont Morristown Rd/
710,40.085232,-80.736997,S Zane Hwy/Aetna St
305,40.074303,-80.905738,Sunset Dr
160,39.970130,-80.812419,Hawthorne Hill Rd
160,40.067493,-81.041075,Woodland Dr
185,40.121600,-80.934592,Main St/Fairpoint Shepherdstown Rd
334,40.015921,-80.760576,3rd Ave/Pear Aly
216,40.011920,-81.069995,/Boardman St
160,40.027284,-81.044989,Gordon St/Light St
160,40.005933,-80.742442,E 19th St
185,40.014059,-80.763427,/Birch St/Alley D
631,39.966143,-80.751506,Grand Ave/E 45th St
160,40.007482,-80.767202,1st St/Milligan Ave
445,40.092389,-80.734542,/Virginia St/Jefferson St
160,40.110433,-80.710541,/N 6th St
246,40.073474,-80.762686,Brookside Ave
276,39.978330,-80.742374,/State Rte 7 Scn/Central Ave
160,40.076171,-80.795276,Chermont Rd/Cher Mont Rd/Lorain Ave
185,40.014968,-81.076116,Dewey St
160,40.027559,-80.743387,Trumbull St
246,40.064482,-81.075346,Memory Ln/W Cross St
710,39.973604,-80.751469,W 39th St
185,39.910540,-81.137140,Somerton Hwy
160,40.015362,-81.139345,/N E Mount Olivett Rd
334,40.007800,-80.744500,/E 23rd St
185,39.914574,-80.808306,State Rte 7
334,40.074555,-80.899273,/Progress St
160,39.910380,-80.995336,Belmont Ridge Rd/W Captina Hwy
185,39.954236,-81.231183,Main St
216,40.069101,-80.899029,Thompson Dr
246,40.030683,-80.736838,Guernsey St/48th St
160,40.110180,-80.709784,Burlington Rd
334,39.981737,-81.182327,S Chestnut St
216,40.014248,-81.068939,Judson St/Oak St
160,40.069585,-81.036788,National Rd
160,40.119719,-80.710970,Post Rd
246,40.136763,-80.713908,/Picoma Rd
185,39.870944,-80.799072,Cove Dr
160,40.067663,-80.846569,/Traco Dr
579,40.069207,-80.744174,Bennett St/Dekalb St
185,40.045146,-80.777000,/High Ridge Rd
160,40.123962,-81.082620,Belmont Ridge Rd/Morristown Flushing Rd
390,40.022205,-81.073043,Belmont-Beth Rd
631,40.069519,-80.742439,/Lee St
160,40.159023,-81.120795,Clark St/Main St
390,39.864853,-80.805647,Brown Rd/High St
276,40.066628,-80.978365,I- 70
160,40.066141,-80.955083,Friends Church Rd
216,39.973131,-80.756194,W 41st St/Madison Ave
499,39.988975,-81.176936,N Cmns/N Chestnut St/E Church St
839,39.975618,-80.744497,State Rte 7 Scn/
160,39.869979,-80.791920,Belt St
552,40.016938,-80.746130,Monroe St/34th St
334,40.071242,-80.745676,Marion St
185,40.054994,-80.919853,Scenic Valley Dr/W Greenbriar Dr
334,40.092165,-80.726092,Grant Ave
445,40.013154,-80.760707,3rd Ave/Bryce St
418,39.990887,-81.186720,Westview Dr/W Main St
246,40.038628,-80.734892,N Guernsey St
246,40.055459,-81.230125,I- 70
362,40.065447,-80.777982,Hoover
334,40.004748,-80.744419,E 18th St/Belmont St
160,39.907414,-81.229303,Barnesville St
445,40.025837,-80.740321,/44th St/Walnut Aly
276,40.015591,-80.748136,Franklin St/32nd St
160,40.110424,-80.709821,Halmway St
160,40.127658,-80.988800,Uniontown-Flushing Rd
334,40.102087,-80.729045,Colerain Pike/Darrah Rd
891,40.019337,-80.741424,37th St/Cherry Aly
160,40.032074,-80.744854,/Hillview Ave/48th St
160,40.000769,-80.752275,Jeff Ln/Winding Hill Rd
160,40.062031,-80.822194,/High Ridge Rd
160,39.961773,-80.758695,State Rte 7
160,40.145029,-80.836747,Colerain Rd
185,40.083844,-80.895472,Nelson Ave
160,40.025704,-81.045759,Brown St
362,40.086956,-80.890766,Millrose Dr/Pinecrest Dr
160,39.955001,-80.778982,Wegee Rd
216,40.146644,-80.707390,River Rd/Tin Plate Pl
160,40.084793,-80.744560,Roosevelt Ave/Kennedy Ave
390,39.989764,-81.176615,N Chestnut St
684,40.027354,-80.740945,/45th St
160,40.103402,-80.975821,/Main St
160,40.022040,-80.805782,Main St
246,40.013278,-80.754729,Birch St/Taney Ave
334,40.107852,-80.713729,N 8th St/Mackey Ave
216,39.914601,-80.757662,/Ferry Landing Rd
276,40.007011,-80.760884,3rd St/2nd St
216,39.855939,-80.818829,Ohio River Hwy/Hickory St
160,39.875954,-80.981644,Pugh Ridge Rd
334,39.982695,-81.175957,S Lincoln Ave
185,40.015301,-81.072008,E Spring St/W Spring St/S Main St
305,40.067106,-80.775167,Murphy
216,40.065911,-80.777273,Adams Dr/Nixon Dr
216,40.033944,-80.770272,/High Ridge Rd
305,40.101897,-80.719689,N 6th St/Center St
658,40.076918,-80.867636,Stewart Dr/E Lawn
246,40.073129,-80.742118,Allen St/Lombardy Hts
1850,40.075380,-80.869075,Matthew Dr
684,40.086173,-80.733176,Railroad St/Grant Ave
216,40.070861,-80.849753,/Ebbert North Rd
788,40.072789,-80.745802,Main St
185,40.054893,-80.920828,Scenic Valley Dr
185,39.985042,-81.183483,Hunts Ave
305,40.004150,-80.744280,/Belmont St
160,40.078082,-80.890615,/Young Ln
305,40.017651,-81.073975,N Main St
246,40.002248,-80.743832,Belmont St
160,40.145421,-81.076634,Flushing Holloway Rd
552,39.987452,-81.175396,E Main St/S Arch St
160,40.060326,-80.832294,/I- 470
185,40.088091,-80.886327,Lin Chris Dr
246,40.066798,-80.779964,Cleveland Ave/Kennedy Ave
185,40.143193,-80.836715,/Buena Vista Dr
1850,40.010993,-80.744666,27th St/Mc Cauley St
276,40.017852,-80.782791,Belle Village
160,40.025539,-81.041860,3rd St/Brown St
160,40.083545,-80.878419,Walnut Ave
216,40.131915,-80.812473,Pine Dr
472,40.024548,-80.740449,Jefferson St
526,40.071420,-80.740671,I- 70
390,40.025285,-80.742180,Harrison St/43rd St
334,40.006493,-80.803628,Bell Haven
160,40.068238,-80.983318,Pogue Rd/Split Oak Dr
160,40.086367,-80.907905,Jug Run Rd/Maple Ave
305,39.976505,-80.741085,Short
246,40.067902,-80.780325,Bloomingdale Dr/Brookview Dr
418,40.066561,-80.774400,Main St
943,39.971291,-80.749966,/Central Ave
160,40.026510,-80.815671,Union St
185,40.076369,-80.787853,Liston Ave/Maple Ave
160,40.058098,-81.119695,McMillian Rd/I- 70
390,40.105572,-80.714592,Kuckuck Ln/Woods Ln
305,40.071746,-80.778828,Hope Ln
276,39.985084,-81.178644,Vine St/S Chestnut St
160,40.152673,-81.048865,/E High St
276,40.020987,-81.079009,Maple Ave
185,40.009984,-81.094576,Old State Rte 147/Barnesville Bethesda Rd
216,40.071070,-80.966235,Airport Rd
160,40.099779,-80.853859,Barton Rd
185,40.014831,-80.754203,Taney Ave/Maple Ave
216,40.070502,-80.765371,1st St
552,40.087947,-80.733635,Pearl St/Buckeye St
305,40.116539,-80.710092,Orchid Dr
216,40.140310,-80.826786,/N Colerain St
631,40.069425,-80.863591,/Mall Rd
390,40.083727,-80.737482,S Zane Hwy/
216,40.047828,-81.047576,Belmont Morristown Rd/
216,40.066983,-80.819036,Pasco Dr/
216,39.976421,-80.747967,/W 36th St
160,39.963353,-80.765338,/Wegee Rd
499,40.091307,-80.727055,Grant Ave
160,40.067688,-80.860065,Breezy Hill Rd/
160,39.923784,-80.783944,State Rte 7
472,40.018893,-80.744009,36th St
160,40.078012,-80.791320,Church St/Alley C/Grade Ave
216,40.098771,-80.734972,/West Rd/Crescent Rd
276,40.016029,-81.072424,/Main St
305,39.972773,-80.756422,Madison Ave
334,40.029792,-80.740913,47th St/Harrison St
216,40.063530,-81.002360,I- 70
305,39.995474,-81.175727,/Fowler Ave
160,39.921227,-80.832559,Pipe Creek Rd
160,40.069163,-80.753472,Pine St
472,40.093110,-80.727241,/Fayette St
246,40.069050,-80.784688,Jastre St/National Rd
160,40.027592,-81.043831,Railroad St/Bridge St/Bethesda Belmont Rd
362,40.076457,-80.739842,/S Lincoln Ave/Lincoln Ave
334,40.075559,-80.792479,Creek Dr
1123,40.018162,-80.741338,36th St/Belmont St
276,40.077652,-80.951936,I- 70
160,40.083021,-80.902871,/Weston Pl
631,40.071241,-80.761765,Brookside Ave/Chestnut St
334,40.012685,-80.742623,Union St/31st St
160,39.994249,-80.746519,Quince Ln/Cuckoo Rd
216,39.859392,-80.814149,/Cherry St
276,40.066969,-80.779273,Adams Dr/Eisenhower Ave
305,40.059179,-80.736437,The Point/Mor Hill Ln
334,40.007181,-80.744198,/E 22nd St
185,40.063927,-80.768326,Winning Ave/Willow
605,39.969941,-80.752339,W 43rd St/Central Ave
216,40.066609,-80.902638,Wabash Ave/Elizabeth St
160,40.001047,-81.173721,Lyndale Ave/Parkview Ln
160,40.085438,-80.901903,Bellview St/N Market St
526,40.071526,-80.740378,S Lincoln Ave
216,40.065622,-81.070766,Memory Ln/E Cross St
185,40.122323,-80.946726,Lynn Dr/View St
605,40.014897,-80.742204,/33rd St/Plum Aly
185,40.048204,-81.039401,Barkcamp Hill//Loy Rd
472,40.091131,-80.730790,Broadway St/Madison St
185,40.110921,-80.710577,Ohio Ave
160,40.120000,-80.874894,Loretta Ave
185,39.954577,-80.777452,/Wegee Rd
334,39.978414,-80.741674,E 34th St
160,40.021924,-80.976801,/Pearson Park Rd
216,40.090741,-80.908430,N Market St Exd
160,40.087306,-80.974746,Singer Rd/Bannock Rd
445,40.062378,-80.826410,High Ridge Rd
216,40.016944,-80.781626,Bellaire Neffs Rd
276,40.096151,-80.734069,Clinton St
185,40.131155,-80.844300,/Mercer Rd
276,39.869710,-80.792994,Marian-Dell Ave
334,40.017358,-81.073995,N Main St
216,40.069007,-80.780851,Willow Ave/National Rd
185,40.077356,-80.926111,/Watson Rd
305,39.865077,-80.805030,Orchard Ln/High St
160,40.103577,-80.793495,S Colerain Rd/Angelo Rd
472,40.010616,-80.743818,Plum Aly
276,39.977379,-80.924540,Ok Rd/Glencoe Rd
334,40.068997,-80.785006,/National Rd
216,40.058462,-81.147888,I- 70
160,40.111735,-80.711397,Don St
390,40.102158,-80.716185,2nd St
160,40.152617,-81.050006,Circle Dr/E High St
305,40.072340,-80.962106,W Main St
216,40.009617,-80.888910,4th St/Glencoe Stewartsville Rd
276,40.021003,-80.782270,Conno Mara Dr
216,40.078398,-80.904809,Hutchinson Dr/Woodrow Ave
216,40.064681,-80.999627,/Ray Rd
160,40.013089,-80.988545,Lucas Lash Rd
917,40.017991,-80.741084,36th St
362,40.100500,-80.717673,Center St
216,40.090202,-80.737695,Jefferson St/Old County Rd
185,40.048984,-80.795447,High Ridge Rd
710,40.013130,-80.744300,Cherry Aly
185,39.982767,-81.184009,Jacksons Xing
216,40.068966,-80.895541,Thompson Dr/Clark Rd
276,40.038517,-80.735298,State Rte 7
160,40.020745,-80.747485,Catherine St
160,40.063117,-80.951936,/S Almar Ln
160,40.148478,-81.058145,Luchi Rd/E High St
246,40.064600,-80.788899,I- 70
994,40.073638,-80.740276,S Lincoln Ave/Cadiz Pike
216,40.095456,-80.735604,Grandview St/Spring Haven Dr
362,40.068546,-80.778811,Industrial Dr/Belmont Ave
160,39.852552,-80.823645,Monroe St/Union St
684,40.069658,-80.745792,/Marion St
526,40.098924,-80.719252,Ellet St
160,39.986726,-81.080064,S 26th Rd/Repik Rd
362,40.070664,-80.758536,Patterson Rd/National Rd
185,40.070987,-80.784408,E Marcellius/Neola Ave
418,40.149291,-81.067681,/High St
185,40.029886,-80.814163,5th Ave
334,39.966192,-80.753165,E 46th St/Highland Ave
305,40.047865,-80.741717,/I- 470
246,40.085788,-80.898199,/N Sugar St
216,40.017808,-80.785729,Bellaire Neffs Rd
160,40.014065,-80.763919,Birch St/5th Ave
390,39.984533,-81.180083,S Broadway St/Hunts Ave
160,40.151258,-81.043402,E High St
472,40.064990,-80.777308,Nixon Dr/Kennedy Ave
185,39.962540,-80.760195,/State Rte 7 Scn
160,40.159108,-81.121349,Main St/High St
418,40.080144,-80.905249,/N Butler St
185,39.994875,-81.146582,Barnesville Bethesda Rd
334,40.071292,-80.738232,I- 70
160,40.049883,-80.897378,Little McMahon Creek Rd/Clark Rd
246,40.082886,-80.907530,/Maple Ave
160,40.056882,-81.079015,Taylor Rd
160,40.024199,-81.066576,/Bethesda Belmont Rd
160,40.090260,-80.905341,N Market St Exd/Edinburgh Way
499,40.071472,-80.740494,S Lincoln Ave
185,40.161484,-81.131422,South St/2nd St
552,39.970171,-80.746421,/E 39th St
305,39.967775,-80.753047,/E 45th St
445,40.040454,-80.733808,Guernsey St
160,40.069595,-80.913889,/Reservoir Rd
390,40.097712,-80.731582,/Belmont Ave
246,40.070097,-80.894963,High St Exd/Pine Knoll Ter
216,40.091168,-80.908625,St Clairsville Jr Sports Complex
216,40.024365,-80.744578,42nd St/Trumbull St
185,40.100957,-80.976944,McGraw Rd/Main St
160,40.026362,-80.744813,/del Guzzo Dr
160,40.075028,-80.986787,Laklyn Dr
445,39.988622,-81.180381,W Main St/N Gardner St
216,40.069005,-80.787690,National Rd
246,40.075099,-80.906789,/Iona Dr
160,40.101631,-80.850856,Barton Rd
216,40.104549,-80.713970,N 5th St
160,40.024265,-81.066394,Bethesda Belmont Rd
185,40.016979,-81.071819,2nd St
246,40.064415,-80.769188,/Berkley Ave/Boyd Ave
160,39.870166,-80.839283,E Captina Hwy
305,40.071266,-80.759448,Locust Ave/Chestnut St
305,40.071863,-80.765420,Spring Heights Rd
390,39.972147,-80.754753,Jefferson Ave
246,40.055051,-80.733932,Twp Hwy 1433
216,40.010362,-80.777243,Trough Run
246,39.964842,-80.759199,/Wegee Ln
246,40.075889,-80.743989,Cadiz Pike
526,39.996610,-81.173036,Bond Ave/Kennard Ave
160,40.073153,-80.948959,/W Main St
160,40.087476,-80.898395,N Sugar St/Rand Ave
160,40.109207,-80.797680,Leos Ln/S Colerain Rd
246,39.860840,-80.814461,/Ohio River Hwy
185,40.018221,-80.749112,Bellaire and St Clairsville Pike
526,40.094220,-80.734969,Ralston Exd/Ralston Ave
185,40.074400,-80.791972,National Rd
185,40.117519,-80.981800,Clover Ridge Rd/Uniontown-Flushing Rd
334,40.014852,-80.741588,State Rte 7
362,40.065519,-80.776662,Adams Dr/Kennedy Ave
390,40.024203,-80.739984,State Rte 7
334,39.987785,-81.174193,N Lincoln Ave
943,40.093511,-80.725087,Locust St
418,40.083189,-80.887312,Barton Rd/E Main St
1200,39.970658,-80.751078,Central Ave
216,40.076001,-80.793681,Chermont Rd
160,39.865869,-80.804957,Jean Ln
216,40.014705,-80.745738,32nd St
305,39.988921,-81.174731,/N Arch St
160,40.153642,-80.837763,Emerson Rd
185,39.989293,-81.183239,S Cmns/W Main St
160,40.127933,-80.811963,S Colerain Rd/Fulton Rd
445,40.115989,-80.710643,Orchid Dr
216,40.009553,-80.762852,Key Bellaire Rd
362,40.014340,-81.070827,/Oak St
445,40.066600,-80.861647,/Twp Hwy 314 B
185,40.149560,-81.058348,E High St
160,40.046823,-80.866004,Little McMahon Creek Rd/Willow Grove Rd
160,40.118507,-80.713344,Main St/Glenns Run Rd
160,40.011384,-80.852190,Boyd Hill Rd/Main St
216,40.076392,-80.894968,/Saint Clair St
1693,40.096623,-80.723953,Hanover St/
390,40.075866,-80.963810,/I- 70
445,39.976158,-80.744079,State Rte 7 Scn/E 35th St
472,40.074503,-80.897609,Dennis Ln/S Sugar St
160,40.111624,-80.711365,Ohio Ave/Belmont St/Don St
160,40.148160,-81.066474,Market St/Spring St
160,40.121515,-80.876103,Twp Rd 1165/Hall St
216,40.083671,-80.903097,Franklin St/Weston Pl
160,39.975121,-81.186626,Hall Boston Rd/Gobblers Knob Rd
160,40.046970,-80.989647,Ray Rd
362,40.007839,-80.745614,W 23rd St
185,40.158401,-80.849572,Pleasent Grove Rd
160,39.963536,-80.764868,/Wegee Rd
216,40.077048,-80.911753,Harbel Dr/Reservoir Rd
160,40.121952,-80.888098,Water St/Main St/Clyde St
185,40.001016,-81.144783,Joe Jeffers Rd/Dusty Ln
552,40.090388,-80.727686,Madison St
160,40.102240,-80.975759,/Kirks Aly
1123,39.974978,-80.744418,/E 36th St
160,40.085688,-80.738534,Terrace St/Vineway St/Totterdale Addition St
185,39.965435,-80.760389,Green Acres Rd/W 52nd St
216,40.065589,-80.812007,/Stop 32 Rd
1097,39.973211,-80.746689,/Central Ave
216,40.011684,-81.072729,/S Main St
305,40.070156,-80.749781,Howard St//Hall St
216,40.015983,-80.761772,Pear Aly/Shady Lane Rd
160,40.086536,-80.901864,N Market St Exd/N Market St/Park Dr
185,40.094742,-80.761872,Sunset Hts/Old Cadiz Rd
246,40.027223,-80.814998,Pike St/Union St
246,39.992525,-81.187531,Westview Ct
160,39.956799,-80.762770,State Rte 7
160,40.020515,-81.071589,/2nd St
185,40.149638,-81.065586,/High St
160,39.866630,-80.817896,E Captina Hwy/
246,40.015162,-80.760603,Peach Aly/3rd Ave
246,40.037895,-80.736306,Atchison Rd
305,40.027743,-80.817365,Ohio St
185,40.064405,-80.983576,Pogue Rd/S 70 Rd
185,39.953847,-81.231444,Twp Hwy 609/Main St
216,40.071578,-80.896088,Pine Knoll Ter/High St
216,40.073237,-80.903141,Lakeview St/Efaw Ave/Shepherd Ter
334,40.098725,-80.728963,Walnut St//S 10th St
185,39.868748,-80.829230,/Alt Rte Route Route Approach/Mount Victory Rd
472,40.096828,-80.732394,Catawba St/Elm St
246,39.975652,-80.964188,Cherry Aly/Main St
334,40.082243,-80.882507,E Lawn
160,39.914744,-81.116065,Stumptown Rd/Hackelburney Rd
185,40.009249,-81.008798,Belmont Centerville Rd
390,40.147342,-81.064582,/Pearl St
334,40.076907,-80.788665,Lansing Ln/Maple St/Maple Ave
246,40.038645,-80.734773,N Guernsey St
160,39.861210,-80.812670,/Industry St
362,39.866666,-80.797456,Main St/Division Ave
216,40.013697,-80.747644,Spruce St/Sullivan St
160,40.057780,-81.118464,/I- 70
334,40.065423,-80.861134,Banfield Rd
390,40.021025,-81.074615,Maple Ave
160,39.989261,-81.162805,/Bethesda St
276,40.022349,-80.743926,/41st St
185,40.008884,-80.888782,3rd St/Glencoe Stewartsville Rd
160,40.055026,-80.774023,Kirkwood Heights Rd/Kilgore Rd
160,40.075799,-80.795973,Seminola Ave/Chermont Rd
185,39.977770,-81.183387,Somerton Hwy
1589,40.095899,-80.722617,N 3rd St
160,40.125036,-80.908540,Main St
445,39.997063,-81.172593,Bond Ave/Kenwood Ave
499,40.089043,-80.735036,Indiana St/Willow Ave N
246,39.966580,-80.758932,/Wegee Ln
499,40.096957,-80.730818,Concord St/Delaware St
334,39.991570,-81.176599,Laws St/N Chestnut St
305,40.066396,-81.043643,Oakwood Dr
216,40.144268,-81.070141,/Morristown St
246,39.992993,-81.175294,/Euclid Ave
185,40.070402,-80.779080,Commercial Dr
185,39.989306,-81.183278,W Main St/Cole St
334,40.073188,-80.897353,Dennis Ln/High St
160,39.981319,-81.176607,Commodore Ln
160,40.022694,-80.811383,Bellaire Neffs Rd
390,40.092162,-80.735447,Jefferson St/Sheets St
185,40.118450,-80.713244,Bridge St/Glenns Run Rd
418,40.014333,-80.744382,Guernsey St/32nd St
185,40.064859,-80.750127,/Alexander Rd
160,39.966558,-81.100490,/Everett Turner Dory M Rd
276,40.075819,-80.744684,/Laipple St
185,40.102839,-80.976016,/Main St
160,40.054515,-81.229600,Fairview Rd
216,40.064842,-81.074263,Alley 3/Memory Ln
216,40.026208,-80.743140,44th St/Pine Aly
305,40.077595,-80.920972,W Main St
684,40.092591,-80.730987,/Jefferson St
185,39.868791,-80.835316,/E Captina Hwy
390,39.992066,-81.154008,Bethesda St Exd
1149,39.975213,-80.744799,State Rte 7 Scn//W 36th St/Central Ave
160,40.123936,-80.943325,Columbia St/Spring Dr
1020,40.010933,-80.744161,27th St
185,40.019862,-81.073809,/N Main St
276,40.027228,-80.815086,Pike St/Union St
216,40.090491,-80.908285,N Market St Exd
160,40.127765,-81.053044,/Stewart Rd
246,39.995522,-81.178805,/Fair St
276,40.071658,-80.903242,Hanson Dr/Efaw Ave
362,39.971923,-80.751728,/Washington St
305,40.068367,-80.850261,/Ebbert South Rd
276,39.869749,-80.795153,/Crescent St/Elizabeth Ave
246,39.860726,-80.809393,Sarich St
865,40.070617,-80.761571,Brookside Ave/National Rd
334,40.074141,-80.905579,Lakeview St/Sunset Dr
216,40.115215,-80.980255,Uniontown-Flushing Rd
305,39.858115,-80.818136,Christine Dr
390,40.007060,-80.745461,/22nd St
216,40.090981,-80.908667,/N Market St Exd
160,40.077537,-80.865343,Burrwood Dr
160,40.057791,-81.152685,/I- 70
160,39.938159,-80.813641,Lockwood Run Rd
276,40.057817,-80.823573,I- 470
185,39.864495,-80.798101,/Main St
865,39.971250,-80.745403,Highland Ave
276,40.077703,-80.902141,/S Marietta St
160,40.032769,-81.041078,Palmer Rd
216,40.075342,-80.794471,Lahoma Ave/Lohoma Ave
305,39.967500,-80.754422,E 46th St/Smithfield St
160,40.005017,-80.757758,3rd St
334,40.158069,-80.721224,Eillen St
160,40.032055,-80.744853,/Hillview Ave/48th St
216,40.081317,-80.739207,Chase St
216,40.053671,-80.878757,/Anna Dr
160,39.980537,-81.181299,Sycamore St/Leggett Ave
246,40.064702,-81.070367,Alley A/E Cross St
499,40.068942,-80.778591,Belmont Ave
445,40.013847,-80.758064,Grove Aly/Birch St
246,40.020991,-81.078831,Maple Ave
579,40.087804,-80.733366,/Buckeye St
390,40.022333,-81.073106,Glenwood Dr Way/Glenwood Dr
579,39.970647,-80.754109,W 43rd St/Adams Ave
160,39.955350,-80.840705,Lockwood Run Rd/
276,40.076092,-80.892276,Neff St/Peach Aly
160,40.099164,-80.977313,Poplar St/Main St
362,40.091440,-80.725220,Fayette St/S 1st St
185,39.969839,-80.758261,/Madison Ave
185,39.979842,-81.143836,/Pigeon Point Rd
160,40.051950,-81.003153,Plainfield Rd
526,40.079117,-80.901481,E Woodrow Ave
160,40.025031,-81.062728,/Bethesda Belmont Rd
216,40.003345,-80.775163,Governor Dr/Bell Haven/Bel Haven
246,39.969151,-80.758740,/W 47th St/Madison Ave
305,40.064120,-80.999683,Ray Rd
160,40.019178,-80.747740,Rose Hill Pike/Bellaire and St Clairsville Pike/35th St
390,40.085347,-80.737625,Ascension Ave/Aetna St
160,40.008865,-80.743251,Union St
185,40.073168,-80.789306,National Rd/Liston Ln
160,40.053752,-81.037577,Frontier Dr
185,40.156532,-80.714483,/Sharon Blvd/Gilbert St
160,40.026614,-81.090099,/Garrett Rd
276,39.990174,-81.173872,/Cherry St/Grey Ln
246,40.099827,-80.719463,N 4th St
334,40.003015,-80.744002,17th St/Belmont St
185,40.017200,-80.780842,/Bellaire Neffs Rd
917,40.017937,-80.740885,36th St/State Rte 7
185,40.057770,-81.157880,/Mount Olivett Rd/Barnesville Hendrysburg Rd
216,40.116317,-80.888904,/Purseglove Rd
1485,40.072504,-80.740442,S Lincoln Ave/Lincoln Ave
305,40.116836,-80.709928,Glenns Run Rd/Burlington Rd
579,40.049417,-80.733285,Jefferson St/I- 470
160,40.072367,-80.758061,Bench St
276,40.011068,-80.742933,State Rte 7
216,40.031088,-80.743757,47th St/Three Hills Dr
276,40.027363,-80.817389,Pike St/Ohio St
216,40.112850,-80.709502,Unnamed Boundary/Burlington Rd/Don St
499,40.066507,-80.773533,National Rd/Union
185,40.026137,-80.742669,Franklin St/44th St
472,40.072198,-80.749992,/Main St
185,40.107915,-80.727003,Cemetery Dr/Memorial Park Rd
276,40.117282,-80.710591,Glenns Run Rd/Valley Dr
160,40.025562,-81.042383,Brown St
658,40.069882,-80.740774,/Howard St
185,39.863547,-80.806278,Brown Rd/Mellott St
276,39.977452,-80.742007,Hart Ave//Elk St
276,39.986359,-81.179771,Harrison St
246,40.016907,-80.781825,Bellaire Neffs Rd
305,40.085691,-80.896651,Talbot Ave
185,40.142242,-81.076457,/Poland Rd
305,40.013353,-80.755169,Birch St
185,40.149283,-81.065080,Pearl St
305,40.015348,-80.743898,Guernsey St/33rd St
552,40.069100,-80.751800,/Howard St/Belmont Heights Rd
216,40.002367,-81.107858,N Rogers Rd
2061,40.085551,-80.735568,Broadway St/Crawford St
160,39.898686,-81.138169,Robin Dr
185,40.026664,-80.815649,Linn Aly/Lin Aly
445,39.870267,-80.797643,/Wheeling Ave
185,40.020186,-81.076040,Chestnut St
185,39.990891,-81.168355,/Mount Olivett Rd
362,40.012694,-80.756430,Frazier Ave/Dorer Ave
185,39.984901,-81.143844,Pigeon Point Rd/Sandy Ridge Rd
526,40.012527,-80.758578,Park St/2nd Ave
526,40.016882,-80.745338,/34th St
216,40.108515,-80.714884,Border Ln
472,40.073458,-80.892195,/Windermere Dr
246,39.992297,-81.155250,Bethesda St Exd
160,40.070559,-80.779385,Hope Ln/Commercial Dr
390,40.067938,-80.759657,I- 70
216,40.088707,-80.909680,Jug Run Rd
305,40.039361,-80.734165,Guernsey St
185,39.977359,-81.183337,Gobblers Knob Rd/Somerton Hwy
305,40.056558,-81.070832,N 26th Rd/I- 70
246,40.068624,-80.758119,I- 70
276,40.108300,-80.714678,Border Ln
1407,39.970774,-80.750499,/Central Ave
216,40.071536,-80.900203,Hanson Dr/S Marietta St
305,40.013372,-80.745447,Crescent St
865,39.973266,-80.745990,E Thompson Ln
1226,39.971059,-80.749996,/Central Ave
160,40.129950,-80.814346,/S Sharon Rd
185,40.111748,-81.016830,/Mount Hope Rd
362,40.071178,-80.860472,I- 70/Banfield Rd
246,39.993981,-80.741791,State Rte 7
160,40.117995,-80.839283,Barton Rd
160,40.000139,-81.111874,/Russell Long Run Rd
160,40.151350,-80.842017,Charose Ln/Emerson Rd
160,39.855463,-80.954161,Clover Ridge Rd
390,39.968070,-80.755543,/Central Ave
472,40.040511,-80.734598,Jefferson St
390,40.010966,-80.762776,Klee Cross Rd
762,39.974262,-80.745599,W 37th St/Central Ave
160,39.861327,-80.813027,Industry St
160,40.107279,-80.758782,Colerain Pike
839,40.094333,-80.729637,S Zane Hwy/Delaware St
160,39.927221,-80.847033,Tomlinson Run Rd
216,40.069807,-80.781387,/Willow Ave/Industrial Dr
445,39.970136,-80.760464,Monroe St/
160,40.072495,-80.759132,Patterson Rd
305,39.970575,-80.744884,/Grand Ave
579,39.969285,-80.753100,Central Ave
390,40.029606,-80.739049,47th St/Jefferson St
917,40.017182,-80.742011,35th St
185,39.918824,-80.804166,Pipe Creek Rd/State Rte 7
160,40.128181,-80.871410,Grays Ridge Rd/Maynard Hill Rd/Robinson Hollow Rd
160,40.109903,-80.711267,Jeanette Ave
216,39.974268,-80.753255,W 39th St
216,40.112065,-80.801574,Chermont Rd/S Colerain Rd
160,39.902547,-81.137257,Washington St
1615,40.012030,-80.744800,Crescent St/Cherry Aly
276,40.084268,-80.738176,3rd St/Chase Ave
246,39.998137,-80.742375,State Rte 7
160,40.155335,-80.848179,Pleasent Grove Rd
418,40.077339,-80.963705,/Hammond Rd
185,40.099253,-80.779183,Sunset Hts/Woods Ln
246,40.070236,-80.764753,National Rd
185,40.077541,-80.791814,Poplar Ave
605,40.070175,-80.881293,I- 70
185,40.013412,-81.068976,/Judson St
160,40.028323,-81.043771,Bridge St/W Center St
185,39.918211,-80.766373,/Grandview Dr
216,40.107151,-80.841167,Barton-Blaine
472,40.024959,-80.740915,Noble St/43rd St
334,40.010227,-80.743323,State Rte 7
185,40.125154,-80.877164,Twp Rd 463
1355,39.970899,-80.750277,Central Ave
160,40.031815,-80.742661,/Nicole Ln/48th St
418,39.995226,-81.174808,/Bond Ave
160,40.072932,-80.951878,W Main St
334,40.071202,-80.738232,I- 70
185,40.080184,-80.887921,John Ave/Toni Ln
185,40.073003,-80.998882,W Main St/National Rd
658,40.090789,-80.732699,Monroe St
185,40.119383,-80.713211,W Victory Rd
160,40.006057,-80.771310,/Toad Hollow Rd
160,39.938185,-81.161244,Schafer Rd/W Sixteen Rd/Somerton Hwy
246,39.988502,-81.174896,N Arch St/E Church St
185,40.011863,-80.852458,Main St
1097,40.094249,-80.724690,S 3rd St/Hickory St
160,40.146132,-81.066378,Stratton Ln/Mill Rd
216,40.071168,-80.966581,Harris Dr
216,40.063758,-81.002343,I- 70
2678,40.070877,-80.865135,/Mall Rd
390,39.989242,-81.178059,N Cmns/N Broadway/Church St/N Broadway Ave
276,40.107234,-80.711216,/Burlington Rd/Mackey Ave
160,39.994054,-81.159442,Eastview Ct
276,40.069336,-80.747481,Bennett St/Sumpter St
552,40.097876,-80.721763,N 4th St
631,40.020887,-80.742957,/38th St/Noble St
445,39.968953,-80.752762,E 44th St
390,39.981794,-81.186260,W Pike St
160,40.019240,-80.790093,Bellaire Neffs Rd
160,40.109514,-80.999742,Harrah Dr
160,40.145149,-81.069085,/Morristown St
276,40.010604,-80.742731,/27th St
552,40.098806,-80.725477,N 8th St/Carlisle St
216,39.914898,-80.762092,Ferry Landing Rd/
445,40.021780,-81.072621,1st St/Belmont-Beth Rd/Bethesda Belmont Rd/Maple Ave
216,40.075884,-80.894072,Saint Clair St
160,40.071360,-81.004191,National Rd
160,40.137428,-81.072378,Morristown Flushing Rd
160,40.054491,-81.229478,Fairview Rd
276,39.983578,-81.186514,S Highland Ave/
160,40.005191,-81.074208,/S 26th Rd
216,40.065425,-80.902255,Liberty Ave/Warnock Saint Clairsvi Rd
334,39.970438,-80.756048,W 44th St/Jefferson St
185,40.147484,-81.063134,/Wood St
216,40.153180,-80.724581,/Millers Subdivision Rd
160,40.085387,-80.754237,/Old Cadiz Rd
276,40.027006,-80.745153,del Guzzo Dr
334,39.977761,-80.742684,Hart Ave
160,40.099737,-80.977211,Pine Ave/Main St
605,40.049449,-80.733104,I- 470
160,39.888884,-80.872526,E Captina Hwy
216,40.070964,-80.964425,Hill N Dale Dr
160,39.950775,-80.791037,/Workman Rd
418,40.097945,-80.730604,Grant Ave/Elm St
185,40.028418,-80.742170,Franklin St
160,39.954828,-81.230047,/Main St
418,40.116221,-80.710056,Orchid Dr
216,40.066615,-80.821377,National Rd
362,40.017981,-80.781291,/Ann St
160,40.119288,-80.913933,/Kagg Hill Rd
185,39.868755,-80.829325,Mount Victory Rd
390,40.025959,-80.741253,/44th St
605,39.970978,-80.753905,/Adams Ave
334,40.157395,-80.705951,Belmont Ave
334,40.156040,-80.709741,4th Ave/Jones Ave
160,40.004926,-80.870038,Fuller Rd
390,39.970086,-80.756380,/Jefferson St
160,40.110527,-80.710136,Ohio Ave
160,39.861430,-81.031209,/Belmont Ridge Rd
185,40.122206,-80.889063,Fairpoint Maynard Rd/Main St
390,40.012684,-80.763214,4th Ave/Washington St
305,40.067460,-80.760708,I- 70
305,40.006042,-80.744747,E 20th St/W 20th St/Belmont St
472,40.024542,-80.740974,Noble St
334,40.020656,-80.740486,State Rte 7
334,40.071929,-80.763406,Cross St/Prospect St
246,40.014970,-80.754760,Maple Ave
160,39.875543,-80.822702,Cove Rd/Mount Victory Rd
526,39.969574,-80.752970,/Central Ave
334,40.070317,-80.906639,I- 70
418,39.967822,-80.754727,E 46th St
276,40.064312,-80.992428,I- 70/N Grady Rd
276,39.859934,-80.805141,/Water St/Filmore St
334,40.072756,-80.912006,Reservoir Rd
185,39.999919,-80.777077,Key Bellaire Rd/Kennedy Rd
276,40.050036,-80.782776,Kirkwood Heights Rd
246,40.065129,-80.780045,Kennedy Ave
305,40.036052,-80.736386,Jefferson St
160,40.149061,-81.065015,/Pearl St
390,40.099453,-80.721967,/Seabrights Ln
160,40.116839,-80.794960,Ohio Ave
390,39.992292,-81.179995,Stadium Dr
160,40.027483,-81.041728,Abbey St/W Railroad St
305,40.070408,-80.849111,Ebbert North Rd
891,40.092481,-80.732227,Jefferson St
216,40.006612,-80.743395,Union St/E 21st St
216,39.982553,-81.179941,Pike St/Leggett Ave
276,40.090363,-80.903796,/Martha Dr
160,40.013285,-80.762529,Bryce St/B Aly
472,40.095937,-80.732576,/Euclid Ave
305,40.073112,-80.891383,Westminster Dr/Tudor Dr
445,40.069765,-80.754812,I- 70
334,39.982244,-81.181127,/Brill St
305,39.862325,-80.801126,Ramsey St/Main St
762,40.085576,-80.736803,/S Zane Hwy
185,40.136545,-80.717581,Pattons Run Rd
246,40.116999,-80.710921,Rose Ln/Valley Dr
418,40.039497,-80.734950,Jefferson St
185,39.870566,-80.799073,Cove Dr
684,40.096325,-80.731783,Concord St/Catawba St
160,39.957162,-80.976054,/Ogilbee Rd
276,40.071851,-80.911996,I- 70
631,40.030789,-80.739061,Jefferson St
276,40.010778,-80.765192,Key Bellaire Rd/Fulton Hill Rd
160,39.935269,-81.147546,Flat Rock Rd/Oakes Pl
334,40.004887,-80.743780,E 18th St
216,39.989785,-81.170839,Mulberry St
276,39.974641,-80.955641,Centerville Jacobsburg Rd
276,39.964009,-80.758617,State Rte 7 Scn
160,40.045996,-80.849717,Willow Grove Rd
362,40.091273,-80.725807,Ferry St
216,39.994544,-80.742252,11th St/Belmont St
160,40.052996,-80.816695,Mc Gregor Hill Rd
160,40.076458,-80.899809,S Market/Ruggles Ave
246,39.865553,-80.797705,/Main St
185,40.144978,-81.079639,Rosemary Camp Rd
418,39.977450,-80.743071,State Rte 7 Scn/Central Ave
160,40.001630,-80.743736,/16th St/Belmont St
216,40.012333,-80.776011,/Trough Run
185,40.122035,-80.889729,/Water St
1798,39.971852,-80.748646,/Central Ave
526,40.076456,-80.790092,Scott St/Maple Ave
216,40.021978,-81.140136,Walnut St/Church St
160,40.002526,-81.131150,Oak Ln/Barnesville Bethesda Rd
185,40.129738,-80.815294,Pine Dr/S Colerain Rd
185,39.966187,-81.178299,Somerton Hwy
185,39.967705,-80.758578,Jefferson St
631,40.042699,-80.733111,/Guernsey St
185,40.018379,-80.748662,Catherine St/Bellaire and St Clairsville Pike
160,40.109975,-80.712535,N 8th St/Wilson Ave
216,39.978640,-80.740488,State Rte 7
185,40.070203,-80.888688,Westminster Dr
160,40.012140,-81.069038,Judson St
185,40.109542,-80.711283,Wilson Ave
736,40.092826,-80.732599,/S Zane Hwy
160,39.881256,-80.848589,E Captina Hwy
390,40.098512,-80.723758,Park St/N 6th St
472,39.973938,-80.752362,/W 39th St
185,40.099349,-80.782294,Hanson Rd/
579,39.970777,-80.755710,Jefferson St
185,40.143473,-81.033163,Dutton Dr
216,40.072871,-80.782634,E Marcellius/Alley C
216,40.068159,-80.903584,Belmont Ave
160,39.984069,-80.747650,/New Cut Rd
160,40.076839,-80.890093,Plum Aly/McFadden St
1226,40.017442,-80.742945,Guernsey St/35th St
160,40.100237,-80.737299,Highland Rd/Overlook Dr
185,40.023862,-80.822659,/Sand Hill Rd
499,40.040168,-80.734940,Jefferson St/Hill
1485,39.972275,-80.747972,W 39th St/Central Ave
305,40.027258,-80.815590,Pike St/Bridge St
160,40.140908,-80.827521,N Colerain St/Sunny Lane Dr
305,40.032658,-80.738729,49th St/Noble St
305,40.076639,-80.962641,/I- 70
216,39.975177,-80.747230,W 37th St
160,40.062530,-80.831027,Maple Dr
246,40.028749,-81.038505,John St/E Market St
362,40.067635,-80.895959,/Clark Rd/I- 70
216,39.985907,-81.173830,Franklin St/E South St
362,40.154081,-80.710713,Heiland Ave/Wilson
305,39.989610,-81.179608,N Cmns/Church St
390,40.070669,-80.758114,National Rd
472,39.987749,-81.181626,S Cmns
160,40.057456,-80.907100,/Reservoir Rd
246,40.054787,-80.734045,West Dr
216,40.024452,-80.744866,42nd St
185,40.059547,-81.080246,National Rd
216,40.068536,-80.753121,Howard St/Pine St
418,40.082235,-80.898023,N Sugar St/E Newell Ave
185,40.070756,-80.778568,Commercial Dr
160,40.051820,-80.733490,Jefferson St
160,40.027610,-81.044576,1st Aly/Bethesda Belmont Rd
305,40.071354,-80.758045,Arlington St/Ross St
390,40.098163,-80.730089,Belmont Ave/Grant Ave/Elm St
276,40.016905,-80.748957,Erie St
160,40.026659,-81.049740,/Bethesda Belmont Rd
160,40.005889,-80.743345,E 19th St/Union St
185,39.871090,-80.795780,Parish Rd Cem/Parish Rd in A Cemetery
788,40.096003,-80.726780,S Zane Hwy//Hickory St
276,40.067371,-80.901698,Maple Aly/Belmont Ave
334,39.992387,-81.189119,/W Main St
246,39.860589,-80.814190,/Sycamore St
216,40.058447,-81.147970,I- 70
445,39.971804,-80.754969,Jefferson Ave/W 42nd St
418,40.013024,-80.764129,Washington St/5th Ave
472,40.067708,-80.896855,I- 70
276,39.964777,-80.761967,W 53rd St
160,40.030373,-81.156858,/Twp Hwy 139
160,40.010066,-80.851395,Patch St
994,40.073651,-80.740561,/Cadiz Pike
160,40.027265,-81.043854,Bridge St/Light St
160,40.109286,-81.015017,/Front St
160,40.097685,-80.735491,West Rd/Colerain Pike
216,40.021507,-80.794741,Fowkes Rd/McMahon Rd
160,40.072978,-80.906430,Gaywood Dr
631,40.085905,-80.736612,S Zane Hwy/Crawford St
605,39.990652,-81.157179,/Barnesville Bethesda Rd
160,40.149101,-81.065026,Pearl St
185,40.021357,-80.753043,Rogers Ln
185,40.110791,-80.712579,/Heil Ave
185,40.143361,-80.713101,State Rte 7
445,40.091653,-80.728609,Jefferson St/Grant Ave
305,40.074493,-80.899324,Progress St
246,40.085211,-80.896709,/Legion Rd
160,40.048754,-80.857987,S Banfield Rd
216,40.001700,-81.107277,Spiedel Town Rd/Rogers Rd
160,40.109556,-81.015136,2nd St
160,40.077045,-80.792771,Maple St/Maple Ave
160,40.057267,-81.119527,McMillian Rd
246,40.061165,-81.164129,/North Rd
276,39.864016,-80.802524,Railroad Ave
216,40.109056,-80.712215,/Kuckuck Ln
160,40.020585,-80.804900,/Driveway Ln/Main St
185,39.976878,-80.965375,Belmont Centerville Rd/Firehouse Ln
813,40.077096,-80.869686,E Lawn/Mall Rd
390,40.091565,-80.735675,Monroe St/Hughes Ave
216,40.106946,-80.712109,N 6th St
160,39.859976,-80.803929,/Water St/2nd St
160,40.059372,-81.110958,Twp Hwy 1570
160,40.150875,-81.070500,Bank St/Northwest St
390,39.986248,-81.172649,/Henderson St
185,40.068451,-81.051761,National Rd/Twp Hwy 814
185,40.018280,-81.072856,Church St/1st St
160,39.943114,-81.166304,Somerton Hwy
305,40.075295,-80.911849,Johnet Dr/Reservoir Rd
418,39.968400,-80.748464,Grand Ave
160,40.046550,-80.908019,/Glencoe Rd
305,39.966705,-80.755793,Smithfield St
160,40.022164,-80.976880,Pearson Park Rd/McKelvey Rd
185,40.087139,-80.901916,/N Market St Exd
362,40.008239,-80.745181,Belmont St
305,40.070959,-80.903279,Linda Dr/Efaw Ave
968,39.970831,-80.747059,/E 39th St
185,40.143136,-81.071506,/Morristown Flushing Rd
472,40.012728,-80.761237,Bryce St/Union Aly
216,40.038410,-80.734498,/Guernsey St
160,40.001412,-81.175870,Parkview Ln
917,40.012939,-80.744387,/Cherry Aly
246,39.975467,-80.742557,/E 35th St/Lincoln Ave
185,39.947519,-81.233075,Dog Hollow Rd/Twp Hwy 745
160,40.069609,-81.033242,/National Rd
160,39.899438,-81.137410,/Washington St
390,40.075215,-80.910341,Johnet Dr/Harbel Dr
276,40.064533,-80.992523,I- 70
658,40.094071,-80.730675,S Zane Hwy/Catawba St
362,40.085850,-80.891647,Greentree Dr/
160,40.001748,-81.172445,/Lyndale Ave
305,39.971913,-80.743344,/Grand Ave/E 38th St
160,40.119241,-80.875419,/Loretta Ave
246,40.067866,-80.752817,Bennett St/Pine St
185,40.143174,-80.836133,Buena Vista Dr
185,40.152198,-81.045974,/E High St
185,40.123759,-80.911623,Stonehouse Rd/Center St
185,40.130708,-80.812756,/S Sharon Rd
445,40.029633,-80.739277,47th St/Walnut Aly
1149,39.971239,-80.749674,Central Ave
185,40.018875,-80.787602,Nelan Rd/Merrits Row
160,40.073262,-80.947518,Straight St/W Main St
160,40.077642,-80.922604,W Main St
276,40.112269,-80.710042,Halmway St
762,39.973440,-80.751013,W 39th St/Olive Ave
305,39.990603,-81.173715,/Alley/Grey Ln
246,40.069085,-80.898535,Carroll Dr/Thompson Dr
472,39.992367,-81.167400,Neva Ave
216,40.076039,-80.793763,Chermont Rd
216,40.094464,-80.747947,Lingate Dr/Ferryview Rd
418,40.029813,-80.740780,47th St
185,39.859965,-80.815868,Green St
160,40.031877,-81.044645,Belmont Morristown Rd
552,39.971456,-80.755189,/Jefferson Ave
276,40.048927,-80.789666,/I- 470
160,40.156898,-80.717670,Sharon Blvd
390,39.988726,-81.159816,E Main St/Shamrock Dr
160,39.946408,-81.189651,Wright Rd
276,40.157172,-80.707554,/Market St
185,40.070063,-80.783747,Alley 3/Brand Ave/Brand St
160,40.024675,-81.065264,/Bethesda Belmont Rd
185,40.142485,-81.071690,Morristown Flushing Rd/Poland Rd
334,40.058190,-81.157822,Barnesville Hendrysburg Rd
276,40.015917,-81.072357,S Main St/Front St
185,40.073955,-80.901329,Shepherd Ter
362,40.097501,-80.728053,S 8th St/
216,40.056575,-80.734200,Jefferson St
552,40.070242,-80.740753,Hall St
246,40.070879,-80.765549,Frederick St/2nd St
216,40.058176,-81.148155,/I- 70
362,40.068377,-80.887919,Graham Rd/Willow Grove Rd
216,40.104335,-80.739756,Ayers Dr/Hillcrest Dr
276,40.064548,-80.778907,I- 70
552,39.868296,-80.797587,Ohio River Hwy/Main St
631,40.079755,-80.898391,/E Woodrow Ave
216,40.026092,-80.742325,44th St
334,40.065530,-80.777983,Hoover
160,40.121296,-80.934460,Main St
160,39.999832,-80.959845,/Centerville Warnock Rd
216,40.026590,-80.818898,School St
1746,39.971419,-80.748227,Short St
185,39.989318,-81.164589,Summit Ave
216,40.031606,-81.133141,Mount Olivett Rd NE
216,39.941264,-80.816067,/Lockwood Run Rd
185,40.051361,-81.048831,Belmont Morristown Rd/Dunlap Dr
160,39.937999,-80.853405,/Crozier Rd
246,39.968551,-80.751677,E 44th St
246,39.990825,-81.180318,Gills Ln
276,40.151252,-80.711481,/Euclid Ave
362,40.100532,-80.717719,Center St
418,40.065373,-80.773219,/Beal St
362,40.005619,-80.744336,E 19th St/State Rte 7
216,40.067189,-80.818891,Barton-Blaine
185,39.921813,-80.780635,/Dilles Bottom Rd
185,39.871073,-80.795561,Parish Rd Cem
334,40.028099,-80.815355,/Locust Aly/Belmont St
246,40.064836,-81.015647,Ray Rd
216,40.077016,-80.791419,Church St/Maple St
216,40.118698,-80.712631,Bridge St/Glenhurst Ter
305,39.966515,-80.757957,Wegee Ln
276,40.068524,-80.758356,I- 70
216,39.854638,-80.820114,/Ohio River Hwy
246,39.858214,-80.816662,Ohio River Hwy/Elm St
246,40.094739,-80.735992,W Vine St/Willeta Ave
552,40.014683,-80.744215,/Guernsey St
418,40.091500,-80.735432,Monroe St/S 10th St
390,39.982066,-81.181945,/S Chestnut St
160,40.123303,-80.911657,Walnut St/Stonehouse Rd
246,39.962067,-80.769658,McGee Rd
390,40.070640,-80.760014,National Rd/Walnut Ave
526,40.094261,-80.732504,/Euclid Ave
658,40.069891,-80.742436,Howard St/Lee St
552,39.968862,-80.754218,W 45th St/Central Ave
305,39.871274,-80.796903,Ohio River Hwy
445,40.059906,-81.052800,Belmont Morristown Rd/I- 70
160,40.130438,-80.872791,Grays Ridge Rd
1511,39.971536,-80.749535,W 40th St/Central Ave
160,40.024083,-81.066904,Bethesda Belmont Rd
334,40.057520,-80.823388,I- 470
216,40.066700,-80.741657,Scotts Ln
362,40.073306,-80.761106,Alta Vista St
246,40.085755,-80.895626,/Richland Ave/Crisswill Rd
216,39.978914,-80.740431,State Rte 7
160,40.117620,-80.935326,Main St
160,40.073274,-80.905149,Allen St/Lakeview St
334,40.050194,-80.800591,I- 470
684,40.095289,-80.728991,/Grant Ave
160,40.085136,-80.895873,Richland Ave/Oak St
362,40.028655,-80.741630,/46th St/Elm Aly
160,40.046235,-80.864425,Little McMahon Creek Rd/Willow Grove Rd
445,40.097828,-80.729970,/Grant Ave
552,40.020399,-80.741324,38th St/Tallman Ave
276,39.989604,-81.171350,Watt Ave/Mulberry St
418,39.864772,-80.804356,Ohio River Hwy
276,39.862522,-80.813049,Ohio River Hwy
160,39.920911,-80.794689,Dilles Bottom Rd
160,39.961140,-80.971595,Ogilbee Rd/Armstrong Centerville Rd
305,39.994600,-81.170042,Wiley Ave/Hutchinson Ave
160,40.012699,-81.072113,/S Main St
160,39.993815,-80.789772,Key Bellaire Rd
216,40.095875,-80.720380,Park St
246,40.037658,-80.734773,/Guernsey St
736,40.075335,-80.967811,Bannock Rd
362,40.154308,-80.710168,Sinclair Ave/5th Ave
390,40.022585,-81.072910,Glenwood Dr
246,40.066849,-80.821361,Pasco Dr
246,40.027159,-80.813817,/Pike St
160,40.088619,-80.852706,Rehm Rd
305,40.073816,-80.906363,Coroline Dr
362,39.984990,-81.175255,/S Lincoln Ave
160,40.027379,-81.043846,Bridge St
216,39.967471,-80.749187,Grand Ave/
185,40.067466,-80.817534,Grade Rd/Grade Or Lane A/Handel St
160,40.088919,-80.738001,Breitenstein Ln
334,40.157138,-80.709074,3rd Ave
334,40.058282,-80.735369,Moores Run Rd/Kilgore Rd
499,40.072872,-80.748305,Spring St
160,40.156758,-81.026495,Flushing New Athens Rd/Major Rd
334,40.096826,-80.720195,N 2nd St
334,40.064256,-81.016070,Ray Rd/I- 70
390,40.099745,-80.725624,/N 9th St
185,39.966493,-80.972067,/Armstrong Centerville Rd
334,39.990195,-81.185166,Washington St/W Main St
160,40.026587,-81.041816,3rd St/Shaver St
362,40.018300,-80.781457,/Ann St
526,39.977203,-80.743265,State Rte 7 Scn//Central Ave
499,40.099749,-80.724986,Park St//N 9th St
185,40.064336,-80.987218,/S 70 Rd
160,40.102967,-80.721494,/Liberty St/N 9th St
216,40.045448,-80.757515,I- 470
472,40.072606,-80.747988,Main St/Rhodes St
334,40.069677,-80.904369,I- 70
160,40.124476,-80.937216,Hess Sub
160,40.017740,-80.753078,High Ridge Rd
160,40.069443,-80.842566,E Lawn/Summit Ave
390,39.982200,-81.181793,/S Chestnut St
160,40.111501,-81.018476,/Harrah St
418,40.088245,-80.746390,Roosevelt Ave/Truman Ave
305,39.867441,-80.798896,/Ohio River Hwy
160,40.029802,-81.040209,Jefferson St/W Chestnut St/E Chestnut St
160,39.869057,-80.836111,/E Captina Hwy/Mount Victory Rd
160,40.021236,-80.756612,/High Ridge Rd
305,40.101275,-80.718772,N 5th St/Center St
160,39.945817,-80.774660,Skyline Dr
160,39.976455,-80.752109,Woodland Dr
160,40.029909,-81.141923,Mount Olivett Rd/Penny Ln
334,40.065045,-80.860270,Twp Hwy 314 B/Banfield Rd
160,40.027947,-80.975689,McKelvey Rd
246,40.055087,-80.734034,Twp Hwy 1433/West Dr
160,40.066234,-80.755523,/Buckeye St
160,39.968619,-80.761530,Monroe St
472,40.103233,-80.715466,Dehass St
276,40.011130,-80.758030,/Washington St
390,39.970141,-80.755254,W 44th St/Terrace Ave
160,39.992949,-81.173615,Euclid Ave/Greensmount Ave
185,40.031035,-80.743418,47th St/Redwood Dr
160,40.017589,-80.786811,Merrits Row
160,39.914185,-80.760409,Ferry Landing Rd/Twp Hwy 533 A
160,39.990154,-81.169911,Mulberry St
160,39.994061,-80.745490,/Twp Hwy 619/Cement Mill Rd
160,40.067410,-80.859173,Breezy Hill Rd
390,39.991554,-81.178922,Park St/Laws St/2nd St
185,39.923805,-80.783674,/State Rte 7
246,39.914984,-80.758985,Ferry Landing Rd
185,39.972880,-81.128900,/Sandy Ridge Rd
276,39.862245,-80.813039,/Front St
305,40.071832,-80.908011,Overlook Ct
710,39.973770,-80.751914,W 39th St/Adams Ave
216,39.920845,-80.797054,Lockwood Run Rd/Dilles Bottom Rd/State Rte 7
418,40.067595,-80.740468,Jacquette St
185,40.153708,-80.847622,Pleasant View Dr
216,39.859542,-80.804812,Filmore St/2nd St
334,40.072435,-80.764849,Overbrook Dr
160,40.150031,-80.711763,Deep Run Rd
276,40.065388,-80.774208,Beal St/W 2nd St
185,40.039219,-81.124668,Mount Olivett Rd NE
185,40.059475,-80.737013,Mor Hill Ln
185,39.858422,-80.809248,Railroad Ave
216,39.991995,-81.152688,/Barnesville Bethesda Rd
276,40.029831,-80.741390,47th St/Elm Aly
472,40.018915,-80.744089,36th St
216,40.086497,-80.741066,Central Ave
185,39.988170,-81.173647,Railroad St/E Church St/N Lincoln Ave
445,40.088295,-80.736927,Breitenstein Ln/Virginia St
276,40.021750,-80.740168,41st St
445,40.072292,-80.964016,W Main St/Extension Rd
276,40.100674,-80.716619,Dewey St/Burke St
390,40.072715,-80.747395,Main St/Rhodes St
185,39.972445,-80.759033,Monroe St/W 43rd St
658,39.974693,-80.743669,E 36th St
216,40.066990,-80.845813,Traco Dr
185,40.055106,-81.090040,/Wilson Rd
160,40.060458,-80.874794,Willow Grove Rd/Brianne Ln
246,40.069850,-80.897472,Carroll Dr
160,39.858578,-80.808322,Railroad Ave
276,40.068686,-80.748714,Whitley St
185,39.963471,-80.759211,/State Rte 7 Scn
305,40.063880,-81.016294,/Ray Rd
185,40.153239,-81.075913,/Niemec Rd
362,40.158002,-80.721041,/Eillen St
276,40.111972,-80.709902,Halmway St
160,40.119815,-80.713627,W Victory Rd
185,40.068208,-80.786922,/Center St
160,40.067762,-80.804758,National Rd
216,40.086979,-80.898338,N Sugar St/Crisswill Rd
216,40.116410,-80.981064,Clover Ridge Rd/Uniontown-Flushing Rd
160,40.085258,-80.863505,/Rehm Rd
160,40.119964,-80.804096,Silouette Dr
334,40.086534,-80.737305,Indiana St
579,39.969832,-80.752145,Library Dr/W 43rd St/Central Ave
276,40.086128,-80.745676,Kennedy Ave
160,40.054364,-80.919517,S Greenbriar Dr
579,40.070019,-80.745772,Howard St/Marion St
605,39.987653,-81.176278,E Main St
334,39.967524,-80.750827,Highland Ave/Center St
362,40.156718,-80.707811,3rd Ave/Market St
305,39.983170,-81.187323,S Highland Ave/Hilles
216,40.012656,-81.136760,Joe Jeffers Rd
334,40.067842,-80.740276,Jefferson St
216,40.069087,-80.898594,Thompson Dr
185,40.076769,-80.949311,Dutch Ln
216,39.860749,-80.814534,Ohio River Hwy/Sycamore St
445,40.070038,-80.753971,Pine St/West St/I- 70
736,40.093011,-80.730507,/Catawba St
305,40.058716,-81.157754,Barnesville Hendrysburg Rd/Sewellsville
1641,40.061739,-81.053909,/Belmont Morristown Rd
160,40.076530,-80.864785,Flagstone Dr/Maplewood Dr
418,40.096699,-80.727650,S 7th St/Hickory St
276,40.025511,-80.743081,Franklin St/43rd St
160,40.104718,-80.838121,Brook St/Center St
605,39.973296,-80.750634,W 39th St
362,39.991292,-81.186411,/Westview Dr
334,39.863643,-80.800234,/Philip St
216,40.074141,-80.759373,Patterson Rd
362,39.989665,-81.176011,/E Walnut St
362,40.115576,-80.709794,Burlington Rd/N 1st St
658,40.080569,-80.903169,/N Marietta St
185,40.023333,-80.748659,Anne Ave
160,39.990980,-81.168034,Mount Olivett Rd
1615,40.011380,-80.744480,29th St/Belmont St
305,39.980310,-81.174965,S Lincoln Ave/Commodore Ln
185,40.118612,-80.711602,Glenhurst Ter
276,40.028574,-80.817284,Elm Aly/Ohio St
246,39.976167,-80.747323,W 36th St
160,40.027295,-81.044452,/Light St
216,40.010895,-80.750173,W 26th St
160,39.905377,-80.810097,State Rte 7
216,40.012722,-81.070449,Pear
160,40.001780,-80.749581,/Old Winding Hill Rd
276,40.085364,-80.891666,/Parshall Ave/Oak St
160,40.077725,-80.892157,Neff St/Cherry Aly
160,40.009517,-80.890421,4th St/Belmont St
246,40.066299,-80.901757,Wabash Ave/Warnock Saint Clairsvi Rd
160,39.989065,-81.150394,Roosevelt Rd
160,40.109529,-80.999948,Harrah Dr/National Oco Rd
185,40.063804,-81.006991,/I- 70
216,40.078132,-80.892393,Young Ln
160,39.950400,-81.111003,Sandy Ridge Rd
160,40.074370,-80.889238,Clark Ave Exd/Bankbarn Ter
160,40.012779,-81.072036,S Main St/Pear
276,40.151810,-80.712164,State Rte 7
305,40.108055,-80.714459,Border Ln/Mackey Ave
160,40.145857,-81.066288,/Stratton Ln
276,40.076732,-80.968518,/Bannock Rd
305,40.071398,-80.779010,Hope Ln
1046,40.096208,-80.725834,/Walnut St
160,40.051643,-81.046236,Dunlap Dr
160,40.025707,-81.045814,Brown St
160,39.999462,-81.153442,Ridge Dr
160,39.999553,-81.173487,Bond Ave
160,39.988252,-81.151675,Sandy Ridge Rd
305,40.071068,-80.876775,/I- 70
362,40.115692,-80.709507,N 1st St
185,39.966441,-80.762639,Monroe St
185,39.983145,-81.184298,Jacksons Xing/W Pike St
160,40.020792,-80.755922,Rogers Ln/High Ridge Rd
499,40.013664,-80.744049,/Cherry Aly
1667,40.084545,-80.735663,/1st St
216,40.056465,-80.734160,Jefferson St
160,39.999798,-80.744097,Guernsey St/14th St
499,40.064802,-81.027069,I- 70
1537,40.011753,-80.744297,Belmont St
246,40.021679,-81.071521,Union St/2nd St
631,40.098672,-80.717603,N 2nd St
390,40.101905,-80.718463,N 5th St/
684,39.973523,-80.747706,W 38th St/Leona Ave
472,40.098782,-80.722121,Short St/N 5th St
216,40.084426,-80.901977,N Market St/Wallace St
185,40.013277,-80.762997,4th Ave/Bryce St
305,40.066579,-80.860144,Jennifer Ln/
185,39.988029,-81.150380,/Roosevelt Rd
216,39.855084,-80.819677,Ohio River Hwy
160,40.032686,-80.735853,/Guernsey St
160,39.979385,-81.174309,Slabtown Rd/Morris Ln
499,39.967314,-80.756295,W 48th St/Central Ave
552,39.986784,-81.172477,E Main St/Barnesville Bethesda Rd/Henderson St
185,40.020752,-80.827362,Sand Hill Rd
445,40.094209,-80.733421,/Elm St
334,39.864974,-80.805315,Jean Ln/High St
334,39.986231,-81.179249,S Broadway St/Harrison St
185,39.973911,-80.741810,E 36th St/State Rte 7
185,40.045449,-80.759134,I- 470
185,39.966111,-80.762138,/W 51st St
246,39.861105,-80.802119,/Mellott St
216,40.118686,-80.711879,Glenhurst Ter
246,39.865979,-80.795931,Neff St/Division Ave
305,40.074409,-80.899947,S Marietta St/High St
216,39.991500,-81.158314,Railroad St/Bethesda St
305,40.099235,-80.731104,Colerain Pike
526,40.066445,-80.772414,2nd Ave/Dubois St
276,40.086626,-80.743811,Parkway St/Central Ave
185,40.070712,-80.767408,Stop 15 Rd
305,39.993303,-81.189283,Hospital Dr
160,40.019593,-80.791066,/Bellaire Neffs Rd
552,39.861656,-80.802979,Mellott St
185,40.149202,-81.065055,Pearl St
216,40.006636,-81.129763,/Oak Ln
185,39.968699,-80.760042,W 48th St
216,40.064939,-80.947199,Alamar Cir/E Almar Ln
160,40.025176,-81.039383,Sycomore St/2nd St
246,40.064753,-80.769372,/I- 70
216,40.011112,-80.751139,W 26th St
305,40.027804,-80.815379,Locust Aly
160,40.091433,-80.746255,Dutch Hill Rd/Twp Hwy 461/Old County Rd
160,40.056983,-80.906337,Reservoir Rd
160,40.015832,-81.075103,Willow St/Lake St/Willow Ave
736,40.012235,-80.760769,Poplar St/3rd Ave/Union Aly
246,40.026775,-80.819235,School St
160,40.066609,-80.739526,Jefferson St
305,40.075223,-80.935387,W Main St/Brokaw Dr
185,40.018463,-81.073922,/N Main St
276,40.139171,-80.825468,N Colerain St/Wildwood Dr
246,40.072036,-80.760051,Poplar St/Walnut Ave
362,40.115734,-80.709406,N 1st St
1046,40.095083,-80.729846,Delaware St
160,40.102740,-80.721234,N 8th St/Liberty St
246,40.075994,-80.900845,Ruggles Ave/S Marietta St
276,39.978384,-80.742330,State Rte 7 Scn/Central Ave
246,39.995101,-80.742974,12th St/Belmont St
160,39.931711,-81.210194,/Wright Rd
334,40.069850,-80.778102,/Belmont Ave/Commercial Dr
305,40.036767,-80.735906,State Rte 7
605,39.867828,-80.797352,Crescent St/Main St/Railroad Ave
246,40.026562,-80.746383,Three Hills Dr
246,40.027024,-80.744995,del Guzzo Dr/Bellview Dr
160,40.126449,-80.877338,Pike St/Church St
499,39.990436,-81.175051,Cherry St
160,39.994607,-81.146677,Barnesville Bethesda Rd
160,40.025710,-81.051474,Bethesda Belmont Rd
160,39.881246,-80.848497,/E Captina Hwy
445,40.071409,-80.740498,S Lincoln Ave/I- 70
736,39.971127,-80.755399,Jefferson Ave/W 43rd St
185,40.024684,-81.036415,Green St/Lynn St
160,40.119573,-80.802071,Silouette Dr
160,40.076826,-80.759916,Patterson Rd
472,40.023792,-80.742353,/42nd St
185,40.077646,-80.890924,Cherry Aly
305,40.076522,-80.962945,/I- 70
246,40.064828,-80.839446,/Holiday Dr
185,40.124790,-80.877979,Morgan Hill Rd/Co Rd 10
362,39.869285,-80.797755,/E Cove Dr
246,40.144078,-81.031659,/Dutton Dr
526,40.013900,-80.759034,Mound Ave/Birch St
305,40.069111,-80.899363,Thompson Dr
334,39.985470,-81.175081,S Lincoln Ave
216,39.986789,-81.168281,/Bell St
185,39.917353,-80.766201,Ferry Landing Rd/
276,40.015860,-80.745654,Quarry St/33rd St
216,40.145485,-81.053145,Heather Ln
216,40.015055,-81.070061,/Summit St
