Estimated daily crossings,Latitude,Longitude,Name
185,38.857193,-83.860884,E State St
160,39.036170,-83.961799,Young Dr/W Main St
160,38.659562,-83.763933,Millstone Cir
160,38.832005,-83.894739,Graybill Rd/Old State Rte 68/S Main St/Evans Run Rd
160,38.894601,-84.022781,Feesburg-Poetown Rd
160,38.877037,-83.934298,/Eden Rd
160,39.013266,-83.703640,Stivers Rd
246,38.888909,-83.889034,Hamer Rd
216,38.660769,-83.770800,Elm St
185,39.186670,-83.961856,Ruhr Dr/Oder Dr
160,39.033018,-84.008247,/Todds Run New Harmony Rd
160,38.850364,-83.907330,Williams Dr
185,38.790571,-83.964831,Brown St/Plum Aly
185,39.005398,-83.817495,/Tri County Hwy
185,38.790070,-83.967638,/Jackson St/Columbia St
185,38.931742,-83.900924,Delhi-Arnheim Rd/S High St
160,38.892159,-83.883608,Straight Dr
185,39.007790,-83.806716,Winchester St/Charity Ln
160,38.870978,-83.976024,/Eden Rd
160,38.817383,-83.701806,Decatur Cemetery Rd
334,38.673135,-83.772931,/US Hwy 52
185,38.947442,-83.679628,Appalachian Hwy
160,38.753635,-83.828324,Klinker Rd/Ripley Rd
160,38.937812,-83.823625,/Purdy Rd
445,38.690401,-83.778667,/Old US Hwy 52
185,38.880864,-83.860246,/Camp Run Rd
160,38.923149,-83.951589,/Lucas Rd
160,38.917185,-83.981915,Mill St/W Main St
185,38.935791,-83.780607,Wagon Wheel Dr
160,38.891511,-83.767047,US Hwy 62
334,38.731650,-83.834205,Shawn Dr
216,38.667264,-83.765007,Bramel Dr
246,38.855072,-83.855422,/US Hwy 68/E State St
160,39.059463,-83.871992,Lindsey Rd
160,38.644846,-83.705110,US Hwy 52
185,39.056212,-83.869758,Bardwell Buford Rd
216,38.653289,-83.755789,Mountain St
185,39.050006,-83.974587,Hess Rd
160,38.913309,-83.853800,W Fork Rd/Wells-Goecke Rd
390,38.661477,-83.767856,US Hwy 52/Budig Dr
185,39.020123,-83.883141,T-582
185,38.652277,-83.753229,Mountain St
1537,39.039208,-83.920100,/Sterling Run Blvd/N High St
736,39.183041,-83.931350,Russell St
160,38.670876,-83.744060,/State Rte 41
246,38.860811,-83.874679,S High St
499,39.030518,-83.941844,/Boyd Rd
185,38.681052,-83.719727,Ellis Run Rd
160,39.027218,-83.946980,/Longwood Blvd
305,38.728975,-83.835847,Pearl St
160,38.863703,-83.787116,S Columbus St
160,39.011214,-83.801561,/Pleasantfield Dr
246,39.016208,-83.918058,Liming Farm Rd
160,39.174140,-83.999779,State Rte 131
185,39.183853,-83.942238,/US Hwy 50
499,38.656368,-83.767064,Cluxton Dr
160,39.022099,-83.923453,N High Meadow Dr/S High St
305,38.861632,-83.897727,/Home St
246,38.934707,-84.011992,Sodom Rd
160,39.036236,-83.962967,W Main St
160,39.202746,-83.963305,Brahms Cove/Lorelei Dr
216,38.751689,-83.849249,N 2nd St
160,39.016529,-83.864071,/Tri County Hwy
160,38.880903,-83.854406,Camp Run Rd
305,38.734567,-83.836433,Catherine St/Governor St
334,38.788964,-83.969097,Washington St/Johnson St/John St
216,39.024255,-83.873633,Appalachian Hwy
160,38.929722,-83.775594,Deer Cross Dr/Mustang Dr
216,38.860938,-83.882393,E State St
305,38.865269,-83.909889,W Grant Ave/W State St
160,39.185653,-83.938740,US Hwy 50/Fayetteville Blanchester Rd
160,39.025517,-83.908864,E Main St/Moler Circle Dr
246,39.007688,-83.809855,Founders Ln/Maple Ave
160,39.169170,-83.994098,Woodland S
216,38.660938,-83.770459,Rim Rd/Elm St
185,38.734071,-83.834599,Hanover St/Meadow Lane Dr
160,39.151904,-83.995451,McCafferty Rd/US Hwy 50
160,38.724355,-83.828725,Stephenson Rd
160,38.945664,-83.849078,Steinman Rd
160,39.054266,-83.991278,Greenbush Cobb Rd
185,38.893077,-83.877016,W Fork Rd/McGohan Rd
246,39.010170,-83.924790,S High St
185,38.965667,-83.914388,S High St
305,38.964686,-83.729266,Oak St
185,38.933594,-83.759534,Oklahoma Dr/Sitting Bull Dr
246,38.865833,-83.910757,/W State St
552,38.866765,-83.785916,Collins Aly/E Main St
160,38.910539,-83.902875,/S High St
445,38.881639,-83.899991,Mount Orab Pike/Station Dr
276,39.183849,-83.934420,Lynch St/Old US Hwy 68
216,38.652463,-83.756235,High St
160,39.004831,-83.801635,Workman Rd/Tri County Hwy
390,38.867005,-83.790108,N Kendle St/W Main St/S Kendle St
216,38.733784,-83.835392,Hanover St/Hamburg St
276,38.866613,-83.782987,E Main St
418,39.029642,-83.919276,Front St/N High St
160,38.947582,-83.873285,/Hamer Rd
362,39.013127,-83.924544,S High St
185,38.972823,-83.913439,Dairy Ln/S High St
216,38.723786,-83.829531,/S 2nd St
160,38.931925,-84.001848,State Rte 125
185,38.873458,-83.790219,N Kendle St/Russelville-Arnheim Rd
185,38.860617,-83.891693,Race St
246,38.656932,-83.763916,Gourdes Pt
276,38.666404,-83.766159,Nutmeg St/Bramel Dr
276,39.004077,-83.923470,S High St
185,38.849125,-83.965012,/Oak Grove Rd
185,39.185599,-83.972766,Lorelei Dr/Kleist Dr
552,39.040978,-83.920630,/N High St
246,38.656428,-83.763665,US Hwy 52/Lower Aly
160,38.961495,-83.730335,US Hwy 62
246,39.022880,-83.921566,Grant Ave/College Ave
216,38.859504,-83.897887,/Home St
160,39.050688,-83.917813,/Hillcrest Rd
160,39.065871,-83.990654,/Bardwell West Rd
305,38.746787,-83.841841,5th St/Main St
246,39.003309,-83.797132,Mae St/Mac St
185,39.014504,-83.807395,Pershing Rd
445,39.041728,-83.920903,Appalachian Hwy/N High St
334,38.660769,-83.769478,Wood Dr
216,38.844796,-83.787220,US Hwy 62/
185,38.786133,-83.803201,Gardner Rd/State Farm Rd
160,38.788060,-83.967649,Jackson St
160,39.017117,-83.921723,Hammerstone Way/Liming Farm Rd
160,39.230299,-83.909298,US Rte 68
160,39.178176,-83.962736,Bavaria/Oder Dr
160,38.844994,-83.921027,State Rte 221
246,38.860791,-83.892317,Markley Ave/Sycamore Dr
160,39.229450,-83.905405,/State Rte 123
185,38.941914,-83.735947,US Hwy 62/Laney Rd
160,39.174582,-83.977457,Lorelei Dr
160,38.910901,-83.806998,T-186
160,39.065921,-84.002612,Sweet Gum Ct
160,38.786121,-83.935195,/US Hwy 52
160,38.952296,-83.738553,US Hwy 62
216,38.672315,-83.768461,Huntington Pkwy/Circle Rd
276,38.747089,-83.845576,Market St/Church Aly
334,39.016133,-83.808222,State Rte 134
160,39.069336,-83.980235,/Eastwood Rd
160,39.175050,-83.918750,/Campbell Rd
334,39.031670,-83.939162,/W Main St
185,38.881496,-83.781908,US Hwy 62
185,39.006992,-83.808805,/S Main St
185,38.748972,-83.844807,N 4th St/Mulberry St
160,38.857330,-83.894100,Banting Dr/Harmony Ln
216,39.044674,-83.933543,Appalachian Hwy
276,38.753335,-83.825648,US Hwy 62/N Pole Rd
160,39.091190,-84.004246,Crosstown Rd
445,38.864552,-83.903648,E State St/S Apple St
185,39.205366,-83.969657,Lorelei Dr
160,38.950631,-83.811477,Weber-Kelch Rd
246,39.007932,-83.804459,/Sardinia-Mowrystown Rd
246,39.029220,-83.942111,Boulder Dr
276,38.673714,-83.773042,US Hwy 52/Stivers Ave/Stivers Rd
185,38.865833,-83.901736,E Grant Ave/N Water St
216,38.744038,-83.838363,US Hwy 62
276,38.876813,-83.901042,Mount Orab Pike/Char-del Dr
305,39.028840,-83.923038,Mount Clifton Dr
160,38.922692,-83.990601,/State Rte 125/W Main St
276,38.866949,-83.789000,W Main St
160,39.068212,-84.000922,/Bardwell West Rd
160,38.911166,-83.858203,W Fork Rd/Baker Hanselman Rd
216,38.660433,-83.764056,/Millstone Cir/Millston Rd
160,39.047571,-83.971997,/Lindsey Rd
246,39.061369,-84.014845,Appalachian Hwy
160,39.068686,-83.980364,/Eastwood Rd
334,39.027354,-83.918030,Mill St/E Main St
185,38.999951,-83.711671,US Rte 62
216,39.020441,-83.938553,Kyle Ln/Kelly Ln
334,38.872994,-83.788499,W Liberty/Esta St/N Esta St
185,38.969483,-83.914040,/S High St
418,39.031647,-83.931865,Western Ave
160,38.850526,-83.794005,/Clifton Ave
305,39.025495,-83.916268,Water St
185,39.052248,-83.963092,Bodman Rd
276,38.859320,-83.873536,Hillman Ridge Rd//No 7 Schoolhouse Rd
390,38.906817,-83.760182,US Hwy 62
160,38.771475,-83.804286,Chicken Hollow Rd
526,38.737726,-83.840535,/S 2nd St
216,38.867194,-83.793348,/State Rte 125
216,38.914885,-83.752913,/US Hwy 62
160,39.064108,-83.907544,/Hillcrest Rd
160,38.885535,-83.899146,Mount Orab Pike/Hamer Rd
185,38.935749,-83.780724,Wagon Wheel Dr/Wagon Wheel Cir
160,38.905923,-84.031884,State Rte 774/
160,38.999426,-83.736712,/Katterman Rd
305,39.023862,-83.872133,Appalachian Hwy
160,39.230513,-83.909149,US Rte 68
160,38.818084,-83.716982,State Rte 763
216,39.010717,-83.830905,Tri County Hwy
185,39.028845,-83.946256,Heritage Blvd/Pine Ridge Ave
160,38.878876,-83.999392,Main St/West Aly
185,39.189054,-83.949651,Fayetteville Blanchester Rd
160,38.835418,-83.787849,/US Hwy 62
160,39.182956,-83.972731,Lorelei Dr/Munster Dr
246,38.965591,-83.727925,US Hwy 62/
185,38.745992,-83.844134,N 3rd St/S 3rd St/Main St
160,39.213262,-83.867907,/Brown County Inn Rd
216,38.887773,-83.892454,/Hamer Rd
305,39.056016,-83.982802,Appalachian Hwy
160,38.994770,-83.933936,/Lake Grant Rd
472,38.669216,-83.767265,Ridgeway Rd/Litton Dr
185,39.020184,-83.883505,/T-582
445,39.029451,-83.919301,N High St
334,38.912357,-83.975126,E Main St
276,38.727222,-83.832903,S 2nd St
216,38.970013,-83.840216,Brownstown Arnheim Rd/Catalpa Corner Rd
362,38.674704,-83.770856,Vista Cir
246,39.019708,-83.850571,/Bean Rd
160,38.927474,-83.778852,Horse Shoe Dr
185,39.006158,-83.802621,Oakdale Ave/Castle Ave
216,39.185378,-83.931481,Gum Aly
185,38.868002,-83.909417,/W Plum St/Grandin Dr
185,38.999180,-83.739106,Busch Rd
305,39.185591,-83.933145,Lake St/Oak Aly
276,38.917014,-83.985155,Wooster Ave/Sisterville Rd
472,38.872722,-83.903595,/N Main St
160,38.911440,-83.943760,Gillette Station Rd
246,38.739546,-83.839566,Catherine St/William St
160,38.787994,-83.969122,Johnson St
246,38.748030,-83.847540,Mulberry St/N Easton St
160,38.978821,-83.747665,Appalachian Hwy
276,38.995665,-83.741117,Busch Rd/Five Points Fincastle Rd
246,39.003975,-83.800341,Tri County Hwy
160,39.006567,-84.019803,/Meeker Rd
362,38.731290,-83.838613,/Waterworks Rd
160,39.094071,-84.004612,/Bloomrose Rd
390,39.029501,-83.928646,/W Main St
160,39.081703,-83.952643,Bodman Rd
362,38.964446,-83.728039,Cherry Aly/1st St
160,39.015758,-83.876957,Tri County Hwy
160,39.175490,-83.974267,Lorelei Dr
160,39.152348,-83.994820,US Hwy 50
160,38.999822,-83.917032,Oakland Rd
185,39.075562,-83.925725,US Hwy 68/Greenbush West Rd/
160,39.186681,-83.979988,Essen Dr/Dortmund Dr
160,38.928628,-83.756651,Martin-Alexander Rd
160,38.843400,-83.894661,/S Main St
185,38.962950,-83.914046,/Hauke Rd N/S High St
276,38.865096,-83.909431,/W State St
160,38.841071,-83.894490,S Main St
305,38.859633,-83.873731,/E State St
216,38.874255,-83.902539,Apple St/Missouri St
185,38.966412,-83.838752,Brownstown Arnheim Rd/
684,38.881445,-83.900048,/Mount Orab Pike
334,39.005407,-83.923896,S High St/Lake Grant Access Rd
216,38.748657,-83.845744,N 3rd St/Mulberry St
185,39.009460,-83.938132,Lake Grant Rd
472,38.862876,-83.906464,3rd St/S Green St
216,39.084403,-83.927316,Clements Rd
160,38.929409,-83.780514,Waynoka Dr
160,38.898228,-83.959972,State Rte 125
472,38.661964,-83.767880,/Chestnut St
362,38.859983,-83.892349,Oak Dr/Sycamore Dr
160,39.185439,-83.964275,Schmidt Dr/Lorelei Dr
160,38.961034,-83.730678,US Hwy 62/
185,38.795961,-83.796121,Cemetery Rd
185,38.795710,-83.799080,Bealer Rd
216,38.740138,-83.839907,Catherine St/St Charles St
185,38.892630,-83.897227,S High St
160,39.022479,-83.937883,Carpenter Rd
418,38.653950,-83.757783,US Hwy 52
305,38.973707,-83.740665,Appalachian Hwy/Tri County Hwy
305,39.009912,-83.797501,Brookfield Pl
185,38.924285,-83.992468,State Rte 125
445,39.008042,-83.808603,Winchester St/Broad St/Main St/S Main St
160,38.938316,-83.772839,Indian Dr/Waynoka Dr
445,39.033858,-83.919133,/N High St
160,39.243830,-83.905318,/US Rte 68
160,39.038584,-83.974778,Upper Cumberland Rd/Lindsey Rd/Tri County Hwy
160,39.087051,-83.991521,Crosstown Rd/Pine Valley Dr
276,39.019449,-83.917321,Windfield Ter
185,38.781222,-83.925973,/US Hwy 52
216,39.046776,-83.912927,Bardwell Buford Rd/Crawford-Day Rd
160,39.197241,-83.917802,Anderson State Rd
160,38.788271,-83.966301,Cherry Aly/Main St
160,38.934288,-83.861166,/Delhi-Arnheim Rd
160,38.866946,-83.906941,Andrews Ave/N High St
160,38.926126,-83.878340,/Hamer Rd
160,38.870946,-83.893975,E Ohio St/Camp Run Rd
185,39.020343,-83.930734,/Carpenter Rd
160,39.066419,-83.905685,Hillcrest Rd
334,39.187207,-83.931785,Gum Aly/Vine Aly
216,39.022214,-84.007821,/Maple Grove Rd
185,39.014690,-83.856228,/Tri County Hwy
160,38.992257,-83.713755,Apple Alley Rd/E Fincastle St
216,39.180792,-83.947145,/US Hwy 50
160,38.970924,-83.731452,Tri County Hwy
160,39.213206,-83.866989,/Brown County Inn Rd
160,38.783129,-83.929553,US Hwy 52/Old A & P Hwy
390,38.866989,-83.789801,W Main St
185,39.032063,-83.933576,Western Ave
160,38.877798,-83.998169,North St/Eden Rd/Locust St
472,38.885798,-83.886082,/Airport Rd
160,39.013481,-83.808240,/Bachman Rd
160,39.033224,-83.947522,W Main St
160,39.094920,-83.943777,Snider-Malott Rd
160,39.077502,-83.926695,US Hwy 68
160,38.913336,-83.899992,/Wahlsburg East Rd
216,39.011258,-83.831131,/Corboy Rd
185,38.681264,-83.720043,Dry Run Rd/Ellis Run Rd
160,38.961609,-83.715731,Ball Rd
185,38.863617,-83.903768,S Apple St/E 2nd St
216,38.647716,-83.718810,US Hwy 52
305,38.973823,-83.740387,/Tri County Hwy
813,38.861857,-83.887398,E State St
160,38.987610,-83.716508,US Hwy 62
788,39.027722,-83.919768,E Main St/S High St/W Main St/N High St
160,38.800421,-83.916104,Cahall School House Rd
160,38.789549,-83.716029,State Rte 763/Huff Hill Rd
185,39.015270,-83.972696,New Harmony Shiloh Rd
185,39.180196,-83.948119,/US Hwy 50
185,38.881585,-83.856406,/Camp Run Rd
185,39.162953,-83.932509,US Hwy 68/
160,38.859825,-83.961233,Beech Grove Rd
276,38.861133,-83.883432,E State St
160,38.670267,-83.768568,Bradford Ln/Ridgeway Rd
185,39.013584,-84.012505,New Harmony Shiloh Rd/Main St/Todds Run New Harmony Rd
160,38.912177,-83.883194,Wahlsburg East Rd/Hamer Rd
362,38.869223,-83.903999,/N Main St
160,38.999844,-83.916961,Oakland Rd
185,38.802436,-83.795149,US Hwy 68
185,38.931239,-83.900957,S High St
216,39.020590,-83.854450,Bean Rd
246,38.662653,-83.766203,Budig Dr/Power Ave
185,38.728759,-83.832225,Kevin Dr/Flora Ave
185,38.950081,-83.738034,US Hwy 62/Tibbe Rd
185,38.979561,-84.006332,/Starling Rd
246,38.735026,-83.835191,Meadow Lane Dr/Governor St
185,39.009264,-83.799079,Brookfield Pl
216,39.181267,-83.932766,Apple St/US Hwy 68/Old US Hwy 68
246,38.872244,-83.789850,Willow St/N Kendle St
160,39.032011,-83.917077,Apple Ave/Woodward St
276,39.068262,-83.895938,Crawford-Day Rd
185,39.028084,-83.942737,Heritage Blvd/Boyd Rd
160,39.008384,-83.811176,School Ln/College Ave
390,38.728135,-83.833830,/S 2nd St
246,39.059205,-83.960412,Bodman Rd
160,38.946472,-83.788922,Zuni Dr/Yuma Dr
160,38.937687,-83.788898,Waynoka Dr/Hatchet Cove
185,38.867810,-83.906857,W Plum St/N High St
185,39.191200,-83.897165,US Hwy 50/Murray Corner Rd/State Rte 251
185,39.053152,-83.924036,US Hwy 68/Donley Rd
185,38.884944,-83.898971,Mount Orab Pike
160,38.887677,-83.873746,/McGohan Rd
185,39.176108,-83.955066,US Hwy 50
160,38.940065,-84.012493,/Yankeetown Rd
160,38.919062,-83.745578,Wright Rd
185,39.005956,-83.802886,Castle Ave
276,38.866573,-83.782284,E Main St
160,38.849100,-83.902958,/Lakeview Acres Dr
160,39.020202,-83.930134,Carpenter Rd/Grantview Dr
160,38.985432,-83.787445,Kieswetter Rd/Fite-Hauck Rd
276,38.860092,-83.873099,/E State St/S High St
160,38.916919,-83.751280,US Hwy 62/Twp Hwy 208/Wright Rd
579,38.861549,-83.905737,S Pleasant St/S Alley St
216,38.855051,-83.894272,Harmony Ln
246,39.029146,-83.947617,Pine Ridge Ave/Pine Ridge
160,39.059478,-83.871760,Lindsey Rd
390,38.655617,-83.760288,Valley St
246,38.872232,-83.889866,Camp Run Rd
185,39.013394,-83.706132,US Rte 62/Stivers Rd
305,39.020088,-83.862915,Appalachian Hwy/Sicily Rd
160,38.941870,-84.024764,Blackshire Rd/State Rte 125
160,38.937119,-83.738053,US Hwy 62/
160,39.033028,-83.963750,Young Dr
185,39.052490,-83.923843,US Hwy 68/
160,39.049463,-83.910880,/Crawford-Day Rd
160,38.827279,-83.838430,Gooselick Rd
216,39.190296,-83.933193,Apple St/Isaac St
362,38.665972,-83.765587,Budgig Dr
185,39.177811,-83.986552,Black Oak Rd
216,38.864488,-83.902767,S Water St/E State St
334,38.726918,-83.832595,S 2nd St
160,38.881678,-83.777477,/US Hwy 62/Rischforth Rd
160,38.834453,-83.970160,Oak Grove Rd
185,38.658060,-83.765292,/US Hwy 52
276,39.003399,-83.799250,Tri County Hwy
362,39.186720,-83.931703,Gum Aly/E Pike St
160,39.095013,-83.930457,/US Hwy 68
160,39.166610,-83.972876,US Hwy 50
160,38.948472,-83.846967,/Steinman Rd
246,38.875374,-83.903318,Iowa St/Virginia Dr
276,39.044500,-83.930023,Hughes Blvd
185,38.844320,-83.737312,State Rte 125
362,39.037430,-83.913476,Kelly Ln/Robin Ave
160,39.179052,-83.932571,US Hwy 68
160,38.856330,-83.854288,E State St
160,38.996187,-83.712994,US Rte 62/
216,38.740385,-83.843066,Victoria St
216,38.990833,-83.919343,/S High St
160,39.109634,-83.955728,/Malady Rd
185,38.879390,-83.889688,Veterans Blvd
160,38.995775,-84.000062,Kress Rd
185,39.067211,-84.002207,T-174
185,38.869022,-83.902508,Lincoln Ave
185,38.952248,-83.760451,Ittawamba Cove/Ittawamba Dr
160,38.943503,-83.761650,Texas Dr/Waynoka Dr
472,38.863863,-83.907204,Alley St/W 2nd St
160,38.911222,-83.943785,Gillette Station Rd
526,39.037010,-83.912284,S Michele Dr/Robin Ave
160,38.878929,-83.932676,/Winfield Dr
160,39.023985,-83.911348,Crescent St/Crescent Dr
160,38.935316,-83.951819,Eastside Rd
216,38.707690,-83.806215,US Hwy 52
185,39.018931,-83.919031,Windfield Ter/Beacon Hill Dr
276,38.783923,-83.857540,Old State Rte 68
185,38.923780,-84.006120,Leonard Rd
334,39.011335,-83.924708,Tammera Ln/S High St
334,38.726306,-83.831974,/S 2nd St
160,39.003630,-83.923317,S High St
216,38.852775,-83.897652,S Main St
160,38.785478,-83.804572,Kessel Rd
246,38.875740,-83.931018,State Rte 125
216,38.790012,-83.964850,Brown St/Columbia St
305,38.732972,-83.834906,Hamburg St/Congress St
160,38.891534,-83.884902,/Hamer Rd
552,39.019435,-83.859374,Appalachian Hwy
160,38.909649,-83.857636,Baker Hanselman Rd
390,38.668077,-83.771304,Ernies Ln
185,38.901914,-83.883985,Hamer Rd
160,39.001191,-83.758460,Katterman Rd/
185,38.897853,-83.959513,State Rte 125
185,38.860749,-83.905064,S Pleasant St
160,38.657138,-83.761391,Black Gum Cir
216,39.018085,-83.820559,Matthews Rd/Appalachian Hwy
185,38.877209,-83.930874,Richards Rd
160,38.989032,-83.715941,US Hwy 62
216,39.174074,-83.958543,/US Hwy 50
185,38.958409,-83.914337,Hauke Rd S
216,39.023115,-83.920310,Smith Ave/1st St
160,38.989829,-83.715624,US Hwy 62
390,38.667972,-83.771907,/US Hwy 52/Bradford Ln
160,38.941339,-83.793604,Hopi Dr/Waynoka Dr
276,38.752563,-83.825606,US Hwy 62
160,39.058680,-84.015217,Greenbush Cobb Rd
276,39.032651,-83.944493,Heritage Blvd/W Main St
246,38.915884,-83.850235,/Wells-Goecke Rd
216,38.949493,-83.684444,Appalachian Hwy
216,38.895194,-83.901432,Mount Orab Pike
246,38.864408,-83.912162,/White Oak Ave/W State St
185,39.001532,-83.778731,Appalachian Hwy
305,38.729136,-83.837303,Virginia St/Elizabeth St
160,38.755946,-83.800970,/Kinkead Rd
185,39.049054,-83.984552,Eastwood Rd
160,39.085833,-83.987740,Crosstown Rd/
160,38.889749,-83.880035,Fairway Dr/Lakewood Ln
216,39.187743,-83.923722,E Pike St
185,39.038168,-83.972623,Tri County Hwy
160,39.019882,-83.751042,5 Points Mowrystown Rd
160,39.171758,-83.963917,/State Rte 131
362,38.730787,-83.837523,/Lawrence St
160,39.188046,-83.960772,/Vera Cruz Rd
305,39.009828,-83.797710,Brookfield Pl
160,38.893351,-83.897877,S High St
160,39.002797,-83.827078,/Stephans Rd
185,38.944435,-83.782134,Black Hawk Dr/Waynoka Dr
160,38.991538,-83.776835,Tri County Hwy
390,39.025686,-83.920674,S High St
216,38.941843,-83.777608,/Waynoka Dr
160,38.839378,-83.894841,S Main St
185,39.005771,-83.802844,Tri County Hwy
216,38.930927,-83.794573,Beaver Cove
160,38.951978,-83.772401,Rio Brazos Dr/Yuma Dr
334,39.031021,-83.919233,N High St/Elm St
185,39.009716,-83.938321,Lake Grant Rd
334,38.855595,-83.898607,/S Main St
276,38.875922,-83.881579,Camp Run Rd
216,39.059960,-83.999955,Appalachian Hwy
185,38.994022,-83.920334,S High St
160,38.882474,-83.873237,McGohan Rd
788,38.861659,-83.886402,E State St
276,38.864045,-83.913788,Liming St/W Grant Ave/W State St
160,38.884539,-83.942796,/State Rte 125
185,38.918439,-83.988296,Bank St/Wooster Ave
276,39.019543,-83.849771,Appalachian Hwy
276,39.019549,-83.825933,Appalachian Hwy
160,38.929731,-83.778685,Horse Shoe Dr/Horse Shoe Cove/Waynoka Dr
160,38.868246,-83.785961,Highland St
334,38.673788,-83.772443,Stivers Ave/Justin Way
246,38.737058,-83.837984,Catherine St/Debrosses St
160,39.046453,-83.922189,N High St
334,38.793186,-83.958116,/State Rte 221
160,39.032749,-84.015165,Todds Run Foster Rd
160,38.981349,-83.751108,Appalachian Hwy/Freeh Rd
160,38.945101,-83.788925,Yuma Dr/Mule Dr
185,39.086005,-83.951228,/Bodman Rd
160,38.867629,-83.801450,/State Rte 125
185,38.675507,-83.766546,Big Three Mile Creek Rd
276,38.663119,-83.766260,Chestnut St
160,39.000795,-83.842661,Stephans Rd
246,39.012973,-83.997883,New Harmony Shiloh Rd
160,39.079183,-83.986037,Victory Ln
160,38.867737,-83.898600,E North St
185,38.657713,-83.765040,Cluxton Dr/US Hwy 52
160,38.915450,-83.811537,Yockey Rd
160,38.985748,-83.827933,/Hamer Rd
276,39.024232,-83.904587,Candlelight Way
276,38.876237,-83.874013,McGohan Rd/Camp Run Rd
185,39.005416,-83.806282,Elm Ave/Charles St
216,38.985931,-83.717252,/US Hwy 62
160,39.013187,-83.796106,T-604
185,39.194261,-83.968245,Stuttgart Dr/Lorelei Dr
305,38.862709,-83.903873,3rd St/S Apple St
160,39.206555,-83.983229,/Glady Rd
216,38.737613,-83.837035,/Debrosses St
216,39.030031,-83.917193,Cross St/Woodward St
160,38.859626,-83.786917,US Hwy 62
160,38.963516,-83.837490,Brownstown Arnheim Rd/Steinman Rd
334,38.862912,-83.907312,3rd St/Alley St
160,38.867912,-83.790037,North St/N Kendle St
160,39.218104,-83.973978,Woodville Rd
160,38.914463,-83.916801,Whiteoak Valley Rd
216,38.962162,-83.728538,Emmons
216,38.852545,-83.852130,Ellis Farm Rd
185,39.025844,-83.934571,Holiday Dr
445,38.738288,-83.840864,S 2nd St/Finney Aly
185,38.727303,-83.701968,C-244
216,38.722435,-83.828227,US Hwy 52
276,38.917252,-83.984772,Sisterville Rd
362,38.865718,-83.908409,W Grant Ave/W Cherry St
472,38.675088,-83.772640,Justin Way
276,38.864247,-83.906302,/S Green St
160,38.856864,-83.860721,T-590
216,39.030769,-83.917165,Woodward St/Elm St
216,38.666791,-83.765621,Oak St/Bramel Dr
216,39.012578,-83.796918,Appalachian Hwy
216,38.880655,-83.783289,US Hwy 62
160,38.832237,-83.724516,/State Rte 125
160,38.919561,-83.981485,Lucas Rd
185,38.711729,-83.821582,US Hwy 52
185,39.048234,-83.984731,/Eastwood Rd
246,39.025227,-83.913495,Home St
334,38.864763,-83.787177,/S Columbus St
246,38.907433,-83.930462,Sunshine Rd
160,39.050026,-83.974981,Hess Rd/
160,38.960311,-83.840080,Steinman Rd
185,38.867260,-83.908565,Billdee Rd
160,38.672280,-83.749995,State Rte 41/Slickaway Rd
216,38.815738,-83.889267,Old State Rte 68
185,39.001578,-83.795738,Tri County Hwy
276,39.029372,-83.938651,Nathan's Ln
160,38.659766,-83.763959,Millstone Cir
276,39.110939,-83.932579,/US Hwy 68
185,38.779370,-83.812509,Ripley Rd
276,39.043925,-83.930367,/Appalachian Hwy
185,39.021188,-83.938190,Kelly Ln
246,39.021325,-83.918117,Grant Ave
160,39.220892,-83.873339,Taylor Rd
943,38.745348,-83.845871,Main St/N Easton St
579,38.864840,-83.907632,W State St
160,39.037282,-83.968095,/Tri County Hwy
160,39.008584,-83.812892,College Ave
526,38.865342,-83.904416,E Cherry St/S Main St/W Cherry St
305,38.854543,-83.897858,S Main St
305,38.876048,-83.785536,US Hwy 62
160,39.091735,-84.005929,Crosstown Rd/Bloomrose Rd
246,38.879870,-83.873726,/McGohan Rd
185,39.019562,-83.926961,/Carpenter Rd
160,39.011930,-83.806707,Yankee St
390,38.866840,-83.905146,N Pleasant St/Andrews Ave
160,39.033867,-83.973056,Old State Rd
185,39.037117,-83.878069,/Klein Rd
362,39.002568,-83.797649,Mae St/Tri County Hwy
185,39.029736,-83.911457,Front St
160,38.855905,-83.854307,Day Hill Rd
246,39.026268,-83.908383,Moler Circle Dr
160,39.015182,-83.974280,/New Harmony Shiloh Rd
160,38.843141,-83.890867,Car Berl Dr
160,38.955149,-83.911768,Kimball Ford Rd/S High St
216,38.867828,-83.899913,Vine St/E North St
472,38.875054,-83.901598,/Mount Orab Pike
276,38.865496,-83.907007,/W Cherry St/High St
185,38.853976,-83.893085,Douglas Ln/Douglas Cir
160,38.721997,-83.721612,State Rte 763/Bradysville Rd
185,39.017793,-83.819279,Appalachian Hwy
185,39.014467,-83.855537,Tri County Hwy
160,38.862658,-83.902980,3rd St/S Water St
305,39.025358,-83.915632,Water St
762,39.043265,-83.919222,Leininger St
185,39.025810,-83.917744,/Keethler St/Water St
160,39.020207,-83.750922,/5 Points Mowrystown Rd
216,39.162429,-83.932461,US Hwy 68
246,39.016208,-83.918073,Beacon Hill Rd/Liming Farm Rd
160,38.825848,-83.707596,Hughes Rd
160,38.723172,-83.828119,Stephenson Rd
305,39.034099,-83.919162,/N High St
276,39.019516,-83.926572,/Carpenter Rd
160,39.206633,-83.984256,/Glady Rd
216,38.943014,-83.767389,White Dove Dr/Waynoka Dr
216,39.006247,-83.803519,Tri County Hwy
605,38.656044,-83.761369,Valley St/Market St
160,39.088801,-84.009346,Zimmerer Rd
185,38.918185,-83.983412,Lucas Rd/W Main St/Sisterville Rd
160,39.019365,-83.818236,Kay Rd
276,39.055922,-83.982397,Appalachian Hwy
185,38.649580,-83.740178,/US Hwy 52
216,39.183183,-83.943318,US Hwy 50
246,39.026767,-83.917447,Keethler St/Hickory Aly
185,39.008467,-83.811759,Railroad St/College Ave
160,38.933627,-83.760268,Sitting Bull Dr
160,39.094777,-83.943182,Snider-Malott Rd
216,39.015871,-83.924319,S High St
160,38.857328,-83.756993,State Rte 125/Black Rd
865,38.745107,-83.846591,N Front St/Main St/Front St
185,38.858347,-83.868530,Hillman Ridge Rd/
160,38.888595,-83.947916,State Rte 125
160,39.020180,-83.939540,Kyle Ln
418,38.665634,-83.766087,Badig/Budgig Dr
390,38.861499,-83.904818,/S Main St/S Alley St
160,39.033170,-83.947235,/W Main St
160,38.959581,-83.915276,Hauke Rd N/Rose Rd
499,38.683143,-83.774987,US Hwy 52/Flaugher Hill Rd
216,38.844572,-83.787227,US Hwy 62/
276,38.870107,-83.901295,Hamer St/N Water St
276,38.720230,-83.826509,Gordon Rd
305,38.746662,-83.842198,Main St
499,39.003898,-83.782558,/Yochum Rd
305,39.023808,-83.872018,Appalachian Hwy
160,38.947346,-83.760390,Ittawamba Dr/Lightfoot Dr
160,38.999043,-83.790987,Tri County Hwy
160,38.866610,-83.847827,Day Hill Arnheim Rd
185,39.004635,-83.935810,Lake Grant Rd
390,39.027016,-83.943717,Longwood Blvd
216,39.019844,-83.933926,Kyle Ln/C-142B
246,39.187649,-83.924365,N Fayette Ave/E Pike St
160,38.991138,-83.825642,Hamer Rd
216,38.656917,-83.764361,US Hwy 52
160,38.789407,-83.963472,/White Oak St
160,39.050844,-83.871909,/Bardwell Buford Rd
216,38.860843,-83.904217,S Main St/S Apple St
160,38.964248,-83.727483,1st St/Emmons St
160,38.939746,-83.773218,Bow Dr
246,38.864443,-83.902139,E State St
185,39.188421,-83.933629,Oak Aly/W Covalt St
160,38.985784,-83.734951,Heaton Rd
160,38.855498,-84.028458,/Bolender Rd
362,39.044111,-83.919321,Greishop St/Leininger St
185,38.794615,-83.798901,US Hwy 62/Hartman Rd/T-231A
276,39.007249,-83.804892,Winchester St/Fairview Ave/Tri County Hwy
216,39.032215,-83.942191,Bronco Blvd/W Main St
185,38.857179,-83.787093,US Hwy 62
160,39.184945,-83.967135,Grunwald Cove
216,38.703234,-83.791413,US Hwy 52
216,39.028455,-84.009636,Todds Run New Harmony Rd
160,38.858477,-83.786975,US Hwy 62
160,39.081535,-83.994137,Greenbush West Rd
185,38.943366,-83.762305,Waynoka Dr
472,38.683292,-83.774573,Old US Hwy 52/Flaugher Hill Rd
276,38.746920,-83.846059,N 2nd St/Market St
216,39.018997,-83.877204,Klein Rd
276,39.187819,-83.930346,Spice Aly/E Humber St
246,39.188494,-83.924495,N Fayette Ave/E Carlier St
246,39.179269,-83.961652,/Vera Cruz Rd
305,38.874381,-83.904597,/W Missouri St
216,39.113963,-83.932629,US Hwy 68/
276,39.069125,-83.895761,/Greenbush East Rd
216,39.204057,-83.969758,Lorelei Dr/Halle Dr
160,38.892132,-83.952347,/State Rte 125
276,38.732790,-83.835341,Catherine St/Congress St
160,38.977649,-83.914998,S High St
160,38.797677,-83.797151,US Hwy 62/Cemetery Rd
216,38.925001,-83.985208,State Rte 774
185,39.007451,-83.810440,Alley/Maple Ave
605,38.867682,-83.787148,/N Columbus St/Sir William Wallace St
579,38.732781,-83.838296,Hanover St/Knotts Aly
216,38.871155,-83.744058,Russellville-Winchester Rd
185,38.895573,-83.901716,Beyers Rd
246,39.184176,-83.979571,Schlitz Dr/Cologne Dr
246,39.069100,-83.894833,Greenbush East Rd/Moon Rd
185,39.059592,-84.010883,Holman Rd
160,39.122307,-83.933013,US Hwy 68
246,39.068760,-84.003396,Lost Lake Ct/Bardwell West Rd
185,38.753016,-83.851257,N Lower 2nd St
160,39.037162,-83.967509,/Tri County Hwy
216,39.024622,-83.916094,Pleasant St/Sunset St
276,38.963097,-83.728813,Cherry Aly/Jacob St
185,39.020066,-83.883626,/Tri County Hwy
160,38.772707,-83.913243,/US Hwy 52
445,38.690346,-83.779026,/US Hwy 52
246,38.738927,-83.837354,Circle Dr/Debrosses St
334,38.664431,-83.765612,Elm St
160,38.810653,-83.790100,/US Hwy 62
185,39.031350,-83.924506,/Mount Clifton Dr/Oak St
160,38.750722,-83.800967,Howard Ridge Rd/N Pole Rd
552,38.737633,-83.840481,/S 2nd St
185,38.990041,-83.763037,Five Points Fincastle Rd/Appalachian Hwy
762,39.044922,-83.921903,Hughes Blvd
185,39.010737,-83.831012,Corboy Rd/Tri County Hwy
334,39.007609,-83.805303,Winchester St/Sardinia-Mowrystown Rd
185,38.957142,-83.842596,/Steinman Rd
216,38.862979,-83.787074,/S Columbus St
305,38.860245,-83.878760,/E State St
160,38.895367,-83.899670,S High St
160,38.853138,-83.893143,Douglas Ln/Douglas Cir
160,39.056177,-83.924699,/US Hwy 68
216,39.029255,-83.942293,/Boyd Rd
276,39.016175,-83.910122,Forest Trl
160,38.958011,-83.841894,/Steinman Rd
160,38.938110,-83.701360,John Woods Rd/Tamme Rd/Tibbe Rd
160,39.189369,-83.911292,US Hwy 50
185,39.177427,-83.968271,Lorelei Dr/Bach Cove
160,38.997880,-83.924776,State Rte 774/
185,38.756752,-83.853838,Cornick Run Rd
185,38.916520,-83.812921,Yockey Rd
334,39.178226,-83.932472,US Hwy 68
305,38.862024,-83.907426,4th St//Alley St
185,39.010237,-83.938685,/Lake Grant Rd
216,39.176821,-83.953863,/US Hwy 50
160,38.962633,-83.984731,Bethel New Hope Rd
185,38.907287,-83.757810,/Ash Ridge Winchester Rd
160,38.862364,-83.767180,State Rte 125
160,39.090425,-84.001916,/Crosstown Rd
185,38.817995,-83.812353,Jenson Rd
160,38.663731,-83.704155,Fox Rd/Old State Rd
276,38.790101,-83.969033,/Columbia St/John St
160,38.866886,-83.768500,/Russellville-Winchester Rd
305,38.867089,-83.904238,Short St/N Main St
276,38.747311,-83.844942,N 3rd St/Market St
418,39.003461,-83.781938,Yochum Rd
216,38.943547,-83.777443,Senatobia Dr
216,38.851519,-83.897577,S Main St
160,38.945212,-83.776428,Tupelo Dr/Rawhide Dr/Waynoka Dr
216,38.850972,-83.850239,US Hwy 68/Ellis Farm Rd/Corbin Rd
445,39.039687,-83.915756,Day Rd
185,38.851113,-83.902317,del Acres Dr
160,39.003686,-83.796880,Mac St
185,38.994843,-83.920570,S High St
160,38.931056,-83.947149,/Smoky Row Rd
160,39.220361,-83.958114,/Fayetteville Blanchester Rd
216,39.024485,-83.873516,/Appalachian Hwy
185,38.866160,-83.906981,W Grant Ave/N High St
684,39.036184,-83.910599,Courtney Dr/Robin Ave
305,38.861791,-83.903968,4th St/S Apple St
185,39.191855,-83.892099,/US Hwy 50
216,38.962871,-83.728129,Jacob St/Emmons St
160,38.990785,-83.715249,US Hwy 62
472,38.868079,-83.904123,W North St/E North St/N Main St
216,39.109760,-83.955692,Malady Rd
160,38.933214,-83.824383,Ashridge Arnheim Rd/Purdy Rd
216,39.021124,-83.866405,Appalachian Hwy
334,38.964012,-83.728289,Plum Aly
813,39.032142,-84.011869,Todds Run Foster Rd
185,38.934615,-84.010808,/State Rte 125
160,39.205624,-83.959809,Fayetteville Blanchester Rd
579,38.745179,-83.845016,/S 2nd St
160,38.666806,-83.768287,Hickory St
185,38.888023,-83.873964,/McGohan Rd
390,38.865554,-83.907507,W Cherry St
216,38.943359,-83.766668,/Waynoka Dr
160,38.905412,-83.857405,W Fork Rd
185,38.858133,-83.787002,/US Hwy 62
160,38.837536,-83.895365,/S Main St
185,38.860956,-83.905865,Progress Ave/S Pleasant St
160,38.935448,-83.840797,/Delhi Arnheim Rd
305,39.214504,-83.893585,State Rte 251
160,39.186703,-83.939566,Fayetteville Blanchester Rd
185,38.881920,-83.885577,/Airport Rd
362,39.042441,-83.924009,Appalachian Hwy
390,38.873343,-83.902519,/Apple St/Mount Orab Pike
160,39.033530,-83.949071,W Main St
160,39.184274,-83.977132,Bremen Dr//Frankfort Dr
160,39.029867,-83.917200,/Woodward St
334,38.862109,-83.891611,Race St
160,38.947836,-83.777032,Sarsi Dr/Rawhide Dr
390,39.014619,-83.809987,Bachman Rd/Bachman Dr
160,39.002629,-83.794216,Ogden Ln
185,39.184184,-83.977207,/Lorelei Dr
185,38.711332,-83.821131,Elk River Rd/US Hwy 52
160,39.043849,-83.900379,Bardwell Buford Rd
276,39.027722,-83.909105,Moler Circle Dr
185,38.802731,-83.795126,/US Hwy 68
160,38.651859,-83.754695,High St
305,38.906162,-83.760922,/US Hwy 62
246,38.965569,-83.816575,Purdy Rd
305,38.666091,-83.765419,Budgig Dr/Lykens Dr
552,38.862102,-83.888726,/E State St
160,39.195301,-83.866685,US Hwy 50
160,39.007291,-83.810904,Railroad St/Maple Ave
160,38.780721,-84.010724,US Hwy 52
305,38.727845,-83.835078,Pearl St/
160,38.709516,-83.817253,/US Hwy 52
276,38.864402,-83.912625,/Liggett St/W Grant Ave/W State St
362,38.877800,-83.900850,Mount Orab Pike/Hollywood Ln
246,39.007698,-83.806064,Winchester St/Chambers Ave
246,39.184482,-83.941225,US Hwy 50
185,39.008324,-83.810753,Pluhot/Highland Ave/College Ave
788,38.866854,-83.787208,N Columbus St/E Main St/S Columbus St/W Main St
160,38.722092,-83.721456,State Rte 763
185,38.687405,-83.777370,/US Hwy 52
185,39.186391,-83.934649,/W Pike St
185,39.060294,-83.960019,Bodman Rd
185,39.013506,-84.013539,Peach Aly/New Harmony Shiloh Rd
185,39.185892,-83.976012,Frankfort Dr/Dortmund Dr
160,39.117593,-83.936683,Upper Five Mile West Rd
160,38.877984,-83.999489,South St
185,38.933897,-83.769202,Running Bear Dr/Crazy Horse Dr
334,38.954018,-83.737567,/US Hwy 62
185,38.718770,-83.824728,Elk River Rd//US Hwy 52
160,38.861235,-83.898834,Fulton Ave/Brown St
276,39.056065,-83.983011,Eastwood Rd/Appalachian Hwy
605,38.864185,-83.905461,/S Pleasant St
185,38.675157,-83.767270,3 Mile Creek N/Big Three Mile Creek Rd
160,39.204206,-83.894805,/State Rte 251
185,39.185398,-83.929421,S East St
160,38.860938,-83.899961,S Elm St
160,38.867868,-83.788924,North St
216,39.188108,-83.927464,E Carlier St
185,38.711788,-83.821162,Elk River Rd
160,39.166248,-83.973669,/US Hwy 50
185,38.860520,-83.880198,E State St
160,38.979518,-84.005608,/Starling Rd
305,39.035383,-83.902233,Appalachian Hwy
216,38.852881,-83.787470,US Hwy 62
418,38.865594,-83.907705,W Cherry St
160,38.911334,-83.943772,Gillette Station Rd
185,39.018233,-83.934952,C-142B
276,38.669183,-83.770064,Braeburn Rd/Bradford Ln
216,38.970382,-83.840393,Brownstown Arnheim Rd/Hamer Rd
185,39.048091,-83.948460,Appalachian Hwy
216,38.965777,-83.727824,US Hwy 62
362,39.037350,-83.919676,Day Rd/N High St
216,38.736192,-83.835234,Buena Vista Dr
185,38.932932,-83.823564,Ashridge Arnheim Rd
160,38.920484,-83.749341,US Hwy 62
185,38.857426,-83.787066,US Hwy 62/
216,38.941390,-83.778106,/Waynoka Dr
390,39.031597,-83.938786,/W Main St
160,39.081192,-83.952811,Greenbush West Rd/Bodman Rd
160,39.002369,-83.792933,Ogden Ln
160,38.877136,-83.888161,Veterans Blvd
216,39.215500,-83.887484,Anderson State Rd
390,38.875227,-83.901503,Iowa St/Mount Orab Pike
334,39.009998,-83.797287,Brookfield Pl
160,38.992782,-83.715533,Apple Alley Rd/W Fincastle St
160,38.932178,-83.954533,Whiteoak Valley Rd
160,38.934268,-83.861900,Delhi-Arnheim Rd
160,39.001287,-83.725878,/Shitepoke Rd
185,38.666108,-83.761112,State Rte 41
390,38.914455,-83.852435,/Wells-Goecke Rd
160,39.009073,-83.957332,/Pleasant Hill Rd
185,39.005204,-83.808721,Purdy Rd/S Main St/Cherry St
160,38.857715,-84.030723,Francis Rd/State Rte 756
160,39.006193,-83.767367,Katterman Rd
185,38.979209,-84.001734,Starling Rd
160,38.841467,-83.894499,S Main St/Cambridge Dr
160,39.009101,-83.945697,/Pleasant Hill Rd
216,39.003872,-83.808308,Purdy Rd
276,38.963677,-83.728474,Cherry Aly/2nd St
160,38.989616,-83.715708,US Hwy 62/
185,39.015978,-83.819915,Matthews Rd
185,38.696314,-83.782336,US Hwy 52
246,38.790138,-83.970439,Columbia St/Olive St
185,38.873743,-83.924565,State Rte 125/T-579
246,39.007838,-83.809752,Maple Ave/Graham St
216,38.864322,-83.900735,Marshall Ave/E State St
390,39.186034,-83.973745,Lorelei Dr/Schiller Dr
526,38.861968,-83.906566,4th St/S Green St
160,39.204510,-83.962789,Brahms Cove
216,38.883766,-83.886575,Airport Rd
334,38.869326,-83.899708,Elmwood Ct
334,38.871123,-83.898720,E Ohio St/Elm St
160,38.962598,-83.707149,/Tri County Hwy
160,38.662462,-83.764026,Denver Dr
305,38.745230,-83.842502,S 4th St/Red Oak St/Cherry St
185,39.031317,-83.933982,/Western Ave
185,38.922995,-83.890138,/Shafer Rd
185,39.030670,-83.934402,W Main St/Western Ave
216,38.786041,-83.801676,Gardner Rd/Caryl Acres Dr
788,39.038774,-83.921007,/Sterling Run Blvd
160,39.032054,-83.941293,W Main St/Boyd Rd
390,39.027482,-83.918599,E Main St/Spice St
185,38.951616,-83.689613,Appalachian Hwy
160,39.007243,-83.799714,Oakdale Ave/Dewey Dr
216,38.993176,-83.920087,/S High St
305,38.654772,-83.762153,Market Pl/Market St/High St
160,38.866832,-83.773097,/Russellville-Winchester Rd
185,39.003105,-83.795766,Livemore Ln
160,38.919642,-83.903282,/S High St
160,39.083217,-83.958114,/Greenbush West Rd
246,38.865443,-83.906192,S Green St/W Cherry St
788,38.861771,-83.887026,/E State St
160,38.933463,-83.901342,S High St
499,38.913123,-83.976546,Fite Ave/Wooster Ave
216,39.019965,-83.918267,Rosewood Ln
334,38.919408,-83.985249,Edgewood/W Main St
216,38.789561,-83.970486,/Olive St
185,39.182807,-83.954880,/Victory Ln
185,38.674136,-83.769592,Campbell Dr/Stivers Ave/Stivers Dr
246,38.746695,-83.846697,Market St/N Easton St
160,38.665479,-83.767485,Bramel Dr
216,39.020940,-83.933168,Carpenter Rd/C-142B
160,39.013265,-84.013504,Peach Aly/Cherry Aly
579,39.041685,-83.920729,Appalachian Hwy
445,39.026318,-83.920235,Water St/S High St
276,38.726803,-83.834572,Pearl St
160,39.074579,-83.920362,Greenbush East Rd
160,39.182998,-83.974727,Lorelei Dr/Dortmund Dr
160,38.922783,-83.941390,Pierce Rd
185,38.860493,-83.880058,/E State St
160,38.984211,-83.762817,/Tri County Hwy
334,39.003581,-83.781526,Stieman Rd/Appalachian Hwy
160,38.936528,-83.738328,US Hwy 62/
216,39.061088,-83.896534,/Crawford-Day Rd
160,39.035411,-83.958714,W Main St/Aaron Dr
246,38.993687,-83.767566,/5 Points Mowrystown Rd
160,38.815925,-83.809142,Jenson Rd
160,38.853141,-84.025995,Bolender Rd
160,39.020380,-83.999370,New Harmony-Salem Rd/Maple Grove Rd
160,38.916987,-83.764339,/Ashridge Arnheim Rd
160,38.992648,-83.728345,Five Points Fincastle Rd
216,39.032446,-83.976517,Upper Cumberland Rd
160,38.952977,-83.910323,/S High St
276,38.865169,-83.902320,E Cherry St
185,39.023793,-83.919682,1st St/Eula Ave
185,38.921541,-83.986837,/N Orchard St
160,39.073420,-83.914011,Greenbush East Rd/Driver-Collins Rd
160,38.730497,-83.833862,Stephenson Dr/Flora Ave/Stephenson Rd
246,38.963800,-83.728927,Pike St/Gum Aly
185,38.883441,-83.791556,/Honey Run Rd
160,38.771907,-83.912156,US Hwy 52
276,39.026220,-83.915063,Dunn Aly
160,39.240207,-83.872167,Kernan Rd
160,38.889845,-83.767943,/US Hwy 62
246,39.016740,-83.924236,S High St
216,38.922565,-83.903422,/S High St
160,38.664032,-83.764205,Glenda Dr/Budig Dr
246,38.998087,-83.821559,Hamer Rd
160,39.013339,-84.012524,Cherry Aly/Main St
216,38.669932,-83.768099,Barbour Dr/Ridgeway Rd
160,39.160551,-83.932324,US Hwy 68/State Rte 131
276,39.028954,-83.925787,W Main St/Oak St
160,39.037635,-83.878108,Klein Rd
185,38.993347,-83.934449,/State Rte 774
305,38.927877,-83.778816,Buckskin Dr/Horse Shoe Dr
305,38.732934,-83.834991,Congress St/Shawn Dr
185,38.735738,-83.837166,/Catherine St
160,39.243321,-83.938938,State Rte 123
362,39.035817,-83.910946,Courtney Dr
276,38.825961,-83.792584,/Gooselick Rd
185,38.886460,-83.945211,State Rte 125
276,38.875774,-83.882123,Camp Run Rd
160,38.911627,-83.807660,Yockey Rd/T-186
246,38.867716,-83.905933,W Plum St/N Green St
160,38.997074,-83.809658,/Purdy Rd
216,39.185327,-83.935307,Bank St/W Lake St
216,38.888419,-83.890477,Hamer Rd
160,39.192571,-83.926504,Anderson State Rd
305,38.869130,-83.788194,Middle St
185,38.857691,-83.787039,US Hwy 62
334,38.850175,-83.903928,/Free Soil Rd/Williams Dr
160,39.069385,-83.903935,Hillcrest Rd
276,38.943810,-83.789534,Mesa Cove/Waynoka Dr
160,38.751935,-83.826547,Klinker Rd
160,38.834625,-83.969903,Utter Rd
160,39.011936,-83.986484,/Lower Cumberland Rd
246,38.917705,-83.984705,Walnut St
185,38.871332,-83.901726,E Ohio St
185,39.167363,-83.932554,/US Hwy 68
216,38.874843,-83.884844,/Camp Run Rd
185,39.025636,-83.917714,Keethler St
305,38.728753,-83.838199,Virginia St/Elm St
160,38.874913,-83.896429,Spring Meadow Dr
445,38.669643,-83.766691,Litton Dr
160,38.789881,-83.958745,US Hwy 52
160,39.090880,-83.903159,/Mount Rd
185,38.866028,-83.899271,S Elm St
160,38.921839,-83.903387,/S High St
246,39.014556,-83.986137,Lower Cumberland Rd/New Harmony Shiloh Rd
445,38.653053,-83.757762,US Rte 62/High St
160,38.864878,-83.840135,/State Rte 125
160,38.764909,-83.877912,Mechanic St
305,38.872668,-83.902922,/Mount Orab Pike
160,38.913205,-83.898309,Wahlsburg East Rd
305,38.879359,-83.861257,/Camp Run Rd
160,38.859552,-83.875183,E State St
246,39.023894,-83.922017,Smith Ave/S High St
216,39.034692,-83.964034,Autumn Ct
788,39.028162,-83.919583,N High St
160,38.894103,-83.884688,Hamer Rd
160,39.021104,-83.887854,/Tri County Hwy
305,38.907578,-83.758226,Ash Ridge Winchester Rd
362,38.731388,-83.838387,Waterworks Rd/Elizabeth St
160,38.778263,-84.038617,US Hwy 52
334,39.022237,-83.936776,Holiday Dr/Carpenter Rd
160,38.937260,-83.775037,Sioux Cove//Wagon Wheel Dr
185,38.767707,-83.896916,US Hwy 52
246,39.007911,-83.807489,Winchester St/Faith Ln
552,38.865937,-83.903542,E Grant Ave/N Apple St/S Apple St
216,39.022886,-83.916046,Brittany Ln
216,38.729760,-83.838871,Elm St
216,39.028434,-83.923179,Mount Clifton Dr/W Main St
160,38.956412,-83.912634,/S High St
246,39.011192,-83.921495,Tammera Ln
276,38.867314,-83.899963,Vine St/E Plum St
160,39.148190,-83.933262,US Hwy 68/
160,39.190592,-83.962835,Lorelei Dr/Elm Cove
160,38.658444,-83.761046,Market St
276,39.027208,-83.917260,Keethler St/E Main St
246,38.671722,-83.772687,US Hwy 52/Friendship Ln
160,38.843256,-83.906301,Free Soil Rd/
160,38.790255,-83.963436,/White Oak St
160,38.797593,-83.796868,/Cemetery Rd
160,38.934887,-83.849370,Delhi-Arnheim Rd/Steinman Rd
276,38.901880,-83.977586,/South St
160,38.708337,-83.806150,/Logan Gap Rd
160,38.926082,-83.903150,S High St
362,39.023818,-83.872667,Appalachian Hwy
160,38.980011,-83.720177,/US Hwy 62
185,38.722390,-83.833030,Elk Dr/Govt Ramp Rd
334,38.793199,-83.958045,Old A and P Rd/State Rte 221
185,39.186558,-83.954628,Victory Ln
185,38.860993,-83.906693,Progress Ave/S Green St
160,39.146288,-84.003163,US Hwy 50
216,39.026746,-83.914909,/E Main St
276,38.857597,-83.898029,Banting Dr/Home St
160,38.916392,-83.923279,/Whiteoak Valley Rd
216,38.995037,-83.713391,US Rte 62/
160,38.967851,-83.839350,Brownstown Arnheim Rd
160,38.896512,-83.901624,Beyers Rd
390,38.864082,-83.903708,/S Apple St
160,38.940285,-83.782776,Iuka Dr/Waynoka Dr
160,38.961835,-84.000347,Liming Van Thompson Rd/
185,38.790037,-83.966260,Columbia St/Main St
216,39.006729,-83.808863,S Main St/S Graham St
216,38.879202,-83.874646,/McGohan Rd
736,39.044909,-83.922104,Donald Dr/Hughes Blvd
185,39.019335,-83.826030,/Appalachian Hwy
160,39.005759,-83.806252,Elm Ave/Charles St
216,38.652038,-83.758350,US Rte 62
246,39.011931,-83.924663,S High St
185,38.722829,-83.827921,Scoffield Rd/Stephenson Rd
362,38.746322,-83.843173,N 4th St/S 4th St/Main St
246,38.964657,-83.727386,Peach Aly
246,38.655068,-83.762894,Plum Aly/High St
362,38.673881,-83.772047,Vista Cir
185,38.867513,-83.896023,E North St
418,38.682263,-83.774247,/Old US Hwy 52
160,38.995753,-83.796825,Staten Rd
216,39.009966,-83.924809,/S High St
160,38.922372,-83.990137,/State Rte 125/W Main St
185,39.011273,-83.819975,Matthews Rd
305,39.185471,-83.934540,W Lake St/Stone Aly
160,38.863139,-83.900858,Marshall Ave
185,38.718949,-83.825434,/Gordon Rd
160,39.042186,-83.913792,Day Rd
160,38.935934,-83.902399,/S High St
185,38.967277,-83.777455,Pool Kuntz Rd
216,39.051635,-83.983959,Eastwood Rd
305,39.010526,-83.798292,King Rd
246,39.015919,-83.811263,Appalachian Hwy
160,38.902767,-83.824431,Russellville-Arnheim Rd
185,38.791341,-83.801312,/T-231A
185,38.788898,-83.966286,Washington St/Main St
160,38.867239,-83.794113,State Rte 125
276,38.870205,-83.903048,N Apple St/Hamer St
216,39.005284,-83.820548,Donohoo Dr
216,39.145749,-83.933589,US Hwy 68
160,38.868685,-83.813907,State Rte 125/Fryer Rd
160,38.840772,-83.787413,/US Hwy 62
246,38.852122,-83.903617,Free Soil Rd/Carrington Dr
246,39.003512,-83.799468,Charlotte Ave/Tri County Hwy
160,38.810283,-83.771773,/State Rte 353
160,38.871564,-83.789733,W Clark St/N Kendle St
246,39.187571,-83.932772,Apple St/E Humber St/W Humber
160,38.992829,-83.754207,/Five Points Fincastle Rd
334,38.869837,-83.903933,N Main St
362,38.866135,-83.906123,W Grant Ave/S Green St
305,38.914247,-83.852677,Wells-Goecke Rd
160,38.756932,-83.830355,Stringtown Rd
160,38.743514,-83.806023,Howard Hill Rd/Howard Ridge Rd
160,38.928169,-83.902626,Kincheloe Rd/S High St
185,38.996587,-83.921115,S High St
499,39.045026,-83.919431,Leininger St
185,38.970687,-83.730802,Tri County Hwy
160,38.966248,-83.914456,S High St/Sterling Rd
276,38.734744,-83.835974,Hamburg St/Governor St
185,39.000127,-83.740755,Katterman Rd
160,38.874322,-83.903410,W Missouri St/Missouri St/N Main St
160,38.971965,-83.734046,Tri County Hwy
160,38.859074,-83.881129,/Dr Faul Rd
160,38.869919,-83.911658,Blair Rd
276,38.749587,-83.847753,N 2nd St/Locust St
216,39.038590,-83.990046,/Old State Rd
160,39.176402,-83.978010,Lorelei Dr
160,38.879342,-83.784170,/US Hwy 62
185,39.186678,-83.928194,Grant Aly/Ridge Aly
276,38.869233,-83.904800,N Pleasant St/
160,38.864952,-83.910868,W Grant Ave/Crooked Creek Ln
160,39.156379,-83.932337,McCafferty Rd/Gauche Rd
160,38.861691,-83.898810,/Brown St
160,38.996435,-83.929297,State Rte 774
216,38.993964,-83.767378,5 Points Mowrystown Rd
160,39.036507,-83.964323,Tri County Hwy
185,39.014920,-83.807061,Appalachian Hwy
185,38.880608,-83.873989,McGohan Rd
216,38.977315,-83.997362,/Liming-Van Thompson Rd
276,39.172942,-83.983870,State Rte 131
185,39.121001,-84.006719,Steward Harbough Rd
160,39.081355,-83.994409,Greenbush West Rd
216,38.925276,-83.993501,State Rte 125
160,39.109492,-83.955782,Malady Rd
917,38.862346,-83.905639,/S Pleasant St
276,38.992375,-83.919840,Layman Rd/S High St
216,38.875845,-83.785578,US Hwy 62
160,39.119474,-83.927994,/Upper Five Mile East Rd
276,39.004684,-83.806455,Elm Ave
276,38.870184,-83.898830,/Elm St
160,38.990878,-83.775614,Tri County Hwy
658,38.864675,-83.905404,S Pleasant St/W State St
334,39.046403,-83.939979,/Brooks-Malott Rd
185,39.152131,-83.932770,/US Hwy 68
185,38.992454,-83.714530,Apple Alley Rd/Main St
160,38.970447,-83.838112,/Hamer Rd
362,38.660234,-83.765253,Millston Dr/Millston Rd
160,38.828249,-83.695993,Decatur-Eckmansville Rd/Bethlehem Rd
216,38.908960,-83.828464,/Day Hill Arnheim Rd
160,38.873180,-83.787196,Middle St/W Liberty St
185,38.849212,-83.922547,State Rte 221
216,38.911997,-83.855300,W Fork Rd
276,38.936809,-83.790942,Creek Cove
160,38.797634,-83.796845,/Cemetery Rd
472,39.014299,-83.809412,/Bachman Rd
160,38.909894,-83.943580,/Gillette Station Rd
185,39.004438,-83.801118,Tri County Hwy
185,38.970425,-83.841131,Hamer Rd
216,39.028280,-83.922421,W Main St
246,39.040954,-83.987160,Tri County Hwy
185,39.052021,-83.984030,Greenbush Cobb Rd
276,38.872190,-83.905425,/N Green St
185,38.909561,-83.828412,Day Hill Arnheim Rd
185,38.667396,-83.767374,Hickory St/Nutmeg St
160,38.963997,-83.711409,Tri County Hwy
305,38.874808,-83.904402,/Ross St
160,39.074794,-83.921548,/Greenbush East Rd
160,38.785704,-83.934413,/US Hwy 52
499,38.861552,-83.885720,/E State St
160,39.214382,-83.888642,Church St
631,38.872367,-83.903633,/N Main St
160,38.922578,-83.990447,State Rte 125
334,38.865236,-83.902877,E Cherry St
276,39.009746,-83.797914,Meadowview Dr/Brookfield Pl
185,38.675160,-83.766359,3 Mile Creek N
160,39.247448,-83.904553,/US Rte 68
185,39.041806,-84.004778,Nixon Rd/Todds Run New Harmony Rd
216,38.779748,-83.812179,/Ripley Rd
185,39.074291,-83.893418,Moon Rd
499,39.030530,-83.941903,/Baylie Dr
160,38.861307,-83.899963,S Elm St/Fulton Ave
160,39.016637,-83.867183,Tri County Hwy/Sicily Rd
390,38.654796,-83.759661,Locust Pl/US Hwy 52/Locust St
160,39.054873,-83.983273,Eastwood Rd
216,38.931368,-83.772702,Pony Express Dr/Waynoka Dr
390,38.863727,-83.905486,S Pleasant St/W 2nd St
160,39.191113,-83.962681,Rhine Dr/Lorelei Dr
499,39.029874,-83.930457,/W Main St
160,38.744135,-83.837188,Dump Rd
160,39.010662,-83.801349,Pleasant St/Pleasantfield Dr
334,39.003821,-83.781391,/Stieman Rd
390,38.660180,-83.768018,Washington St/Maryland St
160,39.196182,-83.960279,/Fayetteville Blanchester Rd
185,38.739535,-83.842746,River St
305,38.664332,-83.769808,US Hwy 52/Bramel Dr
246,38.722119,-83.826853,Scoffield Rd
160,38.820759,-83.817468,/US Hwy 68/Laycock Rd
185,39.017353,-83.817424,Appalachian Hwy
160,39.016540,-83.820087,Matthews Rd
160,38.762300,-83.824716,Ripley Rd
160,38.867680,-83.802433,State Rte 125
160,38.750952,-83.800412,Kinkead Rd/N Pole Rd
362,38.659513,-83.766407,US Hwy 52/Millston Rd
216,38.747823,-83.843477,Market St/Hemphill Aly
246,38.978818,-83.997156,Liming-Van Thompson Rd/Starling Rd
418,38.967107,-83.727040,US Hwy 62/
185,38.928880,-83.902140,/S High St
216,38.875507,-83.898586,Kenwood Ave
160,38.789970,-83.963436,White Oak St/Columbia St
185,38.932050,-83.946992,Smoky Row Rd
736,39.028252,-83.919546,Farley Ln/N High St
246,39.010370,-83.798819,King Rd
216,38.723831,-83.829573,S 2nd St
160,38.707993,-83.808634,Logan Gap Rd/US Hwy 52
276,39.060364,-83.910382,/Hillcrest Rd
305,38.920824,-83.987520,N Orchard St/W Main St/S Orchard St
185,39.028528,-83.942559,/Boyd Rd
185,39.119381,-83.932257,Upper Five Mile East Rd
185,39.012435,-83.796305,T-604/Appalachian Hwy
185,39.097331,-83.930877,US Hwy 68
160,38.904511,-83.828505,Russellville-Arnheim Rd
185,39.034851,-83.973858,/Old State Rd
160,38.864908,-83.840079,/State Rte 125
305,38.857345,-83.901349,Free Soil Rd/
216,39.004688,-83.808625,Hope Ln/Purdy Rd
160,38.974621,-83.972075,State Rte 774/Starling Rd
160,38.650660,-83.747419,US Hwy 52
631,38.881489,-83.900038,/Mount Orab Pike
334,38.746555,-83.842505,Hemphill Aly/Main St
246,39.025852,-83.908666,Moler Circle Dr
390,38.662488,-83.768296,/Elm St
216,39.011067,-83.806972,Yankee St
185,39.105325,-83.932320,US Hwy 68/State Rte 286
160,38.831863,-83.891912,Evans Run Rd
160,38.941772,-83.783664,Waynoka Dr
246,38.861376,-83.764563,State Rte 125
160,39.008905,-83.812527,Manning Ln
736,38.733862,-83.838211,S 2nd St/Governor St
216,39.038660,-83.990387,Old State Rd
160,38.979835,-83.935646,State Rte 774/Fite Rd
185,38.880892,-83.874117,McGohan Rd
185,38.940507,-83.781518,/Waynoka Dr
418,38.865385,-83.905329,S Pleasant St/W Cherry St
185,38.786458,-83.739118,/Chicken Hollow Rd
160,38.929359,-83.780809,Seminole Cove/Waynoka Dr
216,39.016311,-83.812944,Appalachian Hwy
160,38.998360,-83.789711,Tri County Hwy
276,38.742410,-83.845166,Front St
185,38.963159,-83.913602,/Main St/New Hope-White Oak Station Rd
185,39.180072,-83.978444,Flensburg Dr/Lorelei Dr
276,39.016077,-83.910223,Forest Trl
216,39.155500,-83.990156,US Hwy 50
472,38.968920,-83.725971,US Hwy 62/Tri County Hwy
160,38.960270,-84.006127,Bolender Rd
305,39.006102,-83.814672,Maple Ave/Tri County Hwy
160,38.850329,-83.906949,Amy Dr/Williams Dr
246,39.016439,-83.918128,Beacon Hill Rd
160,38.910435,-83.929683,Sunshine Rd
160,38.866814,-83.773709,Russellville-Winchester Rd/State Rte 125
305,38.908012,-83.758846,US Hwy 62/Ashridge Arnheim Rd/Ash Ridge Winchester Rd
160,39.184176,-83.965675,Lorelei Dr/Grunwald Cove
305,39.185502,-83.933871,Lake St/S Main St/W Lake St
246,38.966231,-83.727566,US Hwy 62/Ball Rd
246,39.019194,-83.925648,Carpenter Rd/High Meadow Dr S
185,38.854855,-84.027770,Bolender Rd
216,38.913952,-83.853021,/Wells-Goecke Rd
160,38.950848,-83.909325,Kimball Ford Rd
185,38.790067,-83.967671,/Jackson St/Columbia St
160,39.178769,-83.932542,US Hwy 68
246,39.031481,-83.976782,/Upper Cumberland Rd
160,39.107383,-83.932536,US Hwy 68
160,38.802904,-84.003354,Shinkle Ridge Rd
390,38.914870,-83.853613,W Fork Rd
160,38.997512,-83.729856,Katterman Rd/
185,39.007666,-83.807541,Faith Ln
160,38.815721,-83.789166,/US Hwy 62
185,38.895568,-83.901461,Mount Orab Pike/Beyers Rd
362,39.003044,-83.797313,Mae St/Mac St
160,39.023101,-83.998538,/New Harmony-Salem Rd
276,39.019492,-83.934151,C-142B
160,38.859923,-83.786925,US Hwy 62/S Columbus St
160,38.734273,-83.833998,Hanover St
185,39.008780,-83.802430,Sardinia-Mowrystown Rd/Kelly St
160,38.995666,-83.920806,S High St
185,39.044551,-83.965864,Bodman Rd
334,39.009486,-83.808286,Main St/Veterans
305,38.860441,-83.907668,Alley St
160,38.917719,-83.980214,Richey St
445,38.878230,-83.900738,Mount Orab Pike/Stephens Ave
216,38.752894,-83.850342,N 2nd St
216,39.063497,-83.981400,Eastwood Rd/Bardwell West Rd
160,39.009407,-83.881233,/New Hope-White Oak Station Rd
185,38.943943,-83.788038,Hogan Dr/Waynoka Dr
185,38.656507,-83.760166,Black Gum St
216,38.653034,-83.755948,US Hwy 52
160,39.210278,-83.878007,/Kelley Rd
160,38.935377,-83.841857,/Delhi Arnheim Rd
418,39.028467,-83.920520,Farley Ln
160,38.858947,-83.763114,Bradley Dr
160,38.962877,-84.000124,Liming Van Thompson Rd/
185,38.651625,-83.752080,Mountain St/US Hwy 52
216,39.014997,-83.924395,S High St
160,39.021347,-83.705203,US Rte 62
305,39.022458,-83.942129,/Level Ln
246,39.119350,-83.932865,US Hwy 68/Upper Five Mile East Rd/Upper Five Mile West Rd
160,38.927111,-83.995446,State Rte 125
185,38.868687,-83.811688,/State Rte 125
160,38.849624,-83.907002,Amy Dr
160,39.188555,-83.917396,US Hwy 50/Snowhill Rd
185,39.151199,-83.932884,US Hwy 68
276,38.734220,-83.837315,Division St/Governor St
160,38.875088,-83.785722,US Hwy 62
160,38.975359,-83.933411,/Fite Rd
160,38.927930,-83.902739,S High St
552,39.015409,-83.808227,State Rte 134
658,39.186628,-83.932587,Apple St/E Pike St/W Pike St
160,39.112267,-83.932598,US Hwy 68
185,38.991666,-83.714873,US Hwy 62/Fincastle Rd/Main St/Five Points - Fincastle Rd
185,39.006854,-83.812342,/Maple Ave
160,38.851071,-83.897549,S Main St
185,38.980108,-83.915966,/S High St/Brannon Rd
160,38.911137,-83.858727,/W Fork Rd
579,38.864834,-83.907559,W State St
276,39.185883,-83.934616,/Stone Aly
305,39.184045,-83.933596,S Main St
305,38.914995,-83.851816,/Wells-Goecke Rd
418,39.030111,-83.931553,W Main St
390,39.186879,-83.930194,Spice Aly/E Pike St
305,38.754290,-83.852072,/N 2nd St/Old State Rte 68
185,38.953360,-83.760927,Louderback Rd
160,38.975302,-83.930530,Sterling Rd
160,39.087816,-83.991252,/Pine Valley Dr
160,38.842052,-83.894545,S Main St
334,39.055732,-83.983078,Eastwood Rd
305,38.869053,-83.903172,N Apple St/Lincoln Ave
160,39.005283,-83.926702,Lake Grant Access Rd
362,38.940467,-83.849945,Steinman Rd
216,38.786185,-83.803486,Gardner Rd
160,38.982949,-83.753292,Appalachian Hwy
185,39.013565,-83.938032,/Pleasant Hill Rd
185,39.075423,-83.925292,Greenbush East Rd
788,39.044932,-83.921834,N High St
160,38.734232,-83.834118,Hanover St
160,39.027534,-84.009892,/Todds Run New Harmony Rd
185,38.892267,-83.901055,Mount Orab Pike
185,39.109695,-83.955708,Malady Rd
160,38.979623,-84.007063,/Starling Rd
526,38.863796,-83.897623,E State St
160,38.784794,-84.014368,Doe Point Rd
160,39.017817,-83.921491,Hammerstone Way
160,39.173633,-83.959299,/US Hwy 50
160,38.919171,-83.688060,/Kendall Rd
216,38.826027,-83.793700,Gooselick Rd
305,38.867193,-83.905109,N Pleasant St/Andrews Ave/Alley Way
160,38.919798,-83.991342,Travis Pl/Wayne Ave
160,38.854536,-83.902580,Free Soil Rd
305,38.872957,-83.903561,/N Main St
185,39.187433,-83.934183,Humber/N Main St
216,38.860076,-83.877866,E State St
160,39.013775,-83.994444,New Harmony Shiloh Rd
160,39.175040,-83.919288,Campbell Rd
160,39.010398,-83.938813,/Lake Grant Rd
185,39.005875,-83.802991,Castle Ave/Tri County Hwy
362,38.658744,-83.767945,Delta Ln/Pennsylvania St
160,38.932700,-83.771706,Wolverine Cove/Waynoka Dr
160,38.882063,-83.939670,/State Rte 125
499,38.871415,-83.902926,N Apple St/E Ohio St
185,38.679087,-83.773537,/Old US Hwy 52
160,38.854405,-84.027310,/Bolender Rd
160,38.718262,-83.824282,US Hwy 52
658,39.043402,-83.921820,Donald Dr
160,38.943339,-83.781668,/Waynoka Dr
216,38.951633,-83.845842,Steinman Rd
160,38.942229,-83.769032,Waynoka Dr
472,39.030229,-83.932076,/W Main St
160,38.863373,-83.902897,S Water St
246,38.837460,-83.841784,US Hwy 68/Straight Creek Rd
160,38.937595,-83.823583,T-169/Purdy Rd
160,38.939157,-84.001781,Yankeetown Rd
216,38.668226,-83.766274,Pine St/Hickory St
216,38.867260,-83.898644,E Plum St
160,38.934620,-83.951908,/Eastside Rd
160,39.182960,-83.973937,Lorelei Dr/Munster Dr
160,39.095328,-83.891777,/Moon Rd
160,39.185840,-83.930969,S Russell St/E Lake St/Russell St
160,39.177155,-83.965429,Lorelei Dr/Oder Dr
185,38.919917,-83.903295,/S High St
185,38.895029,-83.901410,/Mount Orab Pike
160,38.963937,-83.711223,/Tri County Hwy
334,39.018745,-83.823421,/Appalachian Hwy
160,38.856075,-83.854525,E State St/Day Hill Rd
185,38.994077,-83.713775,Apple St/Main St
390,38.868018,-83.903273,N Apple St/E North St
160,38.928413,-83.796301,Navajo N
160,38.887199,-83.770129,US Hwy 62/
276,39.186454,-83.934028,S Main St/W Pike St/N Main St
276,38.875745,-83.882233,Airport Rd/Camp Run Rd
246,38.907948,-83.858243,W Fork Rd
160,39.061387,-83.991777,Richard's Creek Rd
160,39.229683,-83.909703,US Rte 68/State Rte 123
246,38.926408,-83.984827,State Rte 774
246,38.745606,-83.841604,Cherry St
276,38.921251,-83.987112,N Orchard St/Congress Aly
276,39.017555,-83.924180,S High St
160,39.117298,-83.932764,US Hwy 68/
216,39.156176,-83.989152,US Hwy 50
788,39.036297,-83.910745,Robin Ave
334,38.671933,-83.772061,/Friendship Ln
276,38.743156,-83.843804,S 2nd St
160,38.873846,-83.846194,Day Hill Arnheim Rd
216,38.949933,-83.685524,John Woods Rd/Appalachian Hwy
160,39.008561,-83.812575,Manning Ln/College Ave
160,38.998977,-83.735552,Katterman Rd
160,38.847305,-83.967562,/Oak Grove Rd
185,39.056049,-83.869901,Bardwell Buford Rd
472,39.036514,-83.909239,Linda Way
160,38.914235,-83.753287,US Hwy 62
185,39.037850,-83.986594,/Old State Rd
246,39.008388,-83.953984,Pleasant Hill Rd
445,39.008840,-83.808449,Dome Ln/Main St
552,39.003882,-83.781937,Appalachian Hwy
185,39.000014,-83.711030,Wilson Rd
185,38.889525,-83.768121,US Hwy 62/
185,38.657777,-83.763806,Gourdes Pt
160,38.895001,-83.884633,Hamer Rd
160,38.841427,-83.787370,US Hwy 62
160,39.186859,-83.975473,Frankfort Dr/Lorelei Dr
185,39.013530,-83.841913,Bean Rd
160,38.880314,-83.782705,US Hwy 62
390,39.040326,-83.915247,Day Rd
216,39.010157,-83.790537,Appalachian Hwy
246,39.026377,-83.913120,E Main St/Home St
216,39.118638,-83.932829,/US Hwy 68
160,38.870375,-83.913537,Country Place Trl/W State St
216,39.022020,-83.925432,High Meadow Dr S
305,39.023560,-83.872057,Appalachian Hwy
160,38.653683,-83.759384,Fish Aly/High St
216,38.744335,-83.843108,S 3rd St/Red Oak St
216,39.011009,-83.807004,/Yankee St
160,38.857519,-83.852668,E State St
305,38.673777,-83.772030,Vista Cir/Stivers Ave
160,38.817423,-83.811427,/Jenson Rd
160,39.077131,-83.926591,US Hwy 68/
160,38.664196,-83.763983,Budig Dr
160,38.923060,-83.760441,/Schwallie Rd
246,39.022472,-83.920725,1st St/Grant Ave
499,38.913350,-83.976274,Fite Ave/E Main St
160,38.945287,-83.784133,Haw Dr/Waynoka Dr
185,38.928389,-83.905191,Kincheloe Rd
246,38.976899,-83.940968,/State Rte 774
160,39.090110,-83.898175,/Mount Rd
185,39.020388,-83.920028,Hammerstone Way/Compton Pl
390,38.866637,-83.783475,Jefferson St/E Main St
185,38.816646,-83.888968,Old State Rte 68
216,38.860859,-83.893933,Markley Ave
216,38.993477,-83.767708,5 Points Mowrystown Rd/Appalachian Hwy
160,38.855166,-84.028088,Bolender Rd
216,38.795570,-83.798343,US Hwy 62
216,39.183025,-83.943576,US Hwy 50
160,39.057315,-83.983522,Rehling Rd
216,38.736233,-83.835952,Meadow Lane Dr/Buena Vista Dr
276,39.024744,-83.912452,Water St/Castle Ave
216,38.864503,-83.902980,/E State St
185,39.006344,-83.780806,Stieman Rd
276,38.999911,-83.792565,Staten Rd/Tri County Hwy
185,39.002651,-83.781683,Stieman Rd
216,39.038372,-83.910820,Appalachian Hwy
658,38.655591,-83.761661,US Hwy 52/Market St
160,38.894543,-83.955366,/State Rte 125
526,38.655333,-83.761033,Pleasant Aly/US Hwy 52
185,38.816772,-83.810413,/Jenson Rd
276,38.790179,-83.972195,US Hwy 52/Columbia St/State Rte 505
160,39.041193,-83.874120,/Bardwell Buford Rd
334,38.673839,-83.772454,Justin Way
305,39.007664,-83.805814,Shaw/Winchester St
1824,39.032119,-83.919186,Apple St/N High St
160,38.932184,-83.775458,Mustang N/Mustang Dr
185,38.990642,-83.919284,/S High St
160,39.158178,-83.986408,US Hwy 50
246,38.746453,-83.847385,N Front St/Market St
839,38.744755,-83.846389,/Front St
160,38.860870,-83.894420,Markley Ave/Amberly Dr
160,38.913205,-83.853899,/W Fork Rd
160,38.972953,-83.925635,Sterling Rd
216,38.979065,-83.749260,Orr Rd
160,39.002802,-83.794014,/Ogden Ln
276,38.652220,-83.758023,Ferry St/Water St
246,39.008767,-83.824689,Matthews Rd/Tri County Hwy
216,39.109823,-83.955664,Malady Rd
160,38.755671,-83.712973,/State Rte 763
160,39.010113,-83.795664,/Walls St
160,38.891182,-83.875886,McGohan Rd
160,39.197328,-83.917614,/Anderson State Rd
160,38.894434,-84.022566,Feesburg-Poetown Rd
472,39.008119,-83.809230,Broad St/Postal
246,38.652692,-83.755253,US Hwy 52
160,38.720924,-83.817945,Osprey
160,38.927195,-83.745702,US Hwy 62/
160,38.695209,-83.777216,Three Mile Creek Rd
334,38.865488,-83.910303,/W State St
160,38.900166,-83.811798,Russellville-Arnheim Rd
160,39.004906,-83.801723,Tri County Hwy
160,38.899967,-83.901965,S High St
216,38.898058,-83.901313,/S High St
160,38.944068,-83.773608,Waynoka Dr
216,39.036963,-83.915165,Abby Ln
160,39.155072,-83.888213,State Rte 131/Thery Rd
160,38.864734,-83.906256,W State St/S Green St
160,38.861399,-83.844376,State Rte 125
160,39.179464,-83.932608,US Hwy 68
160,39.003349,-83.793833,Ogder Ln/
160,38.834681,-83.969646,Utter Rd
246,39.011472,-83.796113,King Rd/Walls St/T-604
246,38.871279,-83.892799,Camp Run Rd
216,38.957979,-83.913361,Hauke Rd S/S High St
839,38.881248,-83.900089,Mount Orab Pike
334,38.744066,-83.845952,Front St/Cherry St
160,38.937982,-83.823637,Purdy Rd
246,38.885792,-83.898350,/Hamer Rd
160,39.094914,-83.923210,Clements Rd
160,38.881793,-83.896594,Depot Cir
160,39.192294,-83.963131,/Rhine Dr
185,38.736586,-83.843023,Robins Way
160,38.925623,-83.992739,Cemetary Rd
160,39.060367,-83.959987,/Bodman Rd
216,39.176304,-83.976358,Lorelei Dr
160,39.198394,-83.896374,/State Rte 251
445,39.030142,-83.941991,Baylie Dr
216,38.905601,-83.902424,/S High St
305,38.739248,-83.840384,William St/Center St
246,39.004993,-83.819420,Donohoo Dr/Hamer Rd
334,38.913194,-84.009603,/State Rte 774
216,38.867850,-83.900257,Kenwood Ave/E North St
160,38.796853,-83.795934,Cemetery Rd
160,39.244297,-83.905210,/US Rte 68
160,39.044149,-83.924346,Hughes Blvd
160,38.975421,-83.813823,Purdy Rd
305,38.872885,-83.902795,/Mount Orab Pike
216,38.970320,-83.840897,Hamer Rd/Catalpa Corner Rd
246,38.966647,-83.816241,Purdy Rd
390,38.857917,-83.901069,Free Soil Rd//S Main St
160,38.680262,-83.721359,Dry Run Rd
246,38.902975,-84.005007,/Sisterville Rd
185,38.853785,-83.897708,S Main St
160,39.007549,-83.811331,School Ln/Railroad St
216,39.010039,-83.924799,S High St
185,38.777937,-83.811906,US Hwy 62
185,38.937706,-83.969482,/Whiteoak Valley Rd
185,38.735912,-83.836757,/Hamburg St
185,38.823231,-83.788920,/US Hwy 62
185,39.014594,-83.985412,New Harmony Shiloh Rd/Maple Grove Rd
160,39.176774,-83.977538,Lorelei Dr/Keil Dr
185,39.020583,-83.863911,Appalachian Hwy
216,39.192789,-83.962756,Rhine Dr
185,38.926698,-83.798025,Ashridge Arnheim Rd/Will Allman Rd
246,38.660416,-83.769975,Wood Dr/Rim Rd
185,38.659679,-83.761276,Market St
276,38.868964,-83.901412,N Water St/Lincoln Ave
185,38.747645,-83.843973,N 4th St/Market St
160,38.874887,-83.845926,/Camp Run Rd
185,39.016695,-83.832883,/Corboy Rd
160,38.896274,-83.900353,S High St
160,38.991710,-83.725305,/Five Points Fincastle Rd
185,39.204561,-83.881789,/Savage Rd
276,39.176985,-83.932332,US Hwy 68/
185,38.836442,-83.842329,Myers Rd/Straight Creek Rd
160,38.744896,-83.805426,Howard Ridge Rd
276,38.867495,-83.783417,Jefferson St/Sir William Wallace St
334,39.165530,-83.932607,US Hwy 68
160,38.774529,-83.915774,US Hwy 52
160,38.922520,-83.726502,/Francis Rd
185,39.192244,-83.933449,Apple St
579,38.745578,-83.845258,N 2nd St/Main St/S 2nd St
160,39.020173,-83.816859,Kay Rd
185,39.032145,-83.924005,Oak St
160,39.018219,-83.921610,Hammerstone Way/James Ct
160,39.094957,-83.943953,Snider-Malott Rd
276,39.002237,-83.922889,/S High St
276,39.186237,-83.931625,Gum Aly/Ridge Aly
216,39.014122,-83.705978,US Rte 62/Stivers Rd
185,39.117601,-83.932778,US Hwy 68
305,38.863766,-83.906349,W 2nd St/S Green St
160,38.753341,-83.850816,N 2nd St
160,39.223397,-83.910887,/US Rte 68
185,39.185773,-83.931543,Gum Aly/E Lake St
160,38.970519,-83.837162,Hamer Rd
185,39.049053,-83.922867,/US Hwy 68
605,38.655873,-83.762424,US Hwy 52/Plum Aly
579,38.862485,-83.893149,Lake St
185,39.062078,-83.909078,/Hillcrest Rd
362,38.913523,-83.903029,/Wahlsburg East Rd/S High St
160,39.011650,-83.986521,/Lower Cumberland Rd
185,38.765738,-83.881298,High St
160,38.836252,-83.998726,Oak Ln/Owens Rd
246,38.979871,-83.749105,Appalachian Hwy
276,39.028112,-83.921596,W Main St
160,38.943977,-83.773485,Waynoka Dr
334,38.867932,-83.901524,N Water St/E North St
185,39.003121,-83.826184,/Stephans Rd
160,39.019639,-83.927811,Carpenter Rd
185,38.952460,-83.680687,Tri County Hwy
305,38.750303,-83.832805,Creekview/Main St
216,39.025374,-83.943756,/Boyd Rd
160,38.852884,-83.959673,Oak Grove Rd
526,38.863785,-83.897562,E State St/Home St
185,39.052210,-83.923768,US Hwy 68/
216,39.059738,-84.000089,Appalachian Hwy
246,39.016265,-83.915939,Woodland Xing/Liming Farm Rd
160,39.048778,-83.934469,Bardwell West Rd
160,39.033450,-83.964552,Little Brook Ct
160,38.950753,-83.772006,Custer Dr/Yuma Dr
160,38.878808,-83.931175,Richards Rd
216,38.739925,-83.842958,/Assumption St
160,38.764993,-83.815464,Ripley Rd
246,39.132768,-83.933423,US Hwy 68/McMullen Rd
276,38.740976,-83.841408,Center St
216,38.870140,-83.901851,/Hamer St
160,38.889516,-83.901684,Miller-Ring Rd
160,38.929075,-83.984099,State Rte 774
216,38.939727,-83.903286,S High St
160,38.682335,-83.772009,Castle Ave/Michael St
216,38.788144,-83.980292,US Hwy 52
305,38.919133,-83.984824,W Main St/High St
305,38.654249,-83.758404,Mountain St/US Hwy 52/Main Cross St
185,39.049286,-83.971466,Lindsey Rd
390,38.739181,-83.841396,Grove St/S 2nd St
160,38.751670,-83.848407,Church Aly
334,39.038793,-83.916429,Robin Ave/Day Rd
160,38.963369,-83.730266,Maple Aly
185,38.994299,-83.920415,S High St
160,39.205073,-83.960506,Glady Rd
276,38.793350,-83.800872,T-231A
658,39.028412,-83.919490,N High St
160,38.936060,-83.876102,/Hamer Rd
788,39.032059,-84.011378,/Todds Run Foster Rd
160,38.666934,-83.768058,Hickory St
160,38.923029,-83.991008,/W Main St
276,38.866271,-83.899236,S Elm St/E Grant Ave/Elm St
305,38.964826,-83.729206,Brown S Aly/Oak St
246,38.937662,-83.790771,Creek Cove
305,38.929997,-83.795030,Beaver Cove/Waynoka Dr
160,38.802091,-83.794461,US Hwy 62
276,39.056301,-83.982952,/Eastwood Rd
445,38.729890,-83.835512,Virginia St/Stephenson Dr/S 2nd St
160,38.861719,-83.899945,S Elm St
579,38.862758,-83.904709,3rd St/S Main St
216,38.876094,-83.898990,Powers Ave
362,39.031492,-83.938251,/W Main St
185,38.964674,-83.837988,Brownstown Arnheim Rd
216,38.665999,-83.766733,Maple St/Bramel Dr
305,38.861454,-83.904007,/S Apple St
276,38.962973,-83.728884,3rd St/Cherry Aly
160,38.875496,-83.785650,US Hwy 62
390,38.864797,-83.907090,Alley St/W State St/High St
276,39.025093,-83.912318,Castle Ave
216,39.024505,-83.904501,Candlelight Way
160,38.671250,-83.767184,Bradford Ln
160,39.212268,-83.959427,/Fayetteville Blanchester Rd
160,38.964037,-83.817035,/Purdy Rd
185,39.194860,-83.878228,Swartz Rd
185,38.870173,-83.902430,Hamer St/Lincoln Ave
185,38.872711,-83.787421,Middle St
216,38.799671,-84.022509,/Shinkle Ridge Rd
185,38.751991,-83.849438,N 2nd St/Rankin Hill Rd
185,39.185903,-83.930231,/E Lake St
185,38.662160,-83.764438,Denver Dr
160,39.053430,-83.929935,/Donley Rd
246,39.177253,-83.953131,US Hwy 50
246,39.140055,-83.934278,/US Hwy 68
160,38.955950,-83.843576,Steinman Rd
160,39.036181,-83.962692,W Main St
246,39.188595,-83.948553,/Fayetteville Blanchester Rd
246,38.672942,-83.770683,Friendship Ln/Vista Dr
160,38.870309,-83.913629,Country Place Trl
160,39.117182,-83.932758,US Hwy 68
390,38.858108,-83.901275,/Marshall Ave/S Main St
160,39.017169,-83.867179,Sicily Rd
185,38.881418,-83.855859,Camp Run Rd
160,38.754207,-83.827369,Klinker Rd
305,39.012740,-83.797634,C-3E/Appalachian Hwy
160,38.919664,-83.981332,Lucas Rd
216,38.876100,-83.880740,Camp Run Rd
246,39.006421,-83.785424,Appalachian Hwy
160,38.919890,-83.991223,Travis Pl
160,39.229073,-83.895499,State Rte 123/State Rte 251
305,38.872531,-83.902794,Apple St//N Apple St
160,38.866855,-83.847835,Day Hill Arnheim Rd
160,38.923047,-83.756820,Martin-Alexander Rd/Schwallie Rd
276,38.965132,-83.727653,Railroad St/Cherry Aly
160,38.989646,-83.991713,/Oakland-Locust Ridge Rd
305,38.973936,-83.740074,Tri County Hwy
418,39.030012,-83.942020,Boyd Rd/Nathan's Ln
160,38.878538,-83.931201,Richards Rd
160,39.187411,-83.975187,Lorelei Dr/Leipzig Dr
579,38.867756,-83.787141,North St/N Columbus St
216,38.786366,-83.803923,Kessel Rd
160,38.971047,-83.731782,/Tri County Hwy
160,39.116378,-83.932720,US Hwy 68/
185,38.903738,-83.902307,/S High St
160,38.938598,-83.999311,/Yankeetown Rd
160,39.017181,-83.877100,Klein Rd
362,39.029427,-83.918339,Church St/Front St
185,38.945873,-83.764098,Atoka Cove
216,39.047069,-83.926312,/Bardwell West Rd
160,38.885445,-83.899129,/Mount Orab Pike
160,38.875799,-83.785588,US Hwy 62
2061,39.032774,-83.919166,N High St
246,39.161979,-83.932421,US Hwy 68
216,38.729489,-83.839759,Pond Dr
216,39.185285,-83.930874,Russell St
160,39.048481,-83.964460,/Bodman Rd
160,38.848917,-83.901789,Marilyn Dr/Lakeview Acres Dr
160,38.952542,-83.771611,/Pool Kuntz Rd
472,39.030167,-83.931802,W Main St
334,38.754062,-83.851743,N 2nd St
216,38.959528,-83.835785,Brownstown Arnheim Rd
160,38.825997,-84.042464,/Vernon Hill Rd
185,38.733633,-83.835852,Hanover St/Catherine St
246,39.023930,-83.912729,Pleasant St/Castle Ave
160,38.815636,-83.809443,US Hwy 68/Flannery Rd/Jenson Rd
185,39.186824,-83.926844,Ridge Aly/Hall St
160,39.017011,-83.879901,Tri County Hwy
160,38.984270,-83.718093,US Hwy 62/
390,38.732326,-83.834633,Shawn Dr
216,38.949842,-83.685300,Appalachian Hwy
160,38.967647,-83.696943,Crum Rd
216,39.169356,-83.966937,/US Hwy 50
160,38.940017,-83.783472,Waynoka Dr
185,39.049373,-83.922960,US Hwy 68
362,39.038879,-83.916364,Day Rd
160,38.975673,-83.813762,Purdy Rd
276,38.872110,-83.788718,Willow St/N Esta St
334,39.060786,-84.010254,Appalachian Hwy
185,39.061533,-83.909489,/Hillcrest Rd
362,38.873416,-83.904132,Illinois St
160,39.005316,-83.925937,/Lake Grant Access Rd
160,38.771844,-83.813084,US Hwy 62
160,38.988519,-83.771153,/Tri County Hwy
160,39.095897,-83.930618,US Hwy 68
305,39.013804,-83.924477,/S High St
185,38.889542,-83.887146,/Hamer Rd
160,38.911654,-83.807697,Yockey Rd/T McNoun Rd
499,39.015458,-83.808228,/State Rte 134
160,38.825352,-83.841347,Ripley-Day Hill Rd
362,39.030310,-83.932499,Hyde Park Dr/W Main St
185,39.020540,-83.864622,Appalachian Hwy
185,39.181689,-83.966045,Strauss Cove/Lorelei Dr
334,38.672661,-83.772857,/US Hwy 52
160,38.928348,-83.828989,/Day Hill Arnheim Rd
185,39.114441,-83.932651,/US Hwy 68
160,39.041567,-83.892452,Bardwell Buford Rd
160,38.663772,-83.704005,Old State Rd
334,39.183937,-83.932351,Apple St
362,38.913560,-83.903031,/S High St/Whiteoak Valley Rd
160,38.923771,-83.900275,Shafer Rd
362,39.187356,-83.930268,Spice Aly/Vine Aly
185,39.049033,-83.911339,/Crawford-Day Rd
185,38.872532,-83.741802,Russellville-Winchester Rd/Paeltz Rd/McNoun Rd
305,39.011912,-83.794248,Appalachian Hwy
185,39.007579,-83.806771,Charity Ln
390,38.865958,-83.787259,S Columbus St/South St
216,38.988709,-83.761186,Appalachian Hwy
160,39.059649,-83.869640,Lindsey Rd
216,38.999680,-83.776203,Appalachian Hwy
160,38.934265,-83.861982,Delhi-Arnheim Rd
160,39.020205,-83.831731,Appalachian Hwy
526,38.867644,-83.786421,Highland St/N Highland St/Sir William Wallace St
160,39.093895,-83.930253,US Hwy 68/
216,39.003840,-83.808286,Purdy Rd
185,38.896723,-83.900632,Mount Orab Pike/S High St
160,38.667008,-83.767930,Hickory St/Maple St
160,39.187909,-83.922348,US Hwy 50/E Pike St
472,38.661049,-83.767551,/US Hwy 52
160,38.678614,-83.769446,Stivers/Rains Rd/Stivers Dr
160,38.848967,-83.902111,Kellie Ter/Lakeview Acres Dr
185,38.923502,-83.991582,/State Rte 125/W Main St
160,38.994468,-83.934037,/Oakland-Locust Ridge Rd
160,38.931979,-83.900123,/Delhi-Arnheim Rd
160,38.846423,-83.937618,White Swan Rd/
499,38.656260,-83.762002,Valley St
160,39.229448,-83.905281,/State Rte 123
246,38.934803,-84.011920,Sodom Rd/State Rte 125
246,39.187263,-83.931193,Vine Aly/Russell St
216,39.009343,-83.809457,Alley St/Graham St
216,39.018604,-83.877162,/Klein Rd/T-582
160,39.090780,-83.949702,Bodman Rd
185,38.871368,-83.974798,Eden Rd/Beech Grove Rd
160,38.934570,-84.010117,State Rte 125
185,39.019727,-83.883111,Tri County Hwy
185,39.013190,-83.938274,Pleasant Hill Rd
216,39.093014,-83.935506,Snider-Malott Rd
160,38.943700,-83.906264,/S High St
160,39.066494,-83.980828,Eastwood Rd
160,38.915770,-83.923086,Sunshine Rd/Whiteoak Valley Rd
276,39.028867,-83.925256,/W Main St
160,39.190995,-83.934069,Isaac St/N Main St
246,38.867274,-83.899133,E Plum St/Elm St
160,38.866897,-83.767811,/Russellville-Winchester Rd
216,39.084588,-83.928269,/US Hwy 68/Clements Rd
334,38.739510,-83.841594,St Charles St/S 2nd St
160,38.878748,-83.998307,South St/North Aly
185,38.896077,-83.868674,/W Fork Rd
185,39.193816,-83.877463,US Hwy 50/Swartz Rd
185,38.815397,-83.704026,Huff Hill Rd/Main St/Decatur-Eckmansville Rd
276,38.913716,-83.976812,E Main St
160,38.945547,-83.774557,Tishomingo Dr/Waynoka Dr
160,39.181977,-83.965411,Lorelei Dr/Fredrickstrasser Dr
160,39.205020,-83.959846,Glady Rd/Fayetteville Blanchester Rd
246,38.681999,-83.774136,/Old US Hwy 52
246,38.789563,-83.970566,/Strawberry Aly
160,38.652706,-83.759321,Water St/Main Cross St
499,39.029841,-83.930234,/W Main St
334,38.728344,-83.834032,/S 2nd St
160,39.014896,-83.813105,Bachman Dr
185,39.187360,-83.926615,E Pike St/N Dunham Ave
185,39.179689,-83.932627,US Hwy 68
160,39.178231,-83.964196,Lorelei Dr/Bavaria
185,38.794967,-83.799096,/Bealer Rd
216,38.869949,-83.788095,Walnut St/Middle St
246,38.749374,-83.848346,Locust St/N Easton St
160,38.683784,-83.773083,Castle Ave
216,39.004222,-83.808485,Purdy Rd
499,39.045052,-83.919275,Leininger St
185,39.156771,-83.936793,McCafferty Rd
185,38.966169,-83.973461,State Rte 774
185,38.947121,-83.679655,Appalachian Hwy
246,39.186012,-83.929495,E Lake St/S East St
246,38.871292,-83.901180,Water St/N Water St/E Ohio St
160,39.213280,-83.868235,/Brown County Inn Rd
362,38.964587,-83.728481,Pike St/1st St/Brown S Aly
390,38.653206,-83.758156,High St
216,38.668381,-83.766091,Hickory St
216,38.873032,-83.786171,N Columbus St/W Liberty St
185,39.187498,-83.933499,Humber/Oak Aly/W Humber
185,38.790667,-83.972223,State Rte 505
160,39.015412,-83.752739,5 Points Mowrystown Rd
160,39.015950,-83.936384,C-142B/Pleasant Hill Rd
160,38.790533,-83.963431,White Oak St/Plum Aly
160,38.867340,-83.906893,N High St
160,39.062242,-83.977305,Bardwell West Rd
160,38.856185,-83.787216,/US Hwy 62
334,38.669892,-83.772360,/Huntington Pkwy/US Hwy 52
160,38.956021,-83.819868,Purdy Rd
276,38.863376,-83.913472,Liming St/White Oak Ave
185,38.732958,-83.840851,Robins Way/Governor St
185,38.753484,-83.812679,/N Pole Rd
160,38.875407,-84.003410,Middle St
160,39.049436,-83.971420,Hess Rd/Lindsey Rd
445,39.030138,-83.941969,/Boyd Rd
362,38.964228,-83.728166,Cherry Aly
246,39.003801,-83.800016,Tri County Hwy
160,39.098505,-83.909985,/Driver-Collins Rd
305,38.866113,-83.790152,/South St/S Kendle St
185,38.728458,-83.838871,Virginia St/Pond Dr
390,38.866672,-83.784076,E Main St/N Marion St
305,39.025863,-83.943564,Boyd Rd
185,38.990154,-83.762750,Five Points Fincastle Rd
160,39.105009,-83.919570,State Rte 286/Clements Rd
185,38.983392,-83.829016,Tracy Rd/Hamer Rd
185,39.030807,-83.935023,/W Main St
185,38.963716,-83.727626,Emmons St/Plum Aly
390,39.032393,-83.936755,Campus Dr
160,38.991598,-83.776947,Tri County Hwy
246,38.844634,-83.904429,Free Soil Rd/Stonybrook Dr
160,39.069387,-83.897103,Greenbush East Rd
160,39.171517,-83.932767,T-580
160,38.919368,-83.987362,Walnut St/Bank St
160,39.119731,-83.919461,Upper Five Mile East Rd
552,38.738370,-83.838831,/Catherine St/Debrosses St
160,38.866444,-83.772979,/State Rte 125
185,38.747482,-83.801003,Howard Ridge Rd
160,38.970159,-83.729367,Tri County Hwy
472,38.865461,-83.787223,/S Columbus St
185,39.178069,-83.951748,/US Hwy 50
246,38.737242,-83.837606,Hamburg St/Debrosses St
160,38.862010,-83.898784,Brown St
160,39.005227,-83.802112,Oakdale Ave/Tri County Hwy
216,38.942915,-83.787088,Waynoka Dr
160,39.020346,-83.884302,/Tri County Hwy
246,38.869259,-83.898915,Elmwood Ct/Elm St
526,39.036097,-83.909776,Robin Ave/Linda Way
526,39.023407,-83.942275,Carpenter Rd/Trabecca Ln
185,38.873537,-83.898433,Spring Grove Dr
472,38.863678,-83.896991,E State St
160,38.979945,-83.751395,Twin Oaks Rd/Freeh Rd
390,39.013658,-83.986262,/Lower Cumberland Rd
276,39.006056,-83.814813,/Tri County Hwy
216,38.963097,-83.729353,US Hwy 62/Pike St/3rd St/Maple Aly
160,38.895580,-83.869739,/W Fork Rd
160,38.962241,-83.706110,/Tri County Hwy
1046,38.731938,-83.837043,/Waterworks Rd/S 2nd St
185,38.973274,-83.814422,Purdy Rd
185,39.021193,-83.925478,High Meadow Dr S
185,38.992821,-83.978840,/Gargonia Rd
160,38.868539,-83.827019,State Rte 125/Conn Rd
246,38.760159,-83.827700,Ripley Rd
185,39.075384,-83.925594,US Hwy 68/Greenbush East Rd
390,38.861007,-83.897767,Markley Ave/Home St
216,39.145599,-83.933604,US Hwy 68
185,39.008437,-83.811545,Gould/College Ave
362,39.024674,-83.921414,S High St
160,38.937244,-83.774949,Wagon//Sioux Dr
160,39.039312,-83.882402,Bardwell Buford Rd
160,39.061215,-83.909733,/Hillcrest Rd
160,39.016925,-83.715416,Stivers Rd
160,39.011531,-83.778190,/Stieman Rd
160,38.876518,-83.878584,/Camp Run Rd
334,39.019626,-83.860664,Appalachian Hwy
160,39.175488,-83.932222,US Hwy 68
185,39.173050,-83.932659,/T-580
216,39.051774,-83.963259,/Bodman Rd
160,39.036481,-83.964194,W Main St/Tri County Hwy
160,39.020721,-83.912304,Crescent St
216,38.918538,-83.983938,W Main St
246,39.016433,-83.920215,Emmons Pl/Liming Farm Rd
246,38.821232,-83.929515,/Loudon Rd
160,38.941051,-83.792059,Waynoka Dr/Papoose Dr
160,39.074231,-83.918476,Greenbush East Rd
160,39.040359,-83.998131,Old State Rd
185,39.021107,-83.865622,Appalachian Hwy
160,39.044862,-83.934371,Appalachian Hwy
390,38.738921,-83.841240,William St/S 2nd St
160,38.847151,-83.896741,/S Main St
216,38.862969,-83.768609,/State Rte 125
185,39.188193,-83.926758,E Carlier St/N Dunham Ave
160,39.156752,-83.905469,Evans Rd/State Rte 131
160,38.950848,-83.908818,/Kimball Ford Rd/S High St
445,38.789535,-83.969094,/John St
160,39.067176,-83.996117,/Bardwell West Rd
216,38.867202,-83.793476,State Rte 125
334,39.185969,-83.933948,Ridge Aly/S Main St/Stone Aly
160,38.743377,-83.813676,/Howard Ridge Rd
216,38.900634,-83.902104,S High St
160,39.040719,-84.005091,Todds Run New Harmony Rd
813,39.043025,-83.920474,Glover Dr
185,38.994341,-83.933769,State Rte 774/Oakland-Locust Ridge Rd
185,39.188870,-83.926880,Lindsey Dr
305,39.007736,-83.807675,Tower Ln
305,38.866846,-83.904266,Andrews Ave/N Main St
216,38.745583,-83.843871,/S 3rd St
160,38.931304,-83.773633,Stageline Dr/Waynoka Dr
185,38.673777,-83.768291,Circle Rd/Big Three Mile Creek Rd
246,38.656567,-83.763886,Gourdes Pt/US Hwy 52
276,39.012341,-83.795906,/Appalachian Hwy
160,39.028030,-83.946061,Heritage Blvd/Maple Ridge
185,39.187945,-83.974882,Berlin Dr/Lorelei Dr
160,38.955370,-83.844049,/Steinman Rd
246,38.872543,-83.786274,N Columbus St
160,38.773833,-83.792226,Bernard Schwallie Rd/Chicken Hollow Rd
160,38.992415,-83.717034,Katterman Rd/
390,38.862473,-83.891605,Race St
276,38.843976,-83.904522,Free Soil Rd/Green Acres Dr
185,39.162697,-83.932485,US Hwy 68/
246,39.032738,-83.944953,Brooks-Malott Rd/W Main St
185,39.188498,-83.932930,Apple St/W Covalt St
552,38.733023,-83.837705,Hanover St/S 2nd St
216,38.662048,-83.765524,Power Ave
185,39.003448,-83.824928,/Stephans Rd
334,39.027588,-83.948339,Longwood Blvd
216,38.927168,-83.984613,State Rte 774
216,38.861004,-83.906898,Progress Ave
185,38.937410,-83.786101,Beach Cove
334,39.002010,-83.796568,Tri County Hwy/Livemore Ln
579,39.186073,-83.933224,Ridge Aly/Oak Aly
160,38.958883,-83.841217,Steinman Rd
684,38.737041,-83.840121,/S 2nd St
362,39.020476,-83.842195,Appalachian Hwy
160,39.000318,-83.781855,Stieman Rd
160,38.825865,-83.817369,/Gooselick Rd
160,38.776158,-83.792907,Bernard Schwallie Rd
185,39.008447,-83.811614,College Ave
390,38.855324,-83.898335,S Main St/Home St
216,38.849189,-83.904015,Free Soil Rd//Lakeview Acres Dr
216,38.867646,-83.897238,E North St
160,38.938710,-83.772744,Bow Dr/Waynoka Dr
216,39.141003,-83.934190,/US Hwy 68
305,38.652760,-83.757003,High St
185,38.944936,-83.782574,Gee Dr/Waynoka Dr
216,38.996286,-83.740784,Busch Rd
185,38.923660,-83.784086,Ashridge Arnheim Rd/Waynoka Dr
185,39.121099,-83.932953,US Hwy 68
305,39.019006,-83.925132,/Carpenter Rd
362,39.026843,-83.943179,/Boyd Rd
160,38.919044,-83.989671,State Rte 774/Wooster Ave/S Orchard St/Wayne Ave
526,38.861401,-83.905757,S Pleasant St
160,38.777878,-83.839177,/Schwallie Rd
276,39.177092,-83.953406,/US Hwy 50
160,38.928694,-83.877786,/Hamer Rd
185,38.962891,-83.914032,S High St
362,38.665888,-83.765711,Budgig Dr
160,39.185978,-83.937692,US Hwy 50/W Pike St
160,39.002577,-83.794306,Ogden Ln
813,38.861686,-83.886552,/E State St
160,38.913176,-83.897942,/Wahlsburg East Rd
362,38.864298,-83.907150,Alley St
160,38.980776,-83.756259,/Tri County Hwy
160,38.670757,-83.766935,Barbour Dr
185,38.783809,-83.856364,Martin Ln/Old State Rte 68
185,38.743779,-83.838800,US Hwy 62
185,38.950372,-83.684974,John Woods Rd
276,38.672192,-83.771640,Friendship Ln
334,38.727881,-83.833572,Kevin Dr/S 2nd St
185,38.784742,-83.801745,/Caryl Acres Dr
160,39.002366,-83.781591,Stieman Rd
185,38.749123,-83.849036,N Front St/Locust St
160,38.869859,-83.913038,Blair Rd/W State St
185,38.931945,-83.947023,/Smoky Row Rd
334,38.659145,-83.767366,Maryland St/Delta Ln
216,38.789447,-83.964866,/Brown St
185,39.023373,-83.916841,N Short St
185,39.020134,-83.843183,Appalachian Hwy
160,38.934544,-83.855535,/Delhi-Arnheim Rd
160,39.021946,-84.006631,Maple Grove Rd
418,38.661099,-83.769014,Wood Dr/Maryland St
390,39.032798,-83.936521,/Campus Dr
160,38.916322,-83.948451,Wahl Rd
160,39.004703,-83.808930,Hope Ln
185,38.952471,-83.760866,Ittawamba Dr
276,38.788378,-83.968224,Cherry Aly
160,38.836414,-83.840771,US Hwy 68
160,39.036674,-83.965160,/Tri County Hwy
160,39.182498,-83.965077,Hindenburg Dr/Lorelei Dr
160,38.866819,-83.773566,/Russellville-Winchester Rd
276,39.011712,-83.924686,/S High St
445,38.912518,-83.975293,E Main St
305,38.978286,-83.915250,/S High St
246,38.854126,-83.897748,/S Main St
160,38.901417,-83.962806,Daugherty Marks Rd/State Rte 125
246,38.653514,-83.756375,Mountain St
160,39.085647,-83.987400,Greenbush West Rd/Crosstown Rd
276,38.654952,-83.758668,Fish Aly
160,38.922603,-83.985842,North St/N Orchard St
276,38.655193,-83.763209,Short St/High St
160,38.961198,-83.817893,Purdy Rd
160,39.005658,-83.741321,Busch Rd
185,39.028741,-83.945803,Heritage Blvd
216,38.994296,-83.713673,US Rte 62/Main St
552,39.015258,-83.808366,Appalachian Hwy
216,38.652694,-83.756834,High St
160,39.026134,-83.911978,E Main St/Castle Ave
185,39.004582,-83.805472,Mussman St/Fairview Ave
185,38.934610,-83.770746,Waynoka Dr/Indian Dr
994,38.732331,-83.837283,/S 2nd St
276,39.177723,-83.952339,/US Hwy 50
160,38.916445,-83.985955,Sisterville Rd
788,39.045009,-83.921853,N High St
160,38.867128,-83.792206,State Rte 125/W Main St
160,39.026904,-83.906149,Cook Dr
185,38.930645,-83.786281,Iriquois Dr/Comanche Dr
160,38.887741,-83.899860,/Mount Orab Pike
185,38.951670,-83.738592,US Hwy 62
160,38.777823,-83.920265,/US Hwy 52
362,38.729351,-83.835001,S 2nd St
216,39.018661,-83.877166,/Klein Rd/T-582
276,38.867483,-83.783185,Sir William Wallace St
276,39.013702,-83.808801,/Bachman Rd
305,39.025462,-83.916117,Water St
160,39.084393,-83.989515,/Greenbush West Rd
185,38.911952,-84.012302,State Rte 774/Pride Hill Rd
276,38.654482,-83.758935,US Hwy 52/Fish Aly
305,38.741808,-83.842076,US Hwy 62
160,38.986667,-83.734820,/Heaton Rd
276,38.669725,-83.769299,Bradford Ln/Christopher Rd
305,39.186784,-83.931098,E Pike St/Russell St
160,38.987193,-83.811522,Staten Rd/Purdy Rd
160,38.992461,-83.727737,Five Points Fincastle Rd
216,38.970362,-83.840525,Hamer Rd
160,38.873245,-83.896713,Spring Grove Dr/Spring Meadow Dr
160,38.661619,-83.761262,State Rte 41/Market St/Fishing Gut Rd
276,38.862237,-83.903914,/S Apple St
276,39.023744,-83.904008,Candlelight Way
160,39.092635,-83.933802,Snider-Malott Rd
160,38.982427,-83.973533,Robinson Rd/C-88
160,38.943444,-83.781583,Tupelo Dr//Waynoka Dr
160,39.041843,-83.991637,/Tri County Hwy
160,38.778270,-84.038370,/US Hwy 52
160,38.852110,-83.787373,US Hwy 62
418,38.998482,-83.921702,State Rte 774/S High St/Oakland Rd
160,39.039008,-83.942515,Brooks-Malott Rd
160,38.648981,-83.731586,US Hwy 52
276,38.652281,-83.758209,US Rte 62/Water St
160,38.866876,-83.769540,Russellville-Winchester Rd
445,38.652937,-83.757461,High St
246,39.186946,-83.934106,Vine Aly/N Main St
185,39.024983,-83.917797,Pleasant St/Keethler St
160,38.913251,-83.898900,/Wahlsburg East Rd
160,39.181612,-83.954945,Victory Ln
185,38.899430,-83.901817,S High St
160,38.937220,-83.776455,Wagon/Indian Cove/Wagon Wheel Dr
160,38.911288,-83.856297,W Fork Rd
160,39.153066,-83.932645,/US Hwy 68
334,38.919058,-83.985655,Edgewood
246,38.887441,-83.893455,Hamer Rd/S High St
579,39.015304,-83.808226,State Rte 134
216,38.860830,-83.893110,/Lake St/Markley Ave
185,38.679026,-83.773976,US Hwy 52/Old US Hwy 52
185,39.192679,-83.963077,/Rhine Dr
362,38.865903,-83.902712,/E Grant Ave
216,38.850933,-83.850454,/Ellis Farm Rd
276,39.031831,-83.940042,/W Main St
160,38.942656,-83.768162,Squaw Cove/Waynoka Dr
276,39.055504,-83.983128,Eastwood Rd
216,38.859477,-83.874320,E State St/No 7 Schoolhouse Rd
246,38.868518,-83.788248,/Middle St
736,38.864622,-83.904502,E State St/S Main St/W State St
160,38.918955,-83.989810,State Rte 774
276,39.012932,-83.797504,C-3E/
185,39.180370,-83.932683,US Hwy 68
445,38.861852,-83.904798,4th St/S Main St
185,38.861649,-83.876152,S High St
160,39.079917,-83.978145,Eastwood Rd
160,38.973650,-83.926100,Sterling Rd
305,39.031714,-83.891716,Appalachian Hwy
185,38.903014,-83.902275,/S High St
246,38.999339,-83.792999,Staten Rd
185,38.664312,-83.764545,Badig/Glenda Dr
736,38.871521,-83.903740,/E Ohio St/N Main St
185,38.848724,-83.783049,George Miller Rd
160,38.964697,-83.726509,Railroad St/Church Aly
445,38.732644,-83.838602,Hanover St/Oak St
216,38.888682,-83.889691,/Hamer Rd
160,38.938092,-83.790461,Creek Dr/Creek Cove/Waynoka Dr
160,38.953562,-83.760405,Louderback Rd
185,38.728496,-83.839174,Virginia St/Pond Dr
216,39.027362,-83.942981,Maple Ridge/Boyd Rd
334,39.181773,-83.932755,Apple St
305,39.018707,-83.924089,Carpenter Rd/S High St
246,38.872032,-83.901095,Water St/Blair Ave
160,38.936583,-84.015382,State Rte 125
185,39.163987,-83.932579,/US Hwy 68
160,39.002408,-83.710093,US Rte 62
160,38.857329,-83.894261,/Banting Dr
160,38.868272,-83.906785,W North St/N High St
216,38.942850,-83.786945,/Waynoka Dr
276,38.790100,-83.969093,/John St/Columbia St
160,38.847293,-83.937562,/White Swan Rd
418,38.659675,-83.768791,Washington St/Pennsylvania St
418,39.031782,-83.931911,Western Ave
216,39.051522,-83.963354,Bodman Rd/Appalachian Hwy
185,38.807601,-83.780506,State Rte 353
185,38.935722,-83.738705,US Hwy 62/
305,38.727668,-83.835545,/Lawrence St/Elizabeth St
185,39.025789,-83.917649,Keethler St/Water St
185,39.049154,-83.911219,/Crawford-Day Rd
160,38.872407,-83.938369,Eden Rd/Oak Grove Rd
216,38.654490,-83.761444,Pleasant Aly/High St
418,38.878364,-83.900707,/Country Place Trl/Mount Orab Pike
185,38.858023,-83.952411,Oak Grove Rd
160,38.860804,-83.891677,Race St/Markley Ave
579,38.862974,-83.893115,Lake St/E State St
362,39.040858,-83.918139,/Appalachian Hwy
160,38.874334,-83.845546,Day Hill Arnheim Rd/Camp Run Rd
305,38.863738,-83.912354,Liggett St/White Oak Ave
185,39.020307,-83.830532,Appalachian Hwy
216,39.006568,-83.808906,S Main St
216,39.027332,-83.942994,/Boyd Rd
185,39.172793,-83.960735,US Hwy 50
160,39.007741,-83.779872,/Stieman Rd
160,38.841711,-83.787354,US Hwy 62
160,38.881217,-83.855292,/Camp Run Rd
160,39.016710,-83.914703,Barony Ln/Liming Farm Rd
160,38.855038,-84.027957,/Bolender Rd
160,38.919644,-83.991001,Wayne Ave
160,38.913664,-84.014238,State Rte 774/
185,39.136886,-83.933912,US Hwy 68
160,38.966494,-83.777023,Pool Kuntz Rd
160,38.878411,-83.998833,South St/Main St/Eden Rd
160,38.904198,-83.944615,Gillette Station Rd
276,38.865883,-83.907870,Billdee Rd/W Grant Ave
305,39.046247,-83.940378,Appalachian Hwy
160,38.843910,-83.890475,/Private Rd
185,39.035862,-83.912933,S Michele Dr
276,38.740665,-83.842293,Victoria St/S 2nd St
160,39.171751,-83.962532,US Hwy 50/Vera Cruz Rd
185,39.182580,-83.978373,Flensburg Dr/Lorelei Dr/Dortmund Dr
185,39.004665,-83.804799,Mussman St
526,38.867796,-83.787693,North St/1st Aly
216,38.944444,-83.790030,Mesa Cove
246,38.790281,-83.971646,/Columbia St
185,38.890228,-83.885052,W Fork Rd/Hamer Rd
472,39.036564,-83.909185,Robin Ave
160,38.934803,-83.850610,W Fork Rd/Delhi-Arnheim Rd
445,38.668851,-83.766878,Ridgeway Rd
216,38.743859,-83.837988,Dump Rd
246,39.180732,-83.947244,/US Hwy 50
160,39.001943,-83.808111,Purdy Rd
160,38.930885,-83.775476,Mustang Ct/Mustang Dr
160,38.916333,-83.986122,Sisterville Rd
160,39.019662,-83.787928,Kelch Rd/Sardinia-Mowrystown Rd
276,39.040891,-83.986835,Salem Church Rd/Eastwood Rd/Tri County Hwy
216,38.946126,-83.763314,Atoka Cove/Waynoka Dr
160,39.007427,-83.810895,Railroad St/Highland Ave
276,38.978106,-83.915179,/S High St
246,39.176752,-83.953978,/US Hwy 50
762,38.871650,-83.903712,/Mount Orab Pike/N Main St
160,38.999553,-83.805594,Brown Ave
160,38.864481,-83.910594,W State St
160,38.789308,-83.715728,State Rte 763
276,39.032420,-84.013395,Todds Run Foster Rd
160,38.942297,-83.768918,Waynoka Dr
160,38.802893,-83.794076,US Hwy 62/
445,39.008486,-83.808527,Tower Ln/Main St/Alley
160,39.019638,-83.751131,5 Points Mowrystown Rd/Busch Rd
160,38.977795,-83.786465,/Fite-Hauck Rd
418,38.966906,-83.727160,US Hwy 62/Appalachian Hwy
160,38.954618,-83.911413,S High St
185,38.950108,-83.685304,John Woods Rd/
185,38.980061,-83.915949,/S High St/Bingamon Rd
216,39.020638,-83.931933,Carpenter Rd
246,39.010446,-83.799099,C-3E/King Rd/Sardinia-Mowrystown Rd
216,39.181999,-83.933537,Old US Hwy 68
160,38.990580,-83.825874,Hamer Rd
160,38.917344,-83.764328,/Ashridge Arnheim Rd
160,38.943249,-83.905859,S High St
185,38.947238,-83.847903,Steinman Rd
160,39.178188,-83.968798,Bach Cove
160,39.117746,-83.970498,Bressler St
246,38.867046,-83.903389,Short St/N Apple St
185,38.910226,-83.972898,/State Rte 125/E Main St
160,39.203449,-83.894992,/State Rte 251
160,39.002242,-83.761174,/Katterman Rd/5 Points Mowrystown Rd
334,38.754014,-83.852308,N Lower 2nd St/US Hwy 52/Old State Rte 68
185,39.176874,-83.932321,US Hwy 68
276,38.936784,-83.789989,Hatchet Cove
160,38.788874,-83.964890,Washington St/Brown St
160,39.020004,-83.919306,Compton Pl
334,38.788407,-83.969121,Johnson St/Cherry Aly
334,39.008171,-83.809644,Broad St/College Ave/Graham St
160,39.115819,-83.932705,US Hwy 68
917,39.044765,-83.921793,N High St
246,38.852042,-83.897610,S Main St
160,39.134118,-83.966973,Gauche Rd
185,39.152683,-83.940174,Gauche Rd
160,39.020465,-83.750864,5 Points Mowrystown Rd
246,39.188626,-83.929970,N East St/Brown
246,38.866556,-83.781880,State Rte 125
160,39.009184,-83.811365,Gould
216,38.895104,-83.901420,Mount Orab Pike
185,38.953439,-83.760725,/Louderback Rd
334,38.915184,-83.978956,Park St/E Main St/W Main St
216,38.662768,-83.766035,Budig Dr
390,39.036247,-83.908893,Robin Ave
305,38.861190,-83.907588,Alley St
499,39.183129,-83.932499,Apple St
334,38.867622,-83.785825,Collins Aly/Sir William Wallace St
160,39.170443,-83.932384,US Hwy 68/T-580
160,39.156362,-83.932243,US Hwy 68
160,39.164998,-83.976390,/US Hwy 50
160,39.155145,-83.934925,/Gauche Rd
185,38.652338,-83.754454,US Hwy 52
160,38.860673,-83.880987,E State St/Dr Faul Rd
160,38.913311,-83.764554,Yockey Rd/Ashridge Arnheim Rd
276,39.009690,-83.789881,Appalachian Hwy
160,38.871336,-83.787749,Middle St/W Clark St
246,39.014114,-83.920826,Oak Ridge Dr/Beacon Hill Dr
631,38.866805,-83.786497,N Highland St/E Main St
185,38.855361,-83.902208,Free Soil Rd
605,39.041567,-83.920295,Appalachian Hwy
185,39.005189,-83.805359,Fairview Ave/Charles St
246,39.003757,-83.799934,/Tri County Hwy
216,39.044915,-83.904812,/Bardwell Buford Rd
160,38.868208,-83.905858,N Green St/W North St
185,38.997546,-83.921417,S High St
185,38.732342,-83.839269,/Hanover St
160,38.958206,-83.749025,Maple Dr/Martin-Alexander Rd
216,39.029397,-83.928208,/W Main St
160,39.070197,-83.903632,Hillcrest Rd
185,38.659973,-83.761300,Market St
185,38.875870,-83.866391,Camp Run Rd
216,39.017886,-83.819671,/Appalachian Hwy
160,38.949110,-83.777320,Rawhide Dr/Custer Dr
160,39.179789,-83.976296,Flensburg Cove
160,38.751110,-83.848133,Sycamore St/Church Aly
160,38.932361,-83.786697,Chippewa Cove/Comanche Dr
276,38.959510,-83.913592,S High St/Bethel-New Hope Rd
160,38.747796,-83.848169,N Front St/Mulberry St
216,39.012992,-83.841164,Bean Rd/Tri County Hwy
246,38.882092,-83.899889,Mount Orab Pike
762,39.038614,-83.919905,N High St
160,39.087002,-83.991402,Crosstown Rd
390,39.186932,-83.929695,N East St/E Pike St/S East St
216,38.876450,-83.876937,/Camp Run Rd
276,39.008457,-83.954342,/Pleasant Hill Rd
246,39.061252,-84.014861,Appalachian Hwy
160,38.929384,-83.780661,Waynoka Dr
185,38.919060,-83.982215,Richey St/Lucas Rd
160,39.090679,-84.002689,Jeff Ln/Crosstown Rd
160,38.856699,-83.713710,/Oak Woods Rd
185,39.009163,-83.810613,Pluhot
276,38.672009,-83.771901,Friendship Ln/Christopher Rd
160,39.016102,-83.936288,/C-142B
216,38.793409,-83.799605,US Hwy 62
246,38.873878,-83.925242,State Rte 125
216,39.187863,-83.929822,N East St/E Humber St
216,38.872216,-83.786343,N Columbus St/Fairground Dr
160,38.831921,-83.892831,Evans Run Rd
160,39.062917,-83.908446,/Hillcrest Rd
276,39.019570,-83.862793,Sicily Rd
160,39.010431,-83.801871,Pleasant St/Thompson St
185,38.952773,-83.681498,/Tri County Hwy
276,38.656231,-83.763265,US Hwy 52/Maple Aly
185,38.921300,-83.749374,US Hwy 62
160,39.076447,-84.003934,Greenbush West Rd/Edgington Rd
362,38.861202,-83.897755,Fulton Ave/Home St
185,38.750936,-83.848723,N 2nd St/Sycamore St
216,38.673211,-83.775760,River Rd/Stivers Rd
276,39.017846,-83.924157,S High St
160,39.229623,-83.908821,State Rte 123
160,39.126444,-83.977178,State Rte 286/Bloomrose Rd/Gauche Rd
185,38.660215,-83.761359,Market St
246,39.019489,-83.850431,Appalachian Hwy/Bean Rd
185,38.913290,-83.899409,/Wahlsburg East Rd
216,38.789491,-83.967678,Jackson St
160,39.027132,-83.907435,Moler Circle Dr
160,39.061672,-83.892912,Webber Rd/Lindsey Rd/Twp Hwy 57
276,38.659632,-83.764801,Millston Dr
160,38.917850,-83.980411,Richey St
334,39.024187,-83.920791,College Ave
185,38.896235,-83.901244,Mount Orab Pike
418,39.061051,-84.012860,Appalachian Hwy
185,38.864024,-83.902809,S Water St
185,39.189073,-83.974235,Berlin Cove
160,39.024612,-83.904467,E Main St/Candlelight Way
1046,38.723862,-83.831720,Haitz Dr/Govt Ramp Rd
160,38.837632,-84.002360,Barr School House Rd/State Rte 505
334,39.181879,-83.932746,Apple St
185,39.025089,-83.906767,/E Main St
334,38.874367,-83.885863,S High St/Camp Run Rd
160,39.011155,-83.801539,Pleasantfield Dr
185,39.006053,-83.784921,Appalachian Hwy
185,39.173501,-83.991600,/State Rte 131
160,38.750491,-83.849947,N Front St/Sycamore St
160,39.071208,-83.877685,Greenbush East Rd
160,38.941893,-83.783502,/Waynoka Dr
216,38.970065,-83.840329,Brownstown Arnheim Rd/Catalpa Corner Rd
160,39.002411,-83.761051,5 Points Mowrystown Rd
185,38.979349,-84.003355,/Starling Rd
305,39.046041,-83.939442,Appalachian Hwy
445,38.653007,-83.757644,Ferry St/High St
390,38.684124,-83.775443,US Hwy 52
160,38.735263,-83.834559,Buena Vista Dr
160,39.151968,-83.995361,US Hwy 50
160,38.857742,-83.865336,Hillman Ridge Rd/T-590
185,38.999798,-83.738760,Busch Rd
334,38.879472,-83.861110,/Camp Run Rd
160,39.039816,-84.005369,Todds Run New Harmony Rd
160,38.789060,-83.715415,/State Rte 763
185,38.658380,-83.765542,/US Hwy 52
499,39.187039,-83.933418,Vine Aly/Oak Aly
185,38.930961,-83.775760,Mustang Ct
390,38.668255,-83.771438,Bradford Ln/Ernies Ln
160,38.852121,-83.894407,Douglas Cir
216,39.008184,-83.787827,Appalachian Hwy
362,38.739905,-83.841832,S 2nd St/River St
246,38.659605,-83.764781,Millston Dr
160,38.936220,-83.790910,Creek Cove
185,38.870936,-83.895438,E Grant Ave/E Ohio St
160,39.213228,-83.867231,/Brown County Inn Rd
160,38.925862,-83.994121,State Rte 125
185,39.187312,-83.926933,E Pike St/Hall St
334,38.743511,-83.844014,S 2nd St
246,38.865428,-83.910917,Crooked Creek Ln
334,38.739845,-83.840709,St Charles St/Center St
445,39.042839,-83.921249,/N High St
185,38.882401,-83.885843,Airport Rd
160,38.862459,-83.900897,/Marshall Ave
160,38.919431,-83.990528,Wayne Ave
445,38.662342,-83.768480,US Hwy 52/Elm St
246,39.008042,-83.805775,Shaw
160,39.191193,-83.962027,Lorelei Dr/Oder Dr
445,39.011283,-83.807988,Main St
185,39.178426,-83.951132,US Hwy 50
216,38.652188,-83.755542,High St
865,38.732413,-83.836226,Division St/Congress St
362,38.871093,-83.898153,/E Ohio St
160,38.930863,-83.901039,S High St
185,38.784761,-83.804854,US Hwy 62//Howland Rd
390,38.863173,-83.894202,E State St
185,38.781836,-83.927124,/US Hwy 52
160,39.061479,-83.892038,/Lindsey Rd
160,39.057825,-84.011577,Holman Rd/Greenbush Cobb Rd
185,38.929406,-83.997897,/State Rte 125
185,39.009240,-83.812482,Manning Ln
216,38.750714,-83.849347,Sycamore St/N Easton St
246,39.001352,-83.922599,S High St/Lake Grant Access Rd
246,39.184902,-83.980184,Essen Dr/Cologne Dr
160,39.072541,-83.909091,Greenbush East Rd/
160,38.948952,-83.989645,/Bolender Rd
160,39.045215,-83.911401,/Day Rd
216,38.667198,-83.765086,Pine St/Bramel Dr
160,39.037708,-83.975049,/Upper Cumberland Rd
160,38.921166,-83.986166,North St/Dooley Ln/North Ave
418,39.045002,-83.919774,Leininger St
160,39.015764,-83.877073,Klein Rd/New Hope-White Oak Station Rd/Tri County Hwy
185,39.054029,-83.924252,/US Hwy 68
160,38.928019,-83.828882,Day Hill Arnheim Rd
216,38.924758,-83.992964,Cemetary Rd/State Rte 125
160,39.027421,-83.947864,Longwood Blvd
334,38.750367,-83.831541,Creekview
526,38.732935,-83.837652,/Hanover St/S 2nd St
160,38.940097,-84.012974,/Yankeetown Rd
216,38.941883,-83.777557,Waynoka Dr
185,39.049053,-83.969588,Hess Rd
160,39.166273,-83.973601,US Hwy 50
160,39.015098,-83.945344,/Old State Rd
246,39.185294,-83.962005,Schmidt Dr/Oder Dr
160,39.192968,-83.925817,Anderson State Rd
605,39.027266,-83.919933,Hickory Aly/S High St
185,38.656247,-83.759812,Black Gum St
160,38.902323,-84.034601,Feesburg Poetown Rd
246,38.748276,-83.846881,N 2nd St/Mulberry St
305,39.055417,-83.914172,/Hillcrest Rd
160,38.985660,-83.996221,Liming-Van Thompson Rd
160,39.251807,-83.977816,Garner Rd/Fayetteville Blanchester Rd
276,38.869830,-83.786854,Walnut St/N Columbus St
160,38.968537,-83.914388,/S High St
472,39.030878,-83.932288,Hyde Park Dr
334,38.674010,-83.770749,Vista Cir
160,39.048034,-83.964803,Hess Rd
160,38.904134,-83.924082,T-50
185,39.014721,-83.982963,Upper Cumberland Rd/New Harmony Shiloh Rd
160,39.003892,-83.823119,Stephans Rd
418,39.003954,-83.782920,Yochum Rd
160,38.783583,-83.855079,/Old State Rte 68
160,38.923649,-84.005726,Leonard Rd
276,38.866557,-83.781951,E Main St/State Rte 125
276,38.868737,-83.900166,/Kenwood Ave
246,39.140121,-83.934278,US Hwy 68/Vilvens Rd
276,38.965894,-83.816478,/Purdy Rd
