Estimated daily crossings,Latitude,Longitude,Name
160,39.739824,-84.092614,Stedman Ln/Mapleview Dr
160,39.769887,-84.015103,Beaver Valley Rd
362,39.811129,-84.020280,E Lindberg Ave/Princeton Ave
2301,39.693987,-84.100037,Holly Dr/Magnolia Ln
276,39.739452,-84.093976,I- 675
160,39.652648,-83.757572,Glenwood Dr
246,39.760015,-84.091938,/I- 675
334,39.701111,-83.932946,N Detroit St/Omalee Dr
1226,39.690887,-84.105062,Stonecastle Dr
2141,39.779943,-84.072017,Fieldstone Cir
160,39.692737,-84.088417,Chalfonte Dr
160,39.661033,-83.731521,/Nelson St
160,39.767859,-84.088428,Penrose Ct
305,39.756878,-84.067329,Cobblestone Ct
160,39.836101,-84.006813,Hilltop Dr
418,39.828481,-84.011398,School Dr
160,39.676024,-83.920166,/S Columbus St
160,39.561326,-83.847935,US Hwy 68
185,39.653823,-84.099229,Sugar Leaf Dr/Possum Run Rd
246,39.706906,-83.924371,N Regency Dr
246,39.793449,-84.013405,Green Oak Ct
185,39.722463,-84.018387,Wedgewood Dr/Redcoat Dr
334,39.775934,-84.022389,/Beaver Valley Rd
160,39.595665,-84.029078,/Clear Springs Rd
334,39.788949,-84.081002,Q St/5th St
390,39.770671,-84.084998,I- 675
362,39.689813,-83.964467,US Hwy 35 Bus
3419,39.784265,-84.068902,Cimarron Cir
185,39.707560,-84.044258,Stonewall Dr/Southern Belle Blvd
185,39.693647,-84.061259,Indian Ripple Rd
276,39.798539,-84.054927,G Rd/G St
246,39.688132,-83.955729,Reid Ave/Robert Ln
305,39.799173,-84.032594,Wiley St/Forest St
418,39.739690,-83.805962,Parkview Ln/N Main St
160,39.824850,-84.029651,Cedar Dr/N West St
246,39.656193,-83.735036,Verity St/S Limestone St
185,39.653815,-84.095046,Sand Stone Ct/Sugar Leaf Dr
276,39.781814,-84.011371,Kyle Ln
390,39.776414,-84.009277,Dutch Mill Dr/Valle Greene Dr
160,39.644417,-83.788987,Apache Trl/Blackfish Ct
246,39.738235,-83.804829,Mill St/Wilmington Rd
185,39.844005,-83.996130,State Rte 444/Spangler Rd
185,39.632785,-84.085337,Vemco Dr
305,39.682581,-84.102156,Wagner Rd/Oleva Dr
552,39.639960,-84.110936,Wilmington Pike
216,39.581921,-83.723563,Owens Rd/Chillicothe St
216,39.769707,-84.088259,I- 675
160,39.795296,-83.826421,/S Clay St
472,39.766897,-84.066407,Parliment Ct
185,39.776775,-83.988532,Guardian Ct
334,39.796813,-84.087974,Huffman Dam Rd/Marl Rd
185,39.726693,-84.021192,Chelsea Ct
160,39.707804,-84.081087,Lofty Oaks Dr/Frostwood Dr/Crestshire Ct
276,39.799642,-84.028004,Tennessee St/Vine St
216,39.658930,-84.082088,Soaring Heights Dr/Feedwire Rd
605,39.758793,-84.052063,Lakeview Dr
160,39.734645,-84.045794,Hanes Rd
684,39.669454,-84.102328,Roscommon Way/Belfast Dr
160,39.602279,-84.033399,Centerville Rd/Clear Springs Rd
160,39.696991,-84.038853,Southfield Dr
305,39.832010,-83.989061,Cottage Court Dr
160,39.730159,-83.966518,Southdown Ct
839,39.777699,-84.060803,Executive Park Blvd
185,39.722562,-83.935717,N Detroit St/Old Springfield Pike
185,39.793602,-84.052073,B Rd/A Rd
160,39.796696,-84.050366,A Rd/F Rd
216,39.652230,-84.081663,Grand Oak Trl/Country Wood Dr
334,39.761718,-84.046336,/Edgewater Dr
305,39.651177,-83.760441,Oakdale Dr/Glenwood Dr
185,39.708687,-84.052691,Shakertown Rd/Carlsbrook Dr
334,39.817016,-84.001975,E Xenia Dr//State Rte 235
185,39.663370,-83.912902,US Hwy 68/
185,39.646050,-84.099168,Beryl Dr/Bledsoe Dr
185,39.667345,-83.735881,N Limestone St/Maplewood Dr
334,39.682261,-83.925748,Hivling St/S Collier St
160,39.748249,-84.040869,Hedge Gate Blvd/Kings Gate Blvd/Ct Dean
334,39.723111,-84.043542,N Dayton Xenia Rd/Darlington Dr
185,39.780345,-84.040656,Thompson Dr/Faircreek Ridge Dr
2328,39.772102,-84.049687,/Centre Dr/Crossing Blvd
526,39.802833,-83.890930,E Davis St/Xenia Ave
305,39.660948,-83.977024,Vimla Way/W Barnhill Pl
185,39.693055,-84.064620,Baronwood Blvd
160,39.743239,-84.071267,Crestview Ct
185,39.713513,-83.885259,Hughey St
160,39.601964,-84.013838,US Hwy 42
185,39.832810,-84.012156,Lohnes Dr/Mitman Dr
216,39.682460,-83.960078,Drake Dr/Beatty Dr
839,39.768136,-84.053767,Fairfield Commons Dr
246,39.679475,-83.937843,Center St
185,39.746085,-84.022930,Amys Ridge Ct
185,39.687469,-83.934466,Race St/N West St
362,39.827379,-84.027191,Pierce Dr
305,39.699405,-83.903371,Kingman Ct/Rising Hill Dr
216,39.836040,-83.992798,I- 675
362,39.808505,-84.021565,Columbia Ave/E McLaughlin Ave
362,39.667559,-84.108699,Brown Rd/Wilmington Pike
185,39.668265,-83.907749,US Hwy 35
891,39.658677,-84.109430,/Wilmington Pike
160,39.739387,-84.068206,Yalta Dr/Highmont St
472,39.772777,-84.090761,Colonel Glenn Hwy/
305,39.743224,-83.809576,/W Chillicothe St
305,39.768274,-84.075613,Reserves Blvd/Grange Hall Rd
185,39.737752,-83.813749,US Hwy 42
246,39.788187,-83.992444,Grisham Ln
276,39.767163,-84.075736,Grange Hall Rd/Gardenview Dr/Lujon Dr
334,39.727021,-84.026560,Priya Ct
216,39.794857,-84.052113,McClerron Mem Skwy
710,39.690787,-84.100453,Bascule Bridge Dr/Stonecastle Dr
472,39.708776,-84.028048,US Hwy 35
1200,39.696174,-84.100408,Indian Ripple Rd
499,39.787089,-84.078477,National Rd
216,39.782140,-84.014083,Sycamore Dr
526,39.644910,-84.089949,Glenberry Cir
472,39.791078,-84.032621,/S Cedar Village Ct
216,39.732709,-84.045977,Lantz Rd/Hanes Rd
160,39.603693,-84.009290,Little Miami Scenic Trl
2515,39.693590,-84.100104,Magnolia Ln/Juniper Way
246,39.671859,-83.963665,Texas Dr/Utah Ct
185,39.659119,-84.082987,Feedwire Rd/Wren Wood Plat
160,39.662877,-83.754437,Old US Rte 35 E
246,39.656103,-83.732497,Verity St/S Sycamore St
160,39.653150,-83.707216,Old US Rte 35 E
246,39.658917,-83.729715,/E Xenia St
390,39.653406,-84.109879,/Wilmington Pike
185,39.834893,-83.974122,Armstrong Rd
160,39.672733,-83.922843,Taylor Ln
1149,39.783760,-84.027239,/Old Yellow Springs Rd
185,39.701594,-84.090435,Woodcroft Trl/Vineland Trl
390,39.727275,-84.052618,Parkway Ct/Rodenbeck Dr
472,39.677064,-84.100186,I- 675
1589,39.777765,-84.059029,Center Park Blvd
160,39.738062,-84.081965,Southview St/Milner Dr
472,39.816486,-84.000746,E Xenia Dr/I- 675
160,39.743280,-83.684702,Selma Jamestown Rd/S Charleston Rd
526,39.742160,-83.805387,East St/E Xenia Ave
185,39.730618,-84.021954,Eastwind Dr/Kewanna Ln
246,39.644353,-84.080333,Ter Creek
160,39.685174,-84.053062,Narrows Trce/S Bellbrook Rd
499,39.774310,-84.044254,Court View Dr/Vista View Dr
160,39.713945,-84.021258,N Dayton Xenia Rd
160,39.722076,-83.859464,US Hwy 42
305,39.737984,-84.083310,Southview St/Grange Hall Rd
305,39.775137,-84.022274,Beaver Valley Rd
160,39.672625,-83.923028,Tyndale
865,39.706278,-84.019683,Orchard Ln/US Hwy 35
362,39.643563,-84.099609,Bledsoe Dr
499,39.684886,-83.943412,Vine St/N Allison Ave
362,39.639272,-84.111127,Wilmington Pike
499,39.747030,-83.807708,Walnut St/Orr St
160,39.649521,-83.763444,Quarry Rd
185,39.829078,-83.945378,Clearcreek Trl/Enon Rd
160,39.654643,-83.773719,Delaware Trl/Shawnee Trl
160,39.727159,-84.029235,Ripon Dr/Valdina Dr
305,39.775764,-83.992863,Commerce Center Blvd/Trebein Rd
185,39.817383,-84.018488,S Maple Ave
246,39.667201,-83.965848,Westbury Ct/Drummond Dr
160,39.613514,-83.999260,/Old US Hwy 42
216,39.671945,-84.104236,Federalist Dr
305,39.683001,-83.932198,/S Galloway St
276,39.650894,-84.090483,Clarkston Dr/Possum Run Rd
968,39.781200,-84.076624,Calder Ct/Grayling Dr
472,39.724820,-84.091003,I- 675/E Patterson Rd
160,39.805700,-84.011609,Thornton Dr/Regina Dr
1746,39.780933,-84.060987,P E Dr/Center Rd
305,39.671167,-83.967004,Roxbury Dr/Gayhart Ct
160,39.731856,-84.083938,Grange Hall Rd/Executive Dr
185,39.693496,-83.926464,N Monroe Dr
160,39.650196,-83.808109,Jasper Rd
216,39.660697,-83.749094,Southern Blvd/Old US Rte 35 E
160,39.645793,-84.070003,Upper Bellbrook Rd
216,39.707160,-83.938368,Wilshire Dr/Hollywood Blvd
160,39.781687,-84.019612,Heather Ln/Alisha Ln
185,39.818744,-84.074499,Bath Rd
160,39.734220,-84.028255,Coldsprings Dr/Ryan Ct
605,39.784606,-84.021464,Red Oak Dr/Beaver Valley Rd
305,39.658863,-83.743131,Seaman Dr/W Washington St
246,39.762052,-84.042656,Big Woods Trl
865,39.659431,-83.745250,W Washington St
216,39.640838,-84.095647,Sugarcreek Dr/N Belleview Dr/Belleview Dr
216,39.657583,-83.975591,Raxit Ct/Vimla Way
160,39.718788,-83.869306,Spring St
445,39.821343,-84.018096,E Main St/N Maple Ave/S Maple Ave
160,39.684991,-84.022038,Shepherd Rd/Wynstone Ct
305,39.757945,-84.068225,Meadowcourt Dr/Cobblestone Ct
216,39.675337,-83.961527,Mohawk Ct
445,39.657831,-84.103689,I- 675
526,39.782333,-84.075054,Peppertree Blvd/Reese Dr/Raider Dr
762,39.776702,-84.068289,Colonel Glenn Hwy
185,39.608021,-84.007519,Vine St/W Walnut St/E Walnut St
246,39.788236,-83.992985,Grisham Ln/Steinbeck Way
246,39.778046,-84.004375,Willow Ct
185,39.708766,-84.064804,Shakertown Rd/Sueden Dr
418,39.739558,-84.100328,US Hwy 35/N Dayton Xenia Rd
185,39.822905,-84.087487,Denver St/Earlington St
185,39.797120,-83.825685,North St/
579,39.774340,-84.043825,Court View Dr
390,39.735865,-84.093082,/US Hwy 35
1355,39.782295,-84.072595,Peppertree Blvd/Bell Pepper Ct
160,39.798137,-83.925140,Huston Rd/E Dayton Yellow Springs Rd
216,39.717533,-83.884244,Brush Row Rd/Wilberforce-Clifton Rd
185,39.653768,-84.092515,Birch Bark Ct
390,39.786672,-84.015013,Republican Cir/Dayton Yellow Springs Rd
390,39.772356,-84.064630,New Germany Trebein Rd/Royal Gateway Dr/Pentagon Blvd
185,39.661238,-83.971438,N Kearney Ct
276,39.658679,-83.974016,Greystoke Dr
1956,39.649287,-84.110238,/Wilmington Pike
216,39.705627,-84.075616,Frostwood Dr
526,39.638039,-84.100922,Bonniedale Dr/W Franklin St
246,39.648588,-83.771492,Mohican Trl/Navajo Trl
917,39.795732,-84.032459,/Arlin Pl
276,39.706929,-84.101098,Linton Ct
160,39.691169,-84.053057,Woodview Ests W
579,39.792982,-84.031589,Woodvine St
499,39.735659,-84.092437,/I- 675
305,39.714578,-84.094177,W Summit Ridge Dr/Oakmont Way/Cold Stream Way
185,39.702828,-84.084954,Danern Dr
160,39.661144,-83.949943,/US Hwy 42
216,39.676948,-84.106784,Walden Way/Aaron Ct
216,39.796968,-84.041094,Kauffman Ave/North Blvd
185,39.691593,-83.953871,S Dayton Xenia Rd/Dayton Ave/Richard Dr
160,39.628049,-84.111333,E Centerville Station Rd
185,39.674143,-83.955640,Moccasin Trl
334,39.734915,-84.083614,Grange Hall Rd
1020,39.707695,-83.934144,Hollywood Blvd/N Detroit St
276,39.682146,-83.926872,/Hivling St
160,39.682681,-83.924316,S Monroe St
305,39.776810,-83.987390,Weston Dr
160,39.691746,-84.087140,Carondelet Dr/Glenview Dr
305,39.752593,-83.815477,Varsity Dr/Alumni Dr
418,39.775679,-84.048500,I- 675
334,39.707929,-84.091223,Abbeygate Dr
185,39.654457,-84.091209,Locus Bend Dr/Maple Leaf Ct
334,39.681265,-83.964101,Seneca Dr
736,39.773403,-84.087733,Colonel Glenn Hwy
216,39.823650,-83.979881,Yellow Springs Fairfie Rd/W Yellow Springs Fairfield Rd/Byron Rd
160,39.665450,-83.707657,US Hwy 35
246,39.688962,-83.912183,N Patton St/E Church St
362,39.738169,-84.088135,Mardon Dr/N Dayton Xenia Rd
362,39.703193,-83.931305,N Monroe Dr/Country Club Dr
160,39.739734,-84.046248,Loch Ness Ct
276,39.714133,-83.928505,Whitestone Rd
185,39.636368,-84.090873,Wentworth Village Dr
276,39.606964,-84.009590,/Walnut St
246,39.729555,-84.046260,Hanes Rd
216,39.716269,-83.912276,Independence Dr/Liberty Ct
994,39.780074,-84.076237,Bromley Dr/Ashley Ct
185,39.833291,-84.062417,Castle Dr
160,39.639998,-84.088220,N Regent Park Dr
216,39.653223,-84.083750,Clear Brook Dr
216,39.672225,-84.108181,Birdwood
499,39.790526,-84.031899,W Funderburg Rd/Woodvine St
246,39.832192,-83.976061,Heritage Ct/Birchton Pl
160,39.742089,-84.089950,Rosemeade Dr/Lyndell Dr
334,39.704049,-84.095933,Walbridge Trl/Tompkins Pl
216,39.688780,-83.919706,Clark St/Hall St
160,39.756311,-84.071530,Kemp Rd/N Tulane Dr/S Tulane Dr
216,39.758328,-84.071663,Olde Willow Dr/N Tulane Dr
160,39.602449,-84.036439,/Centerville Rd
185,39.685089,-83.917233,E Second St/Williams Ave
579,39.636696,-84.106354,Old Pepper Bend
362,39.656274,-84.063920,Amberwood Ct/Heritage Trace Dr
216,39.677532,-83.921019,S Columbus St
390,39.679894,-84.027610,Danberry Pl/Bexley Hills Pl
160,39.795766,-83.934965,/E Dayton Yellow Springs Rd
185,39.772367,-84.044260,Fountain Dr/Lillian Ln
246,39.667598,-84.100703,Kilkenny Ct/Brown Rd
1485,39.727991,-84.057239,N Fairfield Rd/N Dayton Xenia Rd
185,39.677082,-83.813887,US Hwy 35
216,39.673814,-83.965190,Texas Dr
246,39.819382,-84.028662,/Springer Rd/Wright Ave
216,39.662599,-83.948400,/US Hwy 35
472,39.727964,-84.090338,Research Blvd/I- 675
185,39.610874,-84.009546,Maple St/Hill St
362,39.775439,-84.022466,I- 675
185,39.787421,-83.972673,E Dayton Yellow Springs Rd
160,39.704013,-84.064012,Crawford Dr
276,39.693170,-84.085260,W Barrymore Ln/Darst Rd
472,39.728426,-84.018327,Pacer Trl/Windsor Dr
160,39.734301,-84.038401,Lemcke Rd/Crone Rd
1511,39.689259,-83.962988,W Main St/US Hwy 35 Bus/Progress Dr
160,39.834539,-83.988742,Northcliff Ct
160,39.745291,-83.806096,East St/E Elm St
216,39.801141,-84.022679,Juniper Ct/Maplegrove Dr
362,39.807098,-84.024706,Harvard Ave/Ironwood Dr/W Doris Dr
185,39.659485,-83.739139,W Xenia St
418,39.675681,-83.964884,O Toole Dr/Pueblo Dr
1850,39.788900,-84.066081,Zink Rd
185,39.678391,-83.937429,/Short St
334,39.681753,-83.938368,Bellbrook Ave
216,39.752224,-83.987762,Woodland Trl/Trebein Rd
418,39.735994,-84.092606,US Hwy 35/I- 675
305,39.786559,-84.028020,Jan Ct
216,39.803857,-84.010902,Marchmont Dr
246,39.788710,-84.002747,I- 675
216,39.804152,-83.893931,W Limestone St
334,39.713002,-83.910613,Eastland Dr/Highlander Dr
160,39.724546,-84.022670,Bijal Ct
160,39.819847,-84.032944,Treewick St/Van Patton Dr
499,39.781675,-84.015953,Chapel Dr
160,39.698351,-84.041281,Tara Trl/Debs Dr
390,39.785952,-84.020102,/Landmark Ct
185,39.727769,-83.987554,Highland Ln/Dragonwyck Ct
160,39.582884,-83.724989,North St
185,39.634730,-84.108674,Plantation Trl/Bellemead Dr
160,39.642669,-84.064002,Clearcreek Ln
185,39.754653,-84.066359,Navara Dr/Granada Dr
579,39.810299,-84.019233,Redbank Dr/S Maple Ave
418,39.813149,-84.027670,Buckeye Cir/Birch St
160,39.753471,-84.022669,Kemp Rd
418,39.810332,-84.031785,Oak St/S Broad St
276,39.817254,-84.029704,South St/S Broad St
526,39.707190,-84.020806,Heller Dr
185,39.753859,-84.051858,Felton Dr
246,39.793020,-84.080584,Q St/2nd St
246,39.778584,-84.009058,/I- 675
579,39.780365,-84.047204,Old Yellow Springs Rd/Warner Dr
334,39.640745,-84.082722,Chablis Ct/Vineyards Way
216,39.793542,-84.048443,State Rte 444/McClerron Mem Skwy
605,39.669154,-83.921242,Tyndale Ln
499,39.790583,-84.032682,W Funderburg Rd
362,39.813597,-84.024868,Hedge St/Beech St
185,39.682496,-84.074332,Swigart Rd
445,39.668215,-84.100148,Galway Ct
160,39.686960,-83.747935,Brickel Rd/Cherry Grove Rd
216,39.659997,-83.730786,Adams St/
362,39.800819,-84.032404,W Madison St/Wiley Ave/E Madison Ave
160,39.678074,-84.059542,S Alpha Bellbrook Rd
160,39.742144,-84.092361,Stedman Ln/Lyndell Dr
160,39.593329,-83.938227,E Spring Valley Paintersville Rd
185,39.673094,-83.970439,Nebraska Dr/Wisconsin Dr
305,39.667980,-83.922991,Wycliffe Dr
418,39.654612,-84.080317,Country Wood Dr
185,39.826461,-84.028428,N 1st St/Koogler St
246,39.729440,-84.016809,Bareback Trl
3060,39.784788,-84.070867,Zink Rd
160,39.677352,-83.814714,US Hwy 35
276,39.789706,-84.019840,Five Points Ln
579,39.805632,-84.032963,State Rte 444/S Broad St
390,39.643525,-84.099587,Whites Dr
185,39.669572,-83.731409,/US Hwy 35
276,39.762697,-84.048427,Alexander Pl
499,39.733786,-84.091906,/I- 675
246,39.829785,-84.011288,School Dr
160,39.825513,-84.065771,State Rte 4
216,39.653603,-84.062023,Pewter Ct/Seton Hill Dr
276,39.711212,-83.953546,Hawkins Rd/Fairground Rd
185,39.687820,-84.092221,Vindale Dr/Middlebrook Dr
684,39.803387,-84.033819,Kauffman Ave
216,39.791591,-83.898525,Brookside Dr/Xenia Ave
160,39.838214,-84.090832,Bath Rd
362,39.792655,-83.994023,Chaucer Way/L'Amour Ln
445,39.771963,-84.078007,Grange Hall Rd/I- 675
185,39.687078,-83.858671,N Monroe Siding Rd
499,39.755445,-83.811144,N Main St
185,39.583026,-84.094949,Haines Rd/Mt Holly Rd/Middle Run Rd
185,39.787407,-83.972748,E Dayton Yellow Springs Rd
276,39.607145,-84.009223,Walnut St/Little Miami Scenic Trl
246,39.673782,-83.970887,Wisconsin Dr/Florida Dr
216,39.662489,-83.948930,/US Hwy 42
185,39.794459,-84.053382,Lear St/Robin St
160,39.671617,-83.742786,US Hwy 35
813,39.708395,-83.932314,Greene Lake Dr/Kinsey Rd
305,39.761469,-84.046785,/Edgewater Dr
185,39.774542,-84.011849,Countryside Dr
276,39.778721,-84.033741,Hazelnut Dr/Barnard Dr
185,39.684638,-83.921610,E Second St/S Leach St
160,39.653111,-83.784228,Iroquois Trl/Shawnee Trl
160,39.773312,-84.000131,Katy Meadow Ct
305,39.670772,-83.736640,US Hwy 35/S Main St
160,39.713528,-84.073320,Green Cove Ct
185,39.681413,-83.936246,California St
160,39.679102,-84.106398,Meadow Crest Ln
216,39.762245,-84.061210,Queen Elizabeth Ct
185,39.758336,-84.040655,Rumford Way
334,39.640343,-84.086233,Polo Trace Ct/Jacob Hills Ct
305,39.637500,-84.064469,Hess Rd/Washington Mill Rd
160,39.729731,-83.807535,Wilmington Rd/Murdock Rd
185,39.796132,-84.026558,Cozad Dr/Ironwood Dr
390,39.688420,-84.098326,Wayside Dr/Bristol Dr
160,39.662439,-84.087744,Little Sugar Creek Rd
445,39.682694,-83.930010,W 3rd St
499,39.677711,-83.928972,Flynn Ave/Spring St
216,39.656017,-83.730714,/Verity St
216,39.831655,-83.974862,Berwyck Pl
216,39.703990,-83.942742,Moran Dr
185,39.741549,-84.082124,Countryside Dr/Green Valley Dr
160,39.792784,-84.047263,Kauffman Ave/McClerron Mem Skwy
276,39.739428,-84.093974,N Dayton Xenia Rd/I- 675
216,39.690481,-83.895850,Old US Rte 35 E
216,39.659927,-83.746963,W Washington St/Sargent Dr
160,39.740501,-84.021044,Beaver Valley Rd/Fox Ridge Blvd
445,39.689654,-83.964426,US Hwy 35 Bus
216,39.637346,-84.072004,W Walnut St/N West St
185,39.727718,-84.052709,Parkway Ct
216,39.806695,-84.013761,Lindway Dr/Florence Ave
334,39.644555,-84.081732,Little Sugar Creek Rd
605,39.784254,-83.992153,/E Dayton Yellow Springs Rd
160,39.708807,-83.990816,N Dayton Xenia Rd/N Valley Rd
185,39.687587,-83.953118,Reid Ave/Cooper Ln
160,39.821334,-84.008331,Sports St/Hower Ln
246,39.722955,-84.058166,Old Mill Ln
788,39.768333,-84.069789,Primrose Ln
1877,39.768205,-84.051147,Rex Dr/Towne Dr
276,39.679800,-83.929488,S Detroit St
276,39.727995,-84.021490,Long Island Ct/Obetz Dr
160,39.750760,-83.867276,Bradfute Rd/Wilberforce-Clifton Rd
246,39.715165,-84.094422,W Summit Ridge Dr/Merion Trl
390,39.687631,-83.925165,E Church St/N Monroe Dr
246,39.833466,-84.011380,Van Tress Dr/Mitman Dr
445,39.820034,-84.000583,I- 675
160,39.610948,-84.002795,E Main St/Terry St
334,39.768631,-84.071235,Harding Ct/Grant Ave
362,39.808689,-83.884966,State Rte 343/Xenia Ave
160,39.650817,-83.793410,Blackfoot Trl/Shawnee Trl
445,39.657061,-83.733637,S Church St/S Buckles Ave
276,39.788878,-83.989618,Hemmingway Dr
185,39.635329,-84.084126,Sheffield Ct/Sheffield Dr
160,39.673209,-83.923179,Mueller Ln
216,39.662746,-83.948795,US Hwy 35
334,39.683231,-83.957259,Kylemore Dr/Bowman Dr
631,39.708357,-84.025470,Alpha Rd
160,39.734615,-84.054363,Diplomat Dr/Windmill Dr
246,39.828492,-83.987133,Rising Hill Dr/Redbud Dr
968,39.821788,-84.024847,Miller Ave/W Main St
362,39.814242,-84.000891,I- 675
246,39.687808,-83.884375,Foust Rd/N Bickett Rd
445,39.803589,-83.890401,Xenia Ave
445,39.785532,-84.018370,Summit Ct
362,39.768023,-84.065045,Armada Dr/King George St
305,39.796669,-84.083891,State Rte 444
276,39.784973,-84.044924,State Rte 844
276,39.739250,-84.093952,I- 675
362,39.723567,-84.058816,N Fairfield Rd
499,39.681724,-83.951192,W 2nd St/Massie Dr
160,39.786650,-84.031390,Mark Ln
362,39.757236,-84.058124,Mallard Ln
160,39.710456,-83.934149,Temple Dr/Old Springfield Pike
684,39.783293,-83.997424,Commerce Center Blvd
160,39.695813,-83.929344,E Ankeney Mill Rd/Sutton Dr
276,39.744454,-84.083843,Ken Klare Dr/Ranch Dr
526,39.704967,-83.936323,/Alameda Dr
579,39.700218,-83.933828,Trailer Ct/N Detroit St
246,39.830393,-84.019588,James Dr/N Central Ave
736,39.684179,-83.943375,S Allison Ave/W Main St
216,39.670621,-83.956908,/Bellbrook Ave
160,39.723684,-84.026602,Edition Dr/Christalee Dr
185,39.824222,-83.988077,W Yellow Springs Fairfield Rd/Remington Ct
246,39.800776,-84.031671,E Madison St/E Madison Ave
160,39.651059,-83.810370,/Jasper Rd
160,39.810101,-84.016246,Redbank Dr/Holgate Ct
185,39.686639,-84.061028,Earlsgate Rd/Lytham Ln
472,39.716072,-84.024171,Beaver Valley Rd/N Dayton Xenia Rd
605,39.719884,-84.035088,N Dayton Xenia Rd/Edwin Dr
2489,39.777669,-84.056905,Presidential Dr
160,39.825569,-83.997567,Peidmont Dr/Young Dr
2408,39.718675,-83.877213,/Lane Dr/Campus Dr
499,39.776360,-84.060537,Executive Park Blvd/Presidential Dr
160,39.679497,-84.106303,Timberwilde Dr/Timberwilde Ct/Meadow Crest Ln
160,39.807427,-83.898284,Thistle Creek Ln/King St
276,39.719343,-84.039502,Vickie Dr/Hamden Dr/Edwin Dr
605,39.688470,-84.103057,Bridgeport Dr/Somerset Path
362,39.802345,-83.889757,E Davis St/Livermore St
246,39.833597,-83.971779,Jamestown Ct
185,39.662667,-83.948436,/US Hwy 42
579,39.793596,-84.031499,Woodvine St
216,39.678724,-83.941070,/Elm St
390,39.792409,-84.074560,Dupont Way
160,39.687696,-84.072762,Westwind Dr
552,39.766230,-84.068869,Hibiscus
276,39.646030,-84.094802,N Belleview Dr
246,39.691192,-84.066482,S Fairfield Rd/Pamona Dr
246,39.636160,-84.075753,Little Sugar Creek Rd/W Franklin St
552,39.698638,-84.095571,/I- 675
216,39.639909,-84.102399,Bayberry Cove/N Lakeman Dr
216,39.835675,-84.014272,Davis Dr/Overlook Dr
216,39.800535,-83.829105,Tanyard Rd
216,39.682458,-84.100425,I- 675
185,39.675284,-83.954411,Buckskin Trl/Deerfield Ct
305,39.744570,-83.812146,/Bridge St
305,39.680926,-83.940292,/Bellbrook Ave
160,39.658015,-83.978569,Greystoke Dr
418,39.793505,-84.078588,Kauffman Ave/National Rd
276,39.687327,-83.917681,E Market St/Williams Ave
472,39.786695,-84.016221,Chadwick Ct/Chapel Dr
216,39.722916,-84.028342,Kenmont Ct/Lomeda Ln
160,39.681413,-83.935435,Cincinnati Ave/Ohio Bike Trl
246,39.790988,-84.038782,/Funderburg Rd
216,39.792978,-84.049197,State Rte 444
216,39.647528,-83.774021,Pueblo Trl/Navajo Trl
305,39.640506,-84.083272,Chablis Ct
160,39.836439,-84.049385,/Mustang Dr
160,39.653834,-83.773312,Delaware Trl/Alleghany Trl
185,39.740516,-84.096972,/N Dayton Xenia Rd
1252,39.687089,-83.930622,W Church St
246,39.634064,-84.099704,Clearview Dr/Woodedge Dr
390,39.728695,-84.019682,Beaver Valley Rd
472,39.817911,-84.026901,Ohio St/S 2nd St
160,39.678137,-84.059518,S Alpha Bellbrook Rd
160,39.678767,-83.934618,/S Miami Ave
185,39.671004,-83.975922,Nebraska Dr/Jodee Dr/Concord Way
185,39.834702,-83.989267,Hunters Ridge Dr/Northcliff Ct
5672,39.775290,-84.078381,Old Zink Rd
472,39.792476,-84.037021,Orville St/Miami Ave
185,39.673659,-83.922490,Legacy Way/Home Ave
160,39.663866,-83.917995,US Hwy 35/Union Rd
499,39.770479,-84.073712,Monterey Cir
160,39.603000,-84.009302,Little Miami Scenic Trl/US Hwy 42
160,39.778625,-83.992425,Long Vista Ln
160,39.639672,-83.764401,Quarry Rd/Waynesville Jamestown Rd
631,39.780997,-84.015757,Chapel Dr
246,39.690824,-83.915525,Lexington Ave/Mulberry St
246,39.705741,-84.097747,Whipdale Dr/Williamsport Dr
390,39.746022,-83.807320,Walnut St/E Church St
362,39.788003,-83.989555,/Deagleway Dr
216,39.708967,-83.885398,Wilberforce-Clifton Rd
788,39.803370,-84.033562,Buckeye Ave
160,39.812506,-83.893060,Whitehall Dr/Fair Acres Rd
160,39.755647,-84.060733,/Kemp Rd
160,39.734742,-84.071435,N Dayton Xenia Rd
472,39.643346,-84.085387,Northfield Dr/Sable Ridge Dr
160,39.702891,-83.975028,S Dayton Xenia Rd
160,39.576559,-84.068626,/Mt Holly Rd/Middle Run Rd
334,39.742570,-83.805448,East St
418,39.787762,-84.055847,University Blvd/Wright State Rd
160,39.744286,-84.076591,Longview St/Shadeland Ave
276,39.634857,-84.072194,W Maple St/S West St
472,39.762826,-84.075752,Butterfield Dr/Ellsworth Dr
216,39.670970,-83.973651,Maryland Dr/Georgia Dr
160,39.776993,-83.985823,Observatory Dr/Hansen Ct
185,39.661486,-83.940866,/US Hwy 35
418,39.673127,-83.931318,Thornhill St/S Detroit St
1929,39.758863,-84.053652,Lakeview Dr/N Fairfield Rd
968,39.687182,-83.929659,/E Church St
216,39.739545,-84.087980,Mardon Dr/Mapleview Dr
526,39.810876,-84.043175,Lahm Cir/D St
160,39.585764,-84.104102,Wilmington-Dayton Pike
160,39.787913,-83.969925,/E Dayton Yellow Springs Rd
362,39.758196,-84.074311,Olde Willow Dr/N Knoll Dr
160,39.646452,-83.771060,Comanche Trl/Mohican Trl
362,39.657393,-84.103837,I- 675
3197,39.784715,-84.070916,Cimarron Cir/Zink Rd
472,39.811275,-84.029726,Cedar St/Lemon St
1433,39.768647,-84.063464,Solitaire Ln/Diamond Cut Dr
185,39.745401,-84.061503,Fairwood Dr/Rich Ct/Rich Rd
185,39.697182,-84.037484,/N Bellbrook Rd
472,39.656484,-84.056793,Spillway Ct/Spillway Dr/Seton Hill Dr
362,39.689208,-83.915657,Clark St/Mulberry St
160,39.734507,-84.070286,N Dayton Xenia Rd/Woods Dr
246,39.715687,-84.028320,Richmar Dr/Factory Rd
160,39.678550,-83.945466,/Bellbrook Ave
216,39.711262,-84.073786,Shakertown Rd/Talowood Dr
246,39.731270,-84.057653,N Fairfield Rd/Rock Dr
185,39.836699,-84.018836,N Central Ave
216,39.739904,-84.099254,N Dayton Xenia Rd
472,39.819226,-84.020561,E Dayton Dr/Iola Ln
216,39.716327,-83.884972,Coleman Rd/Wilberforce-Clifton Rd
160,39.720205,-84.072751,Napanee Dr
362,39.833332,-84.016035,N Broad St
246,39.778976,-84.047202,Wolfe Dr/Warner Dr
160,39.683854,-84.054263,Sonnyann Pl
160,39.776092,-84.092440,/Skyline Rd
499,39.722065,-84.059900,/Research Blvd
305,39.681851,-83.941270,/Trumbull St
185,39.833632,-83.988938,Hunters Ridge Dr
246,39.643535,-84.103481,Toll Gate Ln
334,39.753325,-84.090565,Wagner Trace Dr/Aley Dr
160,39.806818,-84.014945,Canova Ct/Dellwood Dr
160,39.779835,-84.042485,Axe Dr/Wolfe Dr
160,39.735491,-84.032120,Coldsprings Dr/Shoreham Dr
276,39.658758,-83.742707,W Washington St
390,39.650322,-84.056657,Ravinia Dr/Bugle Bluff Dr
160,39.662282,-84.091173,Timberly Dr
185,39.705193,-84.102113,Tredwell Pl/Vineland Trl
216,39.796972,-83.894952,W Herman St/Xenia Ave
246,39.672304,-84.107695,Montpelier Dr/Birdwood
246,39.799874,-84.027232,Ironwood Dr/Magnolia Ct
472,39.768515,-84.065072,King George St/Empire Dr
160,39.707857,-83.987836,S Dayton Xenia Rd/N Dayton Xenia Rd
276,39.774128,-83.992310,Spyglass Ct/Sentry Ln
246,39.803363,-84.019936,E Garland Ave/S Maple Ave
160,39.601943,-84.013930,US Hwy 42
390,39.728789,-84.021023,Crown Point Ct
216,39.839449,-84.016256,Highview Dr/Palmer Dr
160,39.692411,-84.080705,Logic Ct/Barrymore Ln
185,39.691751,-84.088800,Carondelet Dr
160,39.638457,-84.070579,High St/N Main St
276,39.814547,-84.038470,Pearson Rd/Redman Dr
185,39.655626,-83.692950,US Hwy 35/State Rte 734
160,39.653282,-84.028816,/Stewart Rd
160,39.627197,-84.001808,Schnebly Rd/Richland Rd
684,39.708198,-84.025681,US Hwy 35/Alpha Rd
216,39.726601,-84.067677,US Hwy 35
216,39.689742,-83.943814,Antrim Rd
160,39.738187,-84.031537,Pheasant Run Ln
160,39.723393,-84.052747,Cymar Dr/Kerry Dr
216,39.709045,-83.910138,Brooke Ln/Highlander Dr
216,39.676414,-83.973040,Iowa Dr
160,39.761087,-84.080131,Rollingview Dr/Darden Dr
334,39.794304,-83.824667,Main St
216,39.687082,-83.942074,S Dayton Xenia Rd/Little Vine St
160,39.832091,-83.991346,Cottage Court Dr
1824,39.648907,-84.110265,Wilmington Pike
216,39.661160,-83.733683,Nelson St
160,39.792264,-84.051404,State Rte 444
160,39.705208,-84.088211,N Emerald Ct
185,39.772382,-83.999620,Whitetail Dr/Mistygate Dr
185,39.680166,-83.935070,Center Ave/Locust St/Center St
160,39.759438,-84.047854,Lakeview Dr
390,39.784476,-84.089975,10th St/G St
160,39.696779,-83.929510,E Harbine Ave/Sutton Dr
216,39.777902,-83.985714,Observatory Dr/Blake Ct
216,39.674192,-84.106779,Constitutional Ct
185,39.686856,-84.081942,Catalpa Ct
605,39.791241,-84.029005,Bordeaux Dr/Ironwood Dr
160,39.781326,-84.030571,/Prospect Ave
216,39.657970,-83.764103,/Quarry Rd
246,39.808069,-84.017365,Westport Dr/Huston Dr
160,39.692891,-83.975818,US Hwy 35 Bus
472,39.822333,-84.014694,E Xenia Dr/E Dayton Dr
1304,39.768175,-84.062567,Pearl Ridge/Gem Ln
160,39.814508,-84.095128,Union Rd
334,39.701972,-83.930425,N Monroe Dr/Frederick Dr
276,39.833404,-84.010400,Van Tress Dr/Hartley Dr
216,39.757452,-84.098255,Entrada Dr/Kemp Rd
362,39.736125,-84.093118,US Hwy 35/I- 675
305,39.785574,-83.983666,E Dayton Yellow Springs Rd/Byron Rd
160,39.702032,-84.097951,Vineland Trl
658,39.694558,-84.098849,Walnut St/Basswood Run
334,39.766843,-84.071333,Lujon Dr
160,39.723675,-84.040649,Nantucket Rd
445,39.674847,-83.972599,Vermont Dr/Colorado Dr
246,39.701977,-84.097024,Shelburne Ln/Vineland Trl
865,39.688490,-83.964603,Harner Dr
305,39.773127,-84.039325,Kant Pl
305,39.653429,-83.759376,Birch Ct
552,39.781636,-84.015942,Chapel Dr
246,39.723789,-83.991178,Turfland Blvd S/Shorthill Dr
362,39.752687,-84.090627,Wagner Trace Dr
160,39.771042,-84.032693,Legend Falls Ct/Chatham Ct
185,39.796075,-84.093580,State Rte 444
160,39.756145,-84.068788,Meadowcourt Dr/Matrena Dr/Kemp Rd
472,39.695358,-84.087108,Apple Blossom Pl/Indian Ripple Rd
418,39.659070,-83.732135,N Sycamore St/E Xenia St
160,39.565392,-83.849087,Old US Hwy 68
185,39.668026,-83.907658,Jamestown Connector Bikeway
943,39.657178,-84.109563,Wilmington Pike
276,39.634750,-84.083044,Vemco Dr/Hillrise Cir
246,39.700332,-84.078466,Eagle Point Dr/Timberleaf Dr/Grange Hall Rd
276,39.667725,-83.908545,/US Hwy 35
160,39.834509,-84.013244,N Broad St/Overlook Dr
305,39.709399,-84.093583,Grouse Ct
160,39.653105,-83.707016,/Old US Rte 35 E
216,39.776393,-83.986241,Copley Ave/Observatory Dr
658,39.804851,-84.034090,State Rte 444/Estabrook Rd/S Broad St
1071,39.816170,-84.023890,Redwood St/Briars St
1641,39.763924,-84.052776,Fairfield Commons Dr/N Fairfield Rd
160,39.765965,-84.046209,Lillian Ln
160,39.665405,-83.965740,Colorado Dr/Commonwealth Dr
5552,39.774649,-84.079732,Colonel Glenn Hwy/Grange Hall Rd/National Rd
334,39.814009,-84.000913,/I- 675
185,39.714353,-84.104675,Research Blvd
185,39.705784,-84.054951,Casler Ave/Merrick Dr
216,39.744320,-83.811844,Bridge St/W Elm St
160,39.817163,-84.006083,Chapelgate Dr
185,39.700368,-84.063153,Arlington Pl
246,39.797051,-84.037619,Aviation St/Stewart Blvd
160,39.663986,-83.910933,Old Hook Rd
160,39.842730,-84.044376,/State Rte 235
216,39.726611,-84.067530,US Hwy 35
362,39.808618,-83.885075,Cemetery St/Xenia Ave
246,39.659348,-83.736643,W Xenia St
185,39.722572,-84.026719,Edition Dr
390,39.657595,-84.103451,I- 675
216,39.580574,-84.104681,Wilmington-Dayton Pike/Social Row Rd/Lytle Ferry Rd
1097,39.784489,-84.061435,University Blvd/Center Rd
160,39.718161,-83.910592,Highlander North Dr
418,39.784285,-83.999103,Empire Ct
276,39.737017,-83.830209,US Hwy 42
390,39.809037,-83.888261,Railroad St/Cliff St
160,39.690142,-83.951663,Cooper Ln/Franklin Ave
334,39.713429,-84.028523,/Factory Rd
160,39.752064,-84.061457,Homeacres Ave/Fairknoll Dr
246,39.712350,-83.914712,Lamplighter Pl
216,39.804366,-84.050655,Novick Rd
185,39.654499,-84.097674,Red Rock Ct
1020,39.790439,-84.021386,S Maple Ave
216,39.773968,-84.026999,Shinicocks Ln
185,39.660698,-83.934666,State Rte 380
418,39.721034,-84.059785,US Hwy 35/N Fairfield Rd
216,39.669763,-83.964147,Atkinson St/Crase Dr
160,39.744898,-84.046213,King James Dr/King James Cir
160,39.553131,-83.716725,State Rte 72
216,39.761644,-84.064537,Timbrook Ct
160,39.764628,-84.086645,Wendover Dr
185,39.833667,-83.959815,Fred Johnston Dr
216,39.828676,-83.986626,Sharon Dr/Redbud Dr
185,39.679345,-84.094923,Seema Ct/Wagner Hills Dr/Wagner Hill Dr
472,39.778284,-84.006739,/Roseanne Ct
839,39.686579,-84.100851,Tollhouse Rd/Reed Rd
305,39.554429,-83.726426,/I- 71
185,39.740958,-84.029809,/Whisper Way
216,39.726593,-84.070281,Research Blvd
160,39.828012,-83.985606,Walnut Bend Ct
160,39.722123,-83.935685,N Detroit St/Old Springfield Pike
216,39.659928,-83.729612,Adams St/
185,39.585384,-83.724061,Maysville St/State Rte 72
362,39.806020,-84.019659,E Doris Dr/S Maple Ave
216,39.775190,-84.034791,Torrey Pines
160,39.803284,-83.894697,S Stafford St/W Davis St
185,39.690069,-84.073909,Southway Dr
160,39.730302,-83.968548,Fairground Rd
160,39.638418,-84.082300,N Sheffield St/Callaway Ct
160,39.697791,-83.750533,Lackey Rd/S Main St
160,39.834803,-83.972861,Rona Village Blvd/Williamsburg Ct
160,39.810079,-84.034304,Talbott Rd/Willow Ct
160,39.739822,-84.074401,Shady Ln/Highmont St
445,39.774117,-84.064062,I- 675
472,39.771747,-84.077705,Grange Hall Rd/I- 675
472,39.782986,-84.000679,Dayton Yellow Springs Rd
276,39.792961,-84.021120,Royal Oaks Dr/S Maple Ave
160,39.788615,-83.988790,Channingway Dr/Trebein Rd
526,39.816765,-84.024887,South St
185,39.727343,-84.032285,Cedarcliff Dr/Valdina Dr
334,39.788402,-83.995100,Steinbeck Way
246,39.736951,-84.031108,Lantz Rd/Rustling Brook Ln
891,39.796548,-84.085226,State Rte 444/Old State Hwy 4
216,39.741097,-84.057037,N Fairfield Rd/Sunnyside Dr
1226,39.789889,-84.021458,S Maple Ave/Dayton Yellow Springs Rd
499,39.799549,-84.040069,State Rte 444/W Dayton Yellow Springs Rd
276,39.764520,-84.061351,King Edward Way/Queen Elizabeth Ct
160,39.817647,-84.067959,Riverview Rd
246,39.771690,-84.002029,Glenhollow Ct
917,39.777767,-84.061879,Colonel Glenn Hwy
305,39.739605,-84.094442,N Dayton Xenia Rd/I- 675
276,39.692227,-84.086836,Chalfonte Dr/Barberry Blvd
160,39.654207,-83.779990,Shawnee Trl/Cheyenne Trl
160,39.618411,-83.685283,Rosemoor Rd/Plymouth Rd
445,39.717965,-83.874937,Wesley Dr/1st Ave
185,39.732416,-84.086673,Executive Dr/Oak Ct
418,39.656038,-83.733746,S Church St
305,39.653710,-84.064672,Heritage Trace Dr W/Heritage Trace Dr/Seton Hill Dr
185,39.795669,-84.051388,C Rd
334,39.764342,-84.044966,Glenbrook Dr/Cumberland Ln
160,39.737076,-83.828652,Williamson Rd/US Hwy 42
418,39.705589,-84.092823,I- 675
579,39.815488,-84.019840,Pearl St/Kauffman Ave
246,39.704784,-84.079960,Oakview Dr/Pagewood Pl
684,39.655415,-84.109712,/Wilmington Pike
390,39.651292,-84.059143,N Church Ct/N Church Dr/Seton Hill Dr
246,39.686330,-83.921920,N Leach St
334,39.659316,-83.736103,W Xenia St/N Buckles Ave
216,39.612588,-84.007299,Bellbrook//Water St/Wade St
160,39.709364,-84.045626,Shakertown Rd/Southern Belle Blvd
160,39.693044,-84.064431,Baronwood Blvd
216,39.627888,-84.089021,Portage Path/Sullivan Dr
185,39.686004,-83.954389,Hawley Ct
216,39.801452,-84.029701,W Gilbert Ave/Salem Ave
216,39.693397,-83.973271,US Hwy 35
216,39.779666,-84.035942,Hazelnut Dr/Thompson Dr
216,39.781286,-84.041516,Old Yellow Springs Rd
362,39.705692,-84.093146,I- 675
216,39.648105,-84.092617,Poston Dr/Kensington Dr
216,39.674382,-83.972400,Colorado Dr/Michigan Dr
526,39.821178,-84.024261,Spruce Dr
216,39.694958,-83.929162,E Ankeney Mill Rd/Sutton Dr
185,39.811710,-83.981078,Byron Rd/State Rte 235
2301,39.775405,-84.075706,Colonel Glenn Hwy/Zink Rd
276,39.805357,-84.043164,Yount Dr/Chidlaw Rd
2301,39.779889,-84.071021,Fieldstone Cir
185,39.674747,-84.104137,James Madison Trl N/Dolley Dr
216,39.784682,-84.037846,Dogwood Cir/
160,39.636836,-84.095497,Crest Dr/Maxwell Dr
334,39.710407,-83.932747,Hardacre Dr
185,39.710641,-83.912922,Mound Ct
160,39.749342,-84.087547,Fox Fern Ct
216,39.687167,-83.910600,Jackson St/E Main St
390,39.690829,-84.099218,I- 675
579,39.768206,-84.059625,Fairfield Commons Dr/Commons Blvd
276,39.692707,-83.960715,Progress Dr
185,39.714573,-84.067676,Crab Orchard Ave/Apple Grove Dr
160,39.727153,-83.986441,Runnymeade Way
160,39.771019,-84.003198,Whitetail Dr
865,39.794544,-84.032931,Arlin Pl
216,39.803566,-83.897977,Davis St/Lawson Pl
246,39.814440,-84.037897,/Redman Dr
160,39.686981,-83.906739,Lincoln St
185,39.836534,-84.061318,Castle Dr/Adams Rd
216,39.743718,-83.806679,Walnut St/E Chillicothe St
160,39.673610,-84.104511,James Madison Trl S/Montpelier Dr
526,39.786149,-84.016274,Chadwick Pl/Chapel Dr
362,39.672151,-83.931568,Shepherd St/S Detroit St
185,39.664925,-83.964425,Oxward Ct
160,39.789360,-84.087759,5th St/Skyline Dr
305,39.761609,-84.046578,/Edgewater Dr
334,39.808695,-84.024760,Harvard Ave/W McLaughlin Ave
185,39.824503,-83.983126,Ridgecrest Ct/Warm Springs Dr
185,39.814858,-84.018790,Pat Ln/S Maple Ave
1226,39.783315,-84.072271,/Spicetree Cir
472,39.748302,-83.809070,Center St/N Main St
246,39.789226,-84.027025,Glenrose Dr/Joyce Dr
499,39.795454,-84.084505,Old State Hwy 4
160,39.641963,-84.064317,Bellecrest Ct/Upper Hillside Dr
445,39.652454,-83.761769,Sun Hollow Pl
160,39.653185,-83.756467,Greentree Dr/Blue Spruce Ct
216,39.677542,-83.969148,Indiana Dr/Wyoming Dr
246,39.667635,-83.970643,Tennessee Dr/Massachusetts Dr
276,39.681692,-83.938510,Bellbrook Ave/Charles St
334,39.673727,-83.961315,Sioux Dr/Maumee Dr
418,39.807211,-84.030926,Hemlock St/Locust St
305,39.691008,-83.961576,Greenway Blvd/Progress Dr
943,39.782329,-84.071789,Peppertree Blvd/Zink Rd
185,39.676072,-84.094208,Baileys Trl/Arwa Dr
246,39.708078,-84.100983,Linton Ct
276,39.673319,-83.965328,Nebraska Dr/Texas Dr
865,39.688554,-83.964647,Harner Dr
216,39.669206,-83.906822,US Hwy 35
605,39.810917,-84.011549,Diana Ln E/Marchmont Dr
276,39.790466,-84.057970,Kauffman Ave
216,39.575137,-84.033063,/US Hwy 42
160,39.630234,-84.085782,Creekview Pl/Brookshire Dr
216,39.659486,-84.084736,Feedwire Rd
160,39.678596,-83.988673,/S Valley Rd/Upper Bellbrook Rd
216,39.779453,-84.044593,Wolfe Dr/Terry Dr
276,39.648800,-84.092759,Tareyton Dr/Kensington Dr
246,39.686659,-83.934840,W Church St
246,39.717724,-84.076078,Autumn Leaf Dr/Red Oak Ct/Southbrook Dr
160,39.670347,-83.917661,Home Ave
418,39.710488,-84.028821,Factory Rd
362,39.723437,-84.023892,Brookside Dr/Christalee Dr
246,39.775962,-83.989042,Watchtower Ln/Observatory Dr
160,39.677800,-83.814769,N Ballard Rd
185,39.823408,-84.087866,Kitridge Rd/E Kitridge Rd
185,39.778533,-83.890860,/E Hyde Rd
160,39.575644,-83.725165,Long St/Maysville St/State Rte 72
185,39.818354,-84.074317,Bath Rd/State Rte 4
160,39.787344,-83.962547,State Rte 235
216,39.681608,-83.965301,W 2nd St
160,39.651554,-83.984503,Lower Bellbrook Rd
185,39.833038,-83.990587,Mountainview Ct/Sunnymead Dr
216,39.801634,-84.041816,Peach Tree Ln/Redbud Ln
1381,39.660185,-84.108506,/Feedwire Rd
246,39.826515,-84.013790,Lincoln Dr/Williams St
445,39.825672,-84.012236,Lincoln Dr/Morris Dr
160,39.671824,-83.742474,/US Hwy 35
160,39.712259,-84.099285,Desai Ct
160,39.688394,-83.917736,E Church St/Williams Ave
216,39.738228,-83.839675,/Tarbox Cemetery Rd
160,39.645416,-84.103008,Sonoma Ct
246,39.789064,-84.024230,Forestdale Ave/Centralia Ave
216,39.799682,-84.057796,/Hebble Creek Rd
185,39.722651,-83.991267,Shorthill Dr
216,39.768034,-84.072007,Garfield Ave/McKinley Pl
160,39.788217,-83.839338,Clifton Rd
160,39.666381,-83.946432,Ledbetter Rd
1174,39.778291,-84.076779,Ascot Way/Camberlee Way
185,39.759173,-84.040364,Coldwater Ct
552,39.685379,-83.936734,W Market St
160,39.705775,-84.076843,Talowood Dr/Frostwood Dr
9428,39.694972,-84.102613,Walnut St/Greene Blvd
185,39.785972,-84.085089,/8th St
276,39.823382,-84.023684,N Wright Ave
579,39.783669,-84.076993,Lawton Dr/Reese Dr
160,39.732262,-84.019273,Beaver Valley Rd/Bandit Trl
276,39.651213,-83.760146,Glenwood Dr
1046,39.725724,-84.057821,Beaver Vu Dr/N Fairfield Rd
1200,39.789813,-84.069195,Shields Ave
185,39.767512,-84.003098,New Germany Trebein Rd
160,39.755138,-83.926157,US Hwy 68/Sutton Rd
631,39.805021,-84.033907,S Broad St
305,39.688616,-83.915556,E Church St/Mulberry St
160,39.701883,-84.084876,Wistowa Trl/Danern Dr
160,39.678642,-84.091036,Wagner Rd/Land Dr
160,39.797474,-84.033047,Eleanor St/Wiley Ave
160,39.751992,-83.989038,Woodland Trl/Maple Ct
160,39.788533,-84.030550,Sunburst Dr
160,39.658161,-83.953241,/US Hwy 42
216,39.729000,-84.072039,US Hwy 35
334,39.810065,-84.020324,E Parkwood Dr/Lexington Ave
216,39.737929,-83.839336,Tarbox Cemetery Rd
2650,39.751509,-83.811263,/Cedar Lake Dr
526,39.769937,-84.056234,Fairfield Commons Dr
160,39.736106,-83.936045,US Hwy 68
362,39.785945,-84.020804,Landmark Ct
216,39.727082,-83.992907,Turfland Blvd S/Turfland Blvd N/Huntland Ct N/Huntland Ct S
216,39.785778,-83.982434,E Dayton Yellow Springs Rd/Paul Dr
362,39.828237,-84.015400,E Whittier Ave/Whittier Ave/June Dr
605,39.707210,-84.092824,I- 675
276,39.692018,-83.927799,Weaver St
305,39.675747,-84.105162,Dolley Dr
160,39.837629,-84.079405,Adams Rd
160,39.806725,-83.866314,State Rte 343/Bryan Park Rd/Meredith Rd
216,39.816362,-84.013462,Richwood Ct
185,39.685203,-83.955353,Cato Dr/Tackett Dr
605,39.684796,-83.942703,Vine St/Little Vine St
305,39.754366,-84.090456,Grace Cir/Wagner Trace Dr
160,39.814275,-84.008085,Habitat Dr/Chapelgate Dr
160,39.679714,-84.057944,McBee Rd
160,39.711506,-84.003162,/N Dayton Xenia Rd
246,39.702503,-84.061107,12 Oaks Trl/Leigh Dr/Plantation Pl
445,39.828221,-84.024242,/W Hebble Ave
160,39.819927,-84.033188,Jarvis Rd/Van Patton Dr
185,39.772836,-84.013058,Quail Run Dr/Crisp Wind Ct
216,39.640577,-84.094704,N Linda Dr
216,39.703809,-83.942629,Moran Dr
160,39.638122,-83.965089,W Krepps Rd
3115,39.714520,-83.877657,/William Bowen Dr
788,39.656017,-84.109266,I- 675
276,39.742919,-83.805498,E Cedar St/East St
160,39.767359,-84.045673,Willowbrook Way
276,39.681665,-83.956116,Rockwell Dr/W 2nd St
160,39.739327,-83.809768,School St/W Xenia Ave
552,39.783839,-83.994853,/E Dayton Yellow Springs Rd
160,39.672861,-83.923292,Douglass Ln/Wesley Ave
305,39.715136,-84.061876,N Fairfield Rd/Newton Dr
418,39.555041,-83.724090,/I- 71
362,39.745858,-83.812715,College St
605,39.843281,-84.032068,/Haddix Rd/Johnston St
160,39.823749,-84.029755,Middle St/N West St
216,39.633488,-84.099763,Clearview Dr/Hillcrest Dr
305,39.730719,-84.052846,Meadow Bridge Dr/Waterhouse Dr
216,39.698763,-84.092268,Saundra Ct
334,39.795546,-84.037772,Stewart Blvd/Grove St
185,39.669158,-83.768329,US Hwy 35/Old US Rte 35 E
185,39.607775,-84.007988,W Walnut St
185,39.694077,-84.030347,Yorktown Ct
390,39.666971,-84.108742,Wilmington Pike
276,39.787158,-84.097237,8th St
305,39.680926,-84.096738,Wagner Rd
246,39.793489,-83.890397,Livermore St/Allen St
246,39.806941,-83.891030,N Winter St/Dayton St/S Winter St
246,39.726375,-84.083136,Richfield Center/E Patterson Rd
185,39.792722,-84.004629,Graceland Dr
216,39.801451,-84.049036,/Spruce Way/Skeel Ave
246,39.672316,-83.963456,Utah Ct
160,39.708777,-84.076877,Lofty Oaks Dr/Crosswood Dr
160,39.795175,-84.012452,Wedgewood Dr/Cherrywood Dr/Southlawn Dr
185,39.784390,-84.094708,10th St/E St
160,39.593337,-83.938273,Anderson Rd/E Spring Valley Paintersville Rd/W Spring Valley Painters Rd
216,39.681599,-83.936657,California St/Sacramento St
276,39.632249,-84.102800,S Lakeman Dr
246,39.815409,-84.016643,Park Ct
445,39.814767,-84.021719,S Central Ave
160,39.814674,-84.016039,Flintridge Dr/Diana Ln N
891,39.769351,-84.064165,Shadetree Dr/Royal Gateway Dr
246,39.680135,-83.933321,/S West St
160,39.654455,-84.092519,Locus Bend Dr/Birch Bark Ct
418,39.642693,-84.066509,Pinegrove Dr/Shady Oak Dr
7791,39.774687,-84.079445,Colonel Glenn Hwy/Grange Hall Rd
390,39.764870,-84.067082,King Edward Way
276,39.844920,-83.994190,State Rte 444/
362,39.700995,-83.932931,N Detroit St/Omalee Dr
160,39.802729,-83.887815,President St/E Limestone St
762,39.658180,-83.734874,E Washington St/N Limestone St/W Washington St
185,39.750353,-84.100927,Powder Horn Dr
185,39.763548,-84.038354,Cross Country Rd/Cross Country Dr/Lacresta Dr
185,39.668298,-83.722791,US Hwy 35
362,39.707661,-84.025253,Langs Ln
246,39.731082,-84.029553,Kewanna Ln
552,39.687560,-84.104701,Bridgeport Dr/Walden Way
334,39.793849,-84.014564,Flick Dr/Zimmer Dr
216,39.662501,-83.971055,Berkshire Dr/Jenny Marie Dr
246,39.708372,-84.096420,Longmeadow Ln/Plattner Trl
160,39.631568,-84.109547,Plantation Trl/Moss Oak Trl
160,39.726471,-84.012538,Lyndhurst Dr/Lincolnshire Dr
246,39.771966,-84.026759,Gleneagles Rd/Old Troon Dr
160,39.712198,-84.009946,/N Dayton Xenia Rd
246,39.825071,-84.001022,W Yellow Springs Fairfield Rd/Spangler Rd
2141,39.770078,-84.052186,New Germany Trebein Rd/N Fairfield Rd
216,39.685838,-84.066963,Swigart Rd/S Fairfield Rd
216,39.725761,-84.070039,Research Blvd/E Patterson Rd
305,39.763307,-84.076508,Butterfield Dr/Graham Dr/Grange Hall Rd
3587,39.696260,-84.102409,Greene Blvd/Indian Ripple Rd
276,39.734218,-84.017612,Pacer Ct
160,39.630763,-84.098003,Eckworth Dr/S Linda Dr
185,39.796671,-83.826297,/S Clay St
160,39.688671,-84.087471,Glenview Dr/Ridgecliff Dr
160,39.637258,-84.069321,N East St/E Walnut St
276,39.681764,-83.930467,S King St
160,39.655698,-83.732540,S Sycamore St
472,39.675162,-83.971787,Vermont Dr/Wisconsin Dr
185,39.689410,-83.883895,/N Bickett Rd
658,39.641863,-84.084774,Bellbrook Woods Ct
160,39.767552,-84.000768,New Germany Trebein Rd/April Ln
185,39.663990,-83.974002,New Mexico Dr
305,39.711625,-84.074871,Shakertown Rd/Briddlewood St
216,39.685914,-83.964288,Progress Dr
445,39.656124,-83.734352,Verity St
160,39.639822,-84.093728,Sugarwood Cir
216,39.834326,-84.010304,Hillridge Dr/Hartley Dr
813,39.811019,-84.028430,Cedar St/Poplar St
216,39.760005,-84.069469,Edgepark Dr/Olde Willow Dr
334,39.673128,-84.099753,Swigart Rd/I- 675
185,39.659390,-83.737382,W Xenia St
305,39.686850,-83.950535,Reid Ave/Sheelin Rd
216,39.791025,-84.039312,Wilbur Ave/Funderburg Rd
160,39.750782,-84.082034,Grange Hall Rd
160,39.832812,-83.975995,Normandy Dr
276,39.691214,-83.878829,US Hwy 35
185,39.718639,-84.074653,Winterwood Ct/Red Oak Ct
579,39.685153,-83.927748,S Whiteman St/N Whiteman St/E Main St
216,39.680737,-83.939376,/Center St
526,39.660058,-83.744034,Brookside St
185,39.702238,-84.052692,Fresno Ct/Mill Stone Rd
216,39.730013,-84.074273,/US Hwy 35
334,39.730575,-84.050265,Waterhouse Dr/Town Hall Rd
305,39.678680,-84.107085,Rachel Ct
160,39.678598,-83.938580,/Walnut St/Glady Ave
418,39.738987,-83.805380,S Main St/W Maple St/E Maple St
160,39.610171,-84.006990,Clay St
160,39.663393,-84.081124,Paxon Dr
276,39.659458,-84.080914,Coffeat Ct/Deerbluff Dr/Coffeat Dr
334,39.797636,-84.096750,State Rte 444
216,39.767636,-84.011473,New Germany Trebein Rd
160,39.662032,-84.040252,Upper Bellbrook Rd
362,39.775752,-83.990178,Stonehaven Ct
185,39.710628,-84.024926,Maple Dr/Lowes Dr
917,39.804086,-84.032022,Wiley Ave/Euclid Ave
552,39.686844,-83.932799,N Galloway St/W Church St
305,39.707645,-84.105338,Research Blvd
216,39.676216,-83.813455,N Ballard Rd
160,39.728046,-83.988276,Dragonwyck Ct
362,39.701231,-83.999446,US Hwy 35
684,39.760095,-84.057975,Mallard Ln
160,39.675791,-83.932612,Owens Ave/New St
839,39.683858,-83.929186,W 2nd St/S Detroit St/E 2nd St
160,39.712920,-83.923026,Green Acres Dr/Kinsey Rd
362,39.780383,-84.002756,Valle Greene Dr/Sandpiper Ct
160,39.819905,-84.033107,Edwards St/Van Patton Dr
185,39.641519,-84.072511,McHenry Ct
246,39.671063,-83.977096,Jodee Dr
185,39.834809,-83.973191,Rona Village Blvd/Williamsburg Ct
185,39.812373,-84.034362,Schuster Rd
710,39.636022,-84.070751,S Main St/E Franklin St/W Franklin St/N Main St
1174,39.781684,-84.076638,Malcolm Ct/Grayling Dr
185,39.821341,-84.007183,Sports St/W Yellow Springs Fairfield Rd
185,39.652689,-83.732284,State Rte 72
160,39.768051,-84.018410,New Germany Trebein Rd/Locust Hill Blvd
185,39.628315,-84.041539,Little Miami Dr/W End Ct
160,39.748443,-84.070549,Northern Dr/Charlene Dr
160,39.820200,-84.032692,/Treewick St
1982,39.660203,-84.109297,Wilmington Pike/Feedwire Rd
362,39.686592,-83.935421,N Mechanic St/W Church St
185,39.774241,-84.013180,Quail Run Dr
216,39.689392,-83.919829,Hall St
160,39.767319,-83.915496,US Hwy 68
276,39.815954,-84.032637,Allbrook Dr/Chase St
246,39.830143,-83.994749,Rona Parkway Dr
362,39.816924,-84.001755,E Xenia Dr//State Rte 235
276,39.812491,-84.031211,Hickory St
305,39.728713,-84.021423,Long Island Ct
334,39.688167,-83.961263,Kylemore Dr/June Dr
2088,39.783061,-84.068936,Forest Ln
390,39.656085,-83.733744,Verity St/S Church St
305,39.773161,-84.039411,Kant Pl/Sassafras Ln
160,39.596003,-84.029289,Clear Springs Rd
305,39.785654,-83.983186,/E Dayton Yellow Springs Rd
943,39.782415,-84.076946,Lawton Dr
445,39.728724,-84.020115,Crown Point Ct
160,39.595846,-83.872006,US Hwy 68/Eleazer Rd
216,39.808630,-84.023699,W McLaughlin Ave/Victoria Ave
305,39.808013,-84.024829,Harvard Ave/W Robbins Ave
276,39.640905,-84.089002,N Regent Park Dr
185,39.796215,-84.089030,State Rte 444
246,39.826242,-84.016267,Wallace Dr
185,39.680293,-83.979869,Haines Rd/Upper Bellbrook Rd
185,39.574780,-83.725212,Alley St/State Rte 72
305,39.827716,-84.027152,32nd St/Pierce Dr
160,39.705648,-83.894471,US Hwy 42
160,39.637478,-84.082862,N Sheffield St/E Sudbury Ct/W Sudbury Ct
246,39.777509,-84.014218,Park Hills Dr/Kalynn Cir
160,39.792473,-84.051540,A Rd/State Rte 444
246,39.701693,-83.928092,Martin Dr/Office Park Dr
185,39.680714,-84.029585,Shepherd Rd/Bexley Hills Pl
246,39.658880,-83.729123,/E Xenia St
1485,39.781249,-84.066580,U C Dr/University Blvd
390,39.770159,-84.044220,/Woodsview Dr Pvt
246,39.835957,-83.987903,Black Ln
160,39.664111,-83.917916,US Hwy 35/Union Rd
9624,39.694097,-84.101710,Holly Dr/Plum St
160,39.767769,-83.928446,/Sutton Rd
185,39.712462,-84.019858,Stewart Dr/Whitey Marshall Dr
246,39.840678,-83.992308,I- 675
334,39.687554,-84.098447,Wayside Dr/Wiltshire Ct
1563,39.691109,-84.105950,Bascule Bridge Dr/Stonecastle Dr
1563,39.766449,-84.062497,Sapphire Pointe W
160,39.627371,-84.084075,Wead Pl
160,39.602186,-84.012866,State Rte 725/US Hwy 42
160,39.797608,-84.021858,Mapleridge Dr/Maplegrove Dr
160,39.691318,-84.094533,Carondelet Dr/Sylvania Rd
305,39.715199,-84.093676,Windstar Pl
390,39.786336,-84.015386,Coventry Pl
160,39.793368,-83.824607,Main St
160,39.812688,-83.985683,/State Rte 235
216,39.781255,-84.041701,Old Yellow Springs Rd/Hickorynut Dr
160,39.610802,-84.002680,Terry St
160,39.797177,-84.039750,Aviation St/Montgomery Ave
276,39.844766,-83.994222,State Rte 444/
1071,39.683958,-83.939889,N Orange St/W Main St/Orange St
216,39.726033,-84.013666,Tourney Trl/Camden Trce
246,39.800434,-84.025167,Locust Dr
216,39.646255,-83.767803,Comanche Trl/Shoshone Trl
276,39.651355,-84.085998,Murphys Xing
185,39.691592,-83.949461,E Richard Dr/Omard Dr
968,39.768190,-84.062118,Pearl Ridge/Jade Run
216,39.781120,-84.042519,Old Yellow Springs Rd/Axe Dr
246,39.699728,-84.065929,N Fairfield Rd
445,39.728093,-84.090675,Research Blvd/I- 675
160,39.671242,-83.917525,S Columbus St
305,39.677363,-84.106485,Shannon Ct/Walden Way
216,39.709398,-84.095530,Straight Arrow Rd
185,39.793847,-84.022383,Sarah Dr/E Goodman Dr
160,39.778410,-83.989174,Talbot Ct
216,39.715080,-84.103694,Idea Center Blvd
185,39.688884,-83.902923,Old US Rte 35 E
605,39.779676,-84.075400,Bromley Dr/Sudbury Ln
160,39.676465,-83.944875,Emerson Ave
305,39.658718,-83.975762,Greystoke Dr
710,39.773614,-84.065198,/I- 675
160,39.637833,-84.066807,Hess Rd/Lower Hillside Dr
305,39.780016,-84.002232,Sandpiper Ct
160,39.615272,-84.007632,/Bellbrook Ave
246,39.670700,-83.736235,US Hwy 35
246,39.658369,-83.738062,W Washington St
185,39.693186,-83.968714,Greenway Blvd
891,39.686087,-83.929560,E Market St/N Detroit St
499,39.780855,-84.004166,Roseanne Ct
968,39.815229,-84.027487,Buckeye Cir
334,39.661968,-84.081266,Glory Ct
276,39.729638,-84.027599,Elston Ct
185,39.701867,-84.095432,Walbridge Trl/Vineland Trl
160,39.672987,-83.922937,Mueller Ln/Wesley Ave
216,39.821111,-84.011661,E Xenia Dr/Herald Sq
185,39.722723,-84.026700,Edition Dr/Dakem Dr
605,39.727299,-84.018338,Blacksmith Ln/Windsor Dr
216,39.694366,-83.981799,US Hwy 35/US Hwy 35 Bus
185,39.749411,-84.066426,Knollwood Dr/Granada Dr
276,39.640794,-84.101348,Sugarcreek Dr/Statehouse Ct
160,39.788369,-84.045690,McClerron Mem Skwy/State Rte 844/University Blvd
305,39.809996,-84.015236,Redbank Dr/Florence Ave
160,39.740002,-84.079068,Countryside Dr/Highmont St
185,39.746116,-84.090525,Stedman Ln/Ranch Dr/Glen Meadow Way
216,39.810696,-83.886429,Cemetery St
305,39.791282,-83.998688,Commerce Center Blvd
305,39.739772,-84.094884,/N Dayton Xenia Rd
185,39.823530,-84.033021,Skeel Ave/Sundorph Dr
160,39.767030,-84.046209,Willowbrook Way
216,39.836078,-83.987895,Armstrong Rd/Black Ln
276,39.759475,-84.075902,Hillsboro Dr
334,39.764940,-84.059929,Fairfield Commons Dr/Commons Blvd/Park Overlook Dr
185,39.748101,-84.032080,Tamarack Ridge
185,39.723049,-84.029449,Kenmont Ct
334,39.695532,-83.934578,W Ankeney Mill Rd/Florence St
943,39.769864,-84.055842,Fairfield Commons Dr
185,39.793229,-84.048374,McClerron Mem Skwy
1226,39.687726,-83.930748,/King Ave
160,39.628422,-84.083344,Wead Pl
185,39.682858,-84.098323,Wayside Dr/Sunbeam Ave
160,39.608436,-83.776999,Webb Rd
216,39.712900,-83.925091,Hardacre Dr/Whitestone Rd/Hillcrest Dr
276,39.725758,-84.020654,Beaver Valley Rd/Oakbrook Blvd
276,39.786612,-84.021246,Beaver Valley Rd/Lawndale Ave
994,39.686179,-83.928797,Greene St/E Market St
362,39.713779,-83.874849,Wilberforce Switch Rd//US Hwy 42
418,39.713386,-84.103197,Stonegate Dr/Weber Dr
216,39.640254,-84.070406,Upper Hillside Dr/N Main St
160,39.647692,-83.660876,US Hwy 35
362,39.734205,-84.084162,/US Hwy 35
160,39.702259,-83.946407,Fairground Rd
160,39.674056,-83.963927,/US Hwy 35
185,39.750266,-84.100437,Stonewood Dr/Powder Horn Dr
276,39.828132,-84.013626,Lincoln Dr/E Whittier Ave
216,39.804173,-83.902197,/Dayton St
1278,39.696169,-84.100225,Tonawanda Trl/Indian Ripple Rd
246,39.691712,-83.972040,US Hwy 35 Bus
526,39.801735,-84.038538,Crabapple Dr/Sugar Maple Dr
185,39.806219,-84.040415,Perimeter Rd
305,39.639638,-84.084664,Polo Trace Ct
160,39.721259,-84.017736,Hunters Ridge Blvd
216,39.687068,-83.888723,/US Hwy 35
362,39.828936,-84.021451,W Whittier Ave
216,39.697907,-84.082302,Harbert Dr
160,39.675685,-83.931795,New St/Chestnut St
185,39.831950,-83.976610,Kensley Pl
472,39.657923,-84.103516,I- 675
1407,39.742096,-83.807321,N Main St
418,39.669909,-83.922934,Wesley Ave/Cleveland St
160,39.758903,-83.990875,/Trebein Rd
185,39.741282,-83.809646,Bridge St
160,39.727762,-83.902072,Brush Row Rd/Stevenson Rd
362,39.813783,-84.000540,/I- 675
2923,39.717225,-83.880199,Maplewood Ave
160,39.677898,-83.933789,Fayette St/High St
472,39.685533,-83.935246,Church St/W Market St
160,39.787550,-83.888307,Stewart Dr
160,39.653175,-83.782590,Ottawa Trl/Shawnee Trl
305,39.788159,-83.991891,/Deagleway Dr
246,39.650233,-83.758307,Hunters Pointe Dr
185,39.756207,-84.042925,Iowa Ct
160,39.764884,-84.081454,Vayview Dr/Rushton Dr
216,39.613618,-83.886657,US Hwy 68/Waynesville Jamestown Rd
160,39.707241,-84.080784,Tealwood Dr
216,39.660984,-83.730700,/Nelson St
185,39.614676,-84.006832,Race St/Bellbrook Ave
276,39.650377,-83.760508,Oakdale Dr/Hunters Pointe Dr
160,39.583489,-83.821415,Bone Rd/E Spring Valley Painters Rd
334,39.737903,-83.806079,/S Miller St
276,39.766087,-84.065607,Park Overlook Dr
276,39.693426,-83.882661,Old US Rte 35 E/S Bickett Rd/N Bickett Rd
160,39.745779,-84.043195,Maple Ln
160,39.675546,-83.923383,S Monroe St/Cottage Grove Ave
788,39.792841,-84.044263,N Zimmerman Rd/Orville St
185,39.796706,-84.089156,Marl Rd
185,39.793411,-83.888495,Allen St/President St
334,39.756871,-84.080535,Kemp Rd/Rustic View Dr
160,39.718069,-84.019547,Old Post Rd
246,39.697377,-84.031043,Thomas Jefferson Dr/George Wythe Way
185,39.747247,-84.094830,Hobnail Ct
160,39.704881,-84.087729,N Emerald Ct/Ramsgate Dr/S Emerald Ct
390,39.787582,-84.024406,Wilson Ave/Centralia Ave
276,39.678047,-83.965079,Seneca Dr/Wyandot Dr
160,39.651292,-83.697235,Blakeley Rd/Old US Rte 35 E
305,39.734585,-84.057749,N Fairfield Rd/Lawson Dr
216,39.690351,-83.925379,Ravina Dr/N Monroe Dr
305,39.784793,-84.045351,/State Rte 844
185,39.809772,-83.889880,Walnut St/Pleasant St
305,39.681458,-83.970664,Upper Bellbrook Rd
216,39.712384,-84.073678,Greenstone Ct
305,39.799911,-83.889945,Livermore St/E Center College St
216,39.737062,-84.046477,N Laddie Ct/S Laddie Ct/Edinburgh Dr
160,39.690373,-84.062401,Eastwick Ct/Shelford Way
390,39.734779,-84.077534,S Longview Dr/Bloom Rd
160,39.639699,-84.088233,Jacob Hills Ct/N Regent Park Dr
185,39.730096,-84.048393,Millstream Dr/Village Green Dr
246,39.691899,-83.928655,Lucas Dr/Weaver St
499,39.682922,-83.947246,Circle Dr/June Dr
160,39.788514,-84.091216,H St/K St
216,39.713329,-84.048046,Viola Dr/Amy Lynn Dr
6671,39.694100,-84.105263,Glengarry Dr/Birch Aly
160,39.694047,-84.031934,Colonial Pkwy/James River Rd
160,39.736389,-84.079449,Countryside Dr/N Dayton Xenia Rd
160,39.720301,-84.018299,Redcoat Ct
813,39.696010,-84.097317,I- 675/Indian Ripple Rd
160,39.742020,-84.101814,Ardonna Ln
276,39.814562,-84.018822,Frahn Ave/S Maple Ave
499,39.710039,-84.028869,Factory Rd
160,39.701945,-84.020153,/Orchard Ln/S Orchard Ln
160,39.678129,-83.934818,Grove Ave/High St
185,39.702799,-84.087119,Kenderton Trl/Meridell Dr
605,39.652608,-84.109952,Wilmington Pike
160,39.707679,-84.046003,Cannon Ct
246,39.705798,-83.991981,Trebine Rd/N Valley Rd
160,39.663616,-83.973153,Dundee Dr/New Mexico Dr
276,39.682410,-84.105152,Wagner Rd/Walden Way
526,39.818575,-84.021362,S Central Ave
216,39.668545,-83.907821,US Hwy 35
526,39.802157,-84.039168,Peach Tree Ln/Crabapple Dr
216,39.839696,-83.992093,I- 675
160,39.617463,-84.008171,/Park Ave/Ranch Rd
185,39.792018,-84.021220,Maple Ter/S Maple Ave
185,39.822815,-84.087934,Depoy St/Earlington St
216,39.649199,-84.098779,Bledsoe Dr
216,39.769015,-84.034695,New Germany Trebein Rd/N Emerald Dr
185,39.691155,-84.051361,Woodview Ests E
160,39.686332,-84.022775,Wynstone Ct
160,39.662763,-83.708390,N Jeffersonville Rd
246,39.747134,-84.070636,Eastern Dr/Northern Dr
305,39.749043,-83.808172,Walnut St
185,39.843846,-83.996484,State Rte 444/Spangler Rd
246,39.679456,-83.933523,N Miami Ave
305,39.686934,-84.088332,Middlebrook Dr
160,39.745111,-83.807061,Walnut St/E Elm St
276,39.697627,-84.094696,Daina Ct
1485,39.684518,-83.934028,W Main St/S West St
160,39.696615,-83.913488,N Columbus St/US Hwy 42
276,39.781488,-84.040300,Old Yellow Springs Rd/Faircreek Ridge Dr
185,39.732225,-84.064935,Arnica Rd/N Dayton Xenia Rd
216,39.672851,-83.920476,Dowdell Ave/Summit St
216,39.795547,-84.053996,H Rd/
1097,39.771427,-84.059326,/New Germany Trebein Rd/Commons Blvd
160,39.689236,-83.974196,/US Hwy 35
276,39.739446,-84.094429,I- 675
185,39.705923,-84.085504,Grange Hall Rd
185,39.745711,-83.813587,Bridge St/College St
185,39.670576,-83.974677,Missouri Dr/Maryland Dr
362,39.786745,-84.017579,Chadwick Ct
1667,39.778611,-84.075478,Highland Ct
334,39.650694,-83.785729,Osage Trl/N Lakeshore Dr
216,39.683551,-83.951515,Kylemore Dr/Massie Dr
185,39.662440,-83.734540,N Limestone St
160,39.770222,-83.995944,Windsong Trl/Whitetail Dr
305,39.682249,-83.934337,W 3rd St
968,39.790179,-84.069147,Shields Ave/Mc Dowell Pl
216,39.723274,-84.058095,Old Mill Ln
216,39.650767,-83.762402,Hunters Pointe Dr
246,39.651617,-84.098607,Justin Ct
160,39.670004,-83.926697,McDowell St/Pocahontas St
246,39.731855,-84.028275,Kewanna Ln/Meadow Moor Dr
390,39.698601,-83.940299,Fairground Rd
305,39.706645,-84.075308,Crosswood Dr
185,39.747952,-84.054682,N Fairfield Rd/Old Fairfield Rd
631,39.688526,-84.102967,Bridgeport Dr/Amherst Bend
362,39.823260,-84.020912,Park Ln/N Central Ave
362,39.791781,-83.995117,L'Amour Ln/Dickens Dr
216,39.677355,-83.938782,Grove Ave/Cincinnati Ave
216,39.713820,-83.928016,Whitestone Rd/Yellowstone Rd
216,39.721505,-84.071629,Ceylon Cir/Wyburn Way
216,39.700707,-84.097632,Rockledge Trl
1046,39.726737,-84.053635,Rodenbeck Dr/N Dayton Xenia Rd
185,39.779501,-84.019231,Oxford Dr/Nottingham Dr
185,39.667747,-83.965496,Westbury Ct
185,39.642425,-84.062811,Bellecrest Ct
160,39.744387,-84.019788,Beaver Valley Rd
305,39.701771,-84.105608,Tonawanda Trl/County Line Rd
160,39.678411,-83.921511,Washington St/S Columbus St
658,39.785054,-84.024585,Loretta Ave
334,39.813404,-84.031779,Birch St/S Broad St
418,39.566136,-83.704725,Orchard Grove Rd/I- 71
362,39.608637,-84.009421,Maple St
216,39.728956,-83.985859,Foxtale Ct/Audubon Ln
499,39.688912,-84.106683,Rahn Rd
305,39.760019,-84.076810,Hillsboro Dr/Anna Laura Ln
160,39.692998,-84.063746,Baronwood Blvd
305,39.695802,-83.935425,W Ankeney Mill Rd/Catherine St/Ankeney Mill Rd
160,39.688863,-84.081433,Westwind Dr
160,39.677828,-83.938391,/Cincinnati Ave
160,39.678348,-83.936779,N Miami Ave/John St
185,39.691035,-83.996408,Dumford Rd
216,39.689236,-83.944136,Antrim Rd/Parnell Dr
305,39.806476,-84.025818,Fig St/Ironwood Dr
334,39.811978,-84.023973,W Lindberg Ave/Kauffman Ave
390,39.642564,-84.107086,E Briggs Rd/Surrey Trl
216,39.669768,-83.730977,/US Hwy 35
276,39.738952,-84.092705,Stedman Ln/N Dayton Xenia Rd
579,39.659151,-83.744182,W Washington St
216,39.793402,-84.048166,State Rte 444/McClerron Mem Skwy
160,39.582854,-83.724258,Maysville St
526,39.805581,-83.890139,S Walnut St/Elm St
526,39.700252,-83.933365,/Trailer Ct/N Detroit St
160,39.606808,-83.783279,Webb Rd
185,39.723845,-84.013576,Camden Trce
788,39.795364,-84.032668,/Arlin Pl
185,39.788062,-83.902143,Brannum Ln
185,39.787802,-84.096161,6th St/7th St
334,39.660185,-84.107429,/Feedwire Rd
334,39.680438,-83.923943,/S Monroe St
216,39.733293,-84.017000,Sulky Trl
160,39.750256,-83.685672,Selma Jamestown Rd
185,39.804425,-83.897866,W Limestone St/Lawson Pl
334,39.751446,-84.092451,I- 675
334,39.740111,-83.808043,/N Miller St
579,39.793202,-84.031558,/Woodvine St
160,39.716749,-83.913833,Hancock Ct
185,39.673012,-83.923559,Douglass Ln
185,39.799695,-84.057987,/Hebble Creek Rd
526,39.646052,-84.097269,Beryl Dr/Garry Dr
160,39.678228,-83.936713,/John St
216,39.629635,-84.103136,S Lakeman Dr/Moss Oak Trl
160,39.654504,-84.096358,Blue Stone Ct
160,39.556167,-83.718520,/State Rte 72
305,39.846754,-83.993524,I- 675
185,39.648765,-84.098815,Garry Dr/Bledsoe Dr
334,39.692299,-84.066399,/S Fairfield Rd
246,39.719275,-84.074589,Winterwood Ct
160,39.652923,-83.756491,Greentree Dr
684,39.783370,-84.075462,Charter Grove Dr/Charterridge Dr
160,39.775965,-84.093154,/Skyline Rd
334,39.834960,-83.977237,Armstrong Rd
362,39.653041,-84.060689,Cheatham Way/Seton Hill Dr
216,39.813750,-84.018897,Powell Ave/S Maple Ave
445,39.654477,-84.057055,Settlers Bay Ct/Seton Hill Dr
216,39.793057,-84.049000,State Rte 444
160,39.660659,-83.865866,E Hoop Rd/Cooper Ln
710,39.682083,-83.943021,/S Allison Ave
216,39.816783,-84.010129,Rossmore Dr/Selby Ct
185,39.761398,-84.042567,Silver Springs Ct/White Water Ct
276,39.816579,-84.027029,S 2nd St
276,39.834702,-84.007368,Hillridge Dr/Adams St
160,39.679299,-83.985015,Upper Bellbrook Rd
305,39.756666,-84.077144,Kemp Rd/Grange Hall Rd/Oxmoor Dr
185,39.721259,-84.020340,Pickett Ridge Ct/Hunters Ridge Blvd
276,39.711791,-84.021509,Hartman Dr/Stewart Dr
246,39.676039,-84.107229,Erica Ct/Walden Way
160,39.719998,-84.069483,Aledo Dr/Napanee Dr
3115,39.777680,-84.055373,Paramount Pl
216,39.641264,-84.095602,N Belleview Dr
362,39.689069,-83.932411,Shawnee St
185,39.790484,-84.043689,Zimmerman Rd/Fairfield Ave
1746,39.807413,-83.888814,Corry St/Dayton St
185,39.834046,-84.062132,/Castle Dr
185,39.686535,-83.853191,US Hwy 35
160,39.707256,-83.991380,Trebine Rd/N Valley Rd
160,39.711677,-83.929763,Lark Ln/Temple Dr
160,39.699871,-83.854314,Old US Rte 35 E
216,39.793053,-83.953568,Inverness Dr/St Andrews Dr
216,39.784349,-84.014584,Cottonwood Ct
216,39.681753,-83.892778,US Hwy 35
246,39.823412,-84.024065,Middle St
185,39.822732,-84.002594,Zapata Dr
216,39.682922,-84.095739,Grand Vista Dr/Sunbeam Ave
334,39.819167,-84.028378,/S Broad St
246,39.785160,-84.034387,South Dr/Truman Ave
185,39.719045,-83.886552,Mason Rd/Brush Row Rd
246,39.816013,-84.014634,Merwin Ct
658,39.783436,-83.997461,Commerce Center Blvd/Dayton Yellow Springs Rd
1304,39.650015,-84.109166,/Clyo Rd
445,39.686600,-83.955487,June Dr/Tackett Dr
276,39.643838,-84.104481,E Briggs Rd
246,39.834935,-83.976171,Armstrong Rd/Stoneybrook Trl
246,39.772259,-84.043556,Forest Creek Dr/Fountain Dr
276,39.681934,-83.935005,Cincinnati Ave
216,39.682807,-84.100403,I- 675
160,39.814776,-84.037212,Coyle Rd
160,39.722770,-84.073236,Bayfield Dr/Colborne Dr
246,39.708139,-83.922744,Helen Ave/Jane Dr
185,39.666942,-83.955188,US Hwy 35
276,39.680282,-84.029434,Buckingham Pl
185,39.707891,-83.924205,Yellowstone Rd
499,39.719311,-84.060585,N Fairfield Rd/Seajay Dr
185,39.646046,-84.099869,Beryl Dr
246,39.801331,-84.027915,W Gilbert Ave
334,39.783522,-84.016110,/Chapel Dr
276,39.721796,-83.990345,Ankeney Rd/Trebein Rd
160,39.660160,-84.089335,Winshire Ter/Feedwire Rd
216,39.644702,-84.106217,Napa Valley Dr/Silverado Dr
185,39.782402,-84.034883,Ravenwood Dr/Old Yellow Springs Rd
246,39.809294,-83.884021,Xenia Ave
216,39.772359,-84.043919,Fountain Dr
160,39.677625,-83.938373,/S Miami Ave
305,39.748499,-84.073509,Skyline Dr/Shady Ln
185,39.628845,-83.872357,Needmore Rd/Ireland Rd
185,39.713391,-84.051300,Fawcett Dr/Westview Dr
216,39.834813,-83.974125,Georgetown Ct
185,39.819482,-84.024425,Lynn Dr/Dayton Dr/W Dayton Dr
160,39.622175,-84.110268,Sycamore View Ct
185,39.813611,-84.010304,Preservation St/Pat Ln
305,39.698259,-84.094476,Tallman Trl/Whitegate Dr
160,39.807802,-84.010439,Marshall Dr/Marchmont Dr
216,39.685617,-83.923271,Columbus Ave/S Columbus St/E Main St
276,39.687983,-84.075517,Westwind Dr/Bramblebush Trl
362,39.772656,-84.025462,Gleneagles Rd/Sunbury Ct/Royal Lytham Dr
160,39.767438,-84.046128,Willowbrook Way
160,39.832868,-83.975085,Barclay Ct
813,39.821543,-84.021077,S Central Ave/E Main St/W Main St/N Central Ave
185,39.575517,-83.723931,Long St
865,39.816591,-84.021548,S Central Ave/South St
246,39.697987,-83.929066,N Monroe Ct
160,39.755683,-83.925722,US Hwy 68
216,39.665099,-83.913644,US Hwy 68/US Hwy 35
499,39.770065,-84.074021,Pacific Ct
1329,39.684825,-83.930976,S King St/N King St/W Main St
276,39.815940,-84.039830,Laymon St/Wright Ave
10217,39.693929,-84.103712,Glengarry Dr/Chestnut St
185,39.675844,-83.929251,Dean St/Rogers St
185,39.664414,-83.974304,Minnesota Dr/New Mexico Dr
1563,39.691034,-84.105890,Boulder Ridge Dr/Stonecastle Dr
160,39.724479,-84.023901,Oakleaf Dr
216,39.729690,-84.033210,Penny Dr/Howell Dr
160,39.658035,-83.910204,US Hwy 68
305,39.633665,-84.102672,S Lakeman Dr/Hillcrest Dr
472,39.739916,-83.805349,Ohio-Erie Trail (Bikepath)
710,39.815683,-84.022447,1st St/Briars St
418,39.779904,-84.004335,Roseanne Ct
216,39.756615,-84.058667,Bluewing Dr/Mallard Ln
246,39.712814,-83.904644,Apollo Dr/Kinsey Rd
160,39.778685,-84.014992,Grierson Pl
185,39.642742,-83.783477,Huron Trl/Apache Trl
160,39.833700,-84.083983,Bath Rd/Adams Rd
390,39.628933,-84.084609,Ivy Crest Dr/Wead Pl
418,39.745731,-83.808967,W Church St
418,39.736578,-84.093355,/I- 675
362,39.788180,-84.025461,Sunburst Dr/Darrell Dr
276,39.693457,-83.882651,Old US Rte 35 E/S Bickett Rd/N Bickett Rd
160,39.673255,-83.957280,Wigwam Trl/Pueblo Dr
334,39.675746,-83.927298,Ormsby Dr/Rogers St
390,39.825226,-84.026234,N 2nd St/W Xenia Dr
160,39.627466,-84.108181,Wilmington Dayton Rd
305,39.813392,-84.031494,Birch St/S Broad St
185,39.710493,-83.909627,Ashbrooke Ln
390,39.672739,-84.107689,Montpelier Dr/Witherspoon Dr
276,39.655452,-83.758624,Greenwood Blvd/Cottonville Rd
276,39.824382,-84.020790,N Central Ave
305,39.701335,-83.938600,Roselawn Dr
579,39.638013,-84.108702,/W Franklin St
185,39.669388,-83.958114,/Bellbrook Ave
160,39.735812,-84.063920,Bluebird Dr/Lawson Dr/Suburban Dr
216,39.637969,-84.084924,W Sudbury Ct
185,39.734291,-84.051137,Windmill Dr/Etta Kable Dr
160,39.807386,-83.897190,Kingsfield Dr/Kingsfield Ct
305,39.672639,-83.954988,Bellbrook Ave
246,39.679770,-83.929849,S Miami Ave
276,39.673734,-83.899731,US Hwy 35
160,39.807715,-84.036006,Buckeye Cir
246,39.665877,-84.078708,Glory Dr/Carpenter Rd
276,39.655445,-83.758593,/Cottonville Rd
445,39.745838,-83.808398,E Church St/W Church St/N Main St
1433,39.782090,-84.072547,/Bell Pepper Ct
216,39.669518,-83.731102,US Hwy 35
216,39.733271,-84.055050,Lantz Rd//St Lukes Dr
185,39.787251,-84.013084,Campus Dr/Southlawn Dr
246,39.775949,-83.987183,Weston Dr/Observatory Dr
185,39.677781,-84.095018,Mona Cir
160,39.811184,-84.045470,Skeel Ave/Memorial Rd
710,39.636387,-84.070725,Bellbrook Plz/N Main St
1149,39.779593,-84.076660,Ashley Ct
185,39.737783,-83.813601,US Hwy 42/W Xenia Ave
658,39.784488,-84.060536,University Blvd/Center Rd
362,39.777278,-84.047363,Warner Dr
216,39.767676,-84.012154,New Germany Trebein Rd/Beaver Valley Rd
160,39.727130,-83.986440,Runnymeade Way
334,39.682355,-84.103780,Wagner Rd
390,39.691780,-83.929806,Smith Ave/Weaver St
334,39.738610,-84.090386,N Dayton Xenia Rd/Rosemeade Dr
216,39.640660,-84.070372,Ridgeway Rd/N Main St
185,39.679653,-83.911352,Birch Rd/Hill St
499,39.768626,-84.070834,Grant Ave
216,39.732012,-84.027524,Coldsprings Dr/Kewanna Ln
305,39.707927,-84.087472,Ramsgate Dr
160,39.667875,-83.773572,US Hwy 35
276,39.772249,-84.092049,/Colonel Glenn Hwy
246,39.696243,-84.032706,Jamestown Ct
216,39.743888,-83.805684,E Chillicothe St/East St
216,39.791243,-84.042501,Funderburg Rd/Rice Blvd
185,39.677443,-83.962044,Aztec Dr/Navajo Dr
185,39.704912,-84.081373,Oakview Dr
185,39.662410,-83.948577,US Hwy 35
216,39.777584,-84.042721,Axe Dr/Bell Dr
216,39.702775,-84.088724,Pennywood Dr/Bronston Trl
185,39.558935,-83.720143,State Rte 72
362,39.722110,-84.040850,N Dayton Xenia Rd/Brewster Dr
185,39.722678,-84.071845,Ceylon Cir/Colborne Dr
762,39.696072,-84.098074,/Indian Ripple Rd
305,39.723915,-84.058698,N Fairfield Rd/Old Mill Ln
362,39.683262,-83.955122,Raybell Dr/Kylemore Dr
276,39.767314,-84.045106,Willowbrook Way
185,39.784316,-83.818477,Fishworm Rd/State Rte 72
185,39.771614,-84.019141,/Patrick Blvd
185,39.610071,-84.101869,Centerville Rd/Wilmington-Dayton Pike
185,39.815959,-84.036225,Forbes St/Schuster Rd
160,39.777574,-83.991697,Trebein Rd
185,39.692701,-83.882874,N Bickett Rd
160,39.691372,-84.056650,Birchall Dr/Summerhaven Rd
216,39.679314,-83.933477,N Miami Ave
552,39.794014,-84.044879,Colonel Glenn Hwy/Kauffman Ave
185,39.821207,-84.089843,Keeler St/Van Meter St
305,39.658654,-83.973997,E Kearney Ln/N Kearney Ct
185,39.747407,-83.816764,Cedarville Yellow Spri Rd
160,39.691991,-84.043675,S Bellbrook Rd/N Bellbrook Rd/Indian Ripple Rd
216,39.783071,-84.078873,National Rd
710,39.783893,-83.993566,Exchange Ct
362,39.671486,-83.931747,Lake St/S Detroit St
160,39.651095,-84.080078,Grand Oak Trl
160,39.768040,-84.031626,Bent Grass Dr/Bent Creek Ct
2569,39.786767,-84.068751,Shields Ave/Zink Rd
185,39.729862,-84.030132,Edenwood Dr/Conwood Dr
276,39.699875,-84.094053,Tallman Trl
160,39.737703,-83.813996,US Hwy 42
185,39.844161,-83.996238,State Rte 444/Spangler Rd
160,39.695958,-83.927930,N Monroe Dr/E Ankeney Mill Rd
276,39.807504,-84.021666,Columbia Ave
605,39.695973,-84.096821,/Indian Ripple Rd
418,39.689157,-84.103017,Wakefield Rd
185,39.758113,-84.100223,Kemp Rd
160,39.679547,-84.106658,Timberwilde Dr/Timberwilde Ct
276,39.676693,-83.956109,Tomahawk Trl/Arrowhead Trl
362,39.825896,-84.027652,Ash Dr
390,39.682824,-83.925849,S Collier St
216,39.834881,-83.973372,Armstrong Rd
276,39.650393,-84.097140,Justin Ct/Fowler Dr
216,39.656156,-83.961761,Lakeview Dr
418,39.661140,-83.974326,Jenny Marie Dr/Cross Dr
246,39.684573,-83.949459,Haddon Ct
216,39.659230,-83.751176,Southern Blvd/Western Ave
160,39.659618,-83.741482,W Xenia St
305,39.693586,-84.066318,/S Fairfield Rd
246,39.708873,-83.884525,Stover Dr/US Hwy 42
160,39.809520,-84.034989,Talbott Rd/Breene Dr/Chestnut Cir
216,39.687371,-83.909688,E Main St/Charles St
246,39.692204,-84.086775,Barberry Blvd
246,39.691695,-83.948347,Sheelin Rd/Omard Dr
160,39.740286,-84.062445,Post Dr/Pebble Creek Dr
160,39.701882,-84.020160,S Orchard Ln/Orchard L N
334,39.762310,-84.074946,Butterfield Dr/Anna Laura Ln
160,39.691951,-84.076599,Wintergreen Ln/Cherry Hill Dr
160,39.744168,-84.038161,Deerbrook Dr
605,39.782781,-83.997226,Commerce Center Blvd
216,39.802733,-84.021916,Mapleridge Dr/Maplegrove Dr/Beech St
472,39.715632,-83.880743,/Brush Row Rd/Campus Dr
418,39.791690,-84.074945,McClellan Dr/Granger Cir
185,39.704925,-83.922079,Country Club Dr/Judy Dr
160,39.801263,-83.895946,S High St/W North College St
216,39.628402,-84.043128,W End Ct
246,39.610916,-84.001339,W Spring Valley Paintersville Rd
160,39.581759,-83.733026,Corry Rd/Hussey Rd
160,39.754779,-83.989834,Grand Portage Trl/Lostwood Ct/Alderwood Ct
160,39.708078,-83.987885,Hilltop Rd/Harlow Ln/N Dayton Xenia Rd
160,39.716146,-84.029618,Lloyd Ct
216,39.701106,-84.093498,Milda Ct
216,39.656860,-84.066963,Upper Bellbrook Rd/S Alpha Bellbrook Rd
305,39.775131,-84.029499,I- 675
185,39.679054,-83.934458,N Miami Ave/Queen St
276,39.680441,-84.029311,Buckingham Pl
160,39.720006,-83.998238,/Ankeney Rd
276,39.687340,-83.917562,E Market St/Williams Ave
185,39.735518,-84.043208,Lantz Rd/Crone Rd
185,39.607867,-84.010393,/W Main St
362,39.660219,-84.101144,Feedwire Rd
216,39.793336,-84.048049,McClerron Mem Skwy
526,39.635964,-84.069373,N East St/E Franklin St/S East St
216,39.787658,-84.097237,7th St
185,39.659739,-83.725606,Adams St/Homestead St
334,39.623246,-84.092308,Periwinkle Dr
216,39.687156,-83.934414,N West St
276,39.680069,-83.936555,Cincinnati Ave/Charles St
216,39.717194,-84.061445,N Fairfield Rd
185,39.694972,-84.081410,Merrydale Dr/Indian Ripple Rd
160,39.768765,-84.030347,New Germany Trebein Rd
185,39.638509,-84.071846,High St/N West St
185,39.676124,-83.954032,Arrowhead Trl/Buckskin Trl
160,39.705632,-83.941897,Arena Ct
185,39.663454,-83.912932,US Hwy 68
185,39.663457,-84.087659,Little Sugar Creek Rd/
276,39.826142,-84.014549,Wallace Dr
390,39.774467,-83.984933,Copley Ave/Cellini Ct
472,39.791769,-84.043517,Burrowes Blvd
160,39.825357,-84.028527,W Xenia Ohio/N 1st St
246,39.728385,-84.028446,Coolwood Ct/Obetz Dr
246,39.812517,-84.029733,Hickory St/Chestnut St
185,39.749220,-83.942158,/State Rte 235
160,39.725778,-84.030542,Dequincy Dr/Etiwanda Dr
216,39.793056,-83.953975,Inverness Dr
334,39.770438,-84.068570,Hibiscus Way/Lilac Ln
160,39.660699,-83.725198,Nelson St
185,39.769803,-84.073212,Monterey Cir
362,39.759018,-84.059758,Bluewing Dr/Mandarin Dr
160,39.672714,-83.923407,Wesley Ave/Knoll Ln
160,39.831017,-84.016098,Wayne Dr/Winston Dr
276,39.683230,-83.960079,Kylemore Dr/Beatty Dr
160,39.692641,-83.925318,N Monroe Dr/Marshall Dr
185,39.743577,-83.803878,South St
362,39.788606,-83.989566,Channingway Dr/Deagleway Dr/Hemmingway Dr
418,39.682350,-83.934668,S Church St/Cincinnati Ave
185,39.765206,-84.038191,Cross Country Rd/S Wind Trl
160,39.678231,-84.034239,Blackney Pl
472,39.784674,-84.010473,Park Hills Dr/Dayton Yellow Springs Rd
276,39.790824,-84.036437,Funderburg Rd
472,39.800172,-84.035162,Vine St/W Vine St/Superior Ave
788,39.769274,-84.062019,Jade Run
276,39.626017,-84.109969,Lac Lamien Dr
185,39.659735,-84.081544,Coffeat Ct
185,39.697459,-84.055416,Ashley Ct
305,39.636287,-84.083500,N Sheffield St/Sheffield Dr/W Franklin St
160,39.680630,-83.893540,US Hwy 35/Jasper Rd
185,39.685207,-83.938391,S Dayton Xenia Rd/W Market St
185,39.809794,-83.883260,Xenia Ave
1433,39.690653,-84.104281,Boulder Ridge Dr/Stonecastle Dr
160,39.790620,-83.989533,Nestor Dr/Primrose Ln/Northgate Blvd
579,39.780227,-84.075241,Holly Bush Dr/Sudbury Ln
160,39.702378,-83.946526,Purcell Dr/Fairground Rd
216,39.628748,-84.087417,Portage Path/Barnett Dr
160,39.682869,-84.033442,Scarborough Pl
246,39.728400,-83.987127,Runnymeade Way
216,39.693153,-84.030945,Virginia Dr
246,39.690736,-84.097330,Chantel Dr
246,39.678268,-84.027585,Trafalgar Pl
160,39.802169,-83.899189,Green St
216,39.785610,-84.081324,R St/Q St
390,39.700843,-83.935489,Angela Ave/Omalee Dr
185,39.762195,-84.030555,Lacresta Dr
160,39.711907,-84.015702,Beaverpark Dr/N Orchard Ln
1174,39.790172,-84.021952,S Maple Ave/Dayton Yellow Springs Rd
865,39.807231,-83.889816,S Walnut St/Dayton St
160,39.661976,-84.040322,Upper Bellbrook Rd
552,39.684595,-84.100930,Cattail Way/Reed Rd
472,39.822740,-84.016877,E Xenia Dr/Victory Dr
185,39.744554,-83.806915,Walnut St
160,39.669648,-83.938752,Boston Ct
185,39.679308,-83.932394,Druid St
246,39.827871,-83.993892,Landsdale Dr/Coronado Dr
216,39.695740,-84.092957,/Indian Ripple Rd
160,39.584500,-84.113747,Elm Tree Rd
160,39.671546,-83.956019,Bellbrook Ave/Maumee Dr
160,39.610584,-84.033107,/Cook Rd
472,39.682649,-83.941807,Little Main St/W 2nd St
246,39.786595,-83.895640,Spillan Rd/Southview Dr
276,39.636984,-84.101016,Crescent Ct/Bonniedale Dr
216,39.685818,-83.964360,Prouty Dr/Progress Dr
788,39.683044,-83.937200,W 2nd St/Bellbrook Ave
305,39.670610,-83.931987,Pocahontas St/S Detroit St
216,39.716729,-83.868964,Hickman Rd/US Hwy 42
185,39.772132,-84.019630,/Patrick Blvd
246,39.667701,-83.944871,Cincinnati Ave/Ledbetter Rd
305,39.709359,-84.026833,Phil Hubbell Ave
160,39.580068,-84.032767,US Hwy 42
185,39.804714,-84.014250,Damon Ct/Dellwood Dr
362,39.799699,-84.051747,Hebble Creek Rd/J Rd
246,39.836309,-84.018752,Circle Dr/N Central Ave
160,39.778656,-83.984547,Blake Ct
305,39.693084,-84.066339,/S Fairfield Rd
362,39.697657,-83.933778,Catherine St
160,39.573951,-83.858429,Old US Hwy 68
160,39.577487,-84.102114,Social Row Rd
160,39.650186,-83.807387,S Ballard Rd
246,39.788691,-84.002748,I- 675
160,39.687796,-84.060928,Kingswood Forest Ln/Earlsgate Rd
334,39.671347,-83.969263,Wyoming Dr
160,39.710165,-84.024990,Lowes Dr
390,39.690812,-84.098870,I- 675
246,39.824651,-83.985490,Rising Hill Dr/Honeysuckle Dr
185,39.682364,-84.029211,Brittania Ct
216,39.728165,-84.051708,Meadow Bridge Dr/Ranchfield Dr
276,39.803507,-83.899081,Davis St/Green St
160,39.703780,-84.064021,Crawford Dr/Ohara Dr
160,39.780876,-84.012251,Westwood Dr/Winona Dr
552,39.799340,-84.035249,Superior Ave/Forest St
185,39.689130,-83.926962,Garfield Ave/Edison Blvd
334,39.689092,-83.916790,Taylor St
216,39.699467,-84.082877,Ephrata Ct
334,39.791145,-84.075043,Collopy Ct/McClellan Dr
2923,39.777071,-84.066046,Colonel Glenn Hwy/University Blvd
418,39.760686,-84.044943,Clubhouse Dr/Heather Glen Dr
5582,39.775011,-84.079707,National Rd
472,39.691720,-83.930382,/Weaver St
390,39.693889,-83.929511,Smith Ave/Lucas Dr
362,39.660900,-84.080960,Deerbluff Dr/Paxon Ct/Paxon Dr
185,39.674968,-84.107703,Swigart Rd
160,39.658004,-84.081187,Fernwood Ct
160,39.790650,-83.988874,Northgate Blvd/Trebein Rd
246,39.628024,-84.092408,Portage Path/Periwinkle Dr
1485,39.771584,-84.049557,/Centre Dr
390,39.706092,-83.931096,/Greene Lake Dr
246,39.690928,-83.879224,US Hwy 35
1355,39.766453,-84.062258,Sapphire Pointe E
160,39.645851,-84.106611,Silverado Dr/Center Point Dr
185,39.841637,-84.039312,/Douglas Rd
246,39.717173,-83.910401,Highlander North Dr/Highlander Dr N
362,39.758119,-84.056224,Lakeview Dr/Mandarin Dr
305,39.629898,-84.084302,Ivy Crest Dr/Brookshire Dr
334,39.787202,-84.026757,Brent Dr/Rockdell Dr
160,39.676165,-83.969219,Vermont Dr/Montana Dr
216,39.707304,-84.019613,N Orchard Ln/Heller Dr
185,39.836040,-84.008527,Settlers Trl/Hilltop Dr
390,39.683940,-83.922989,/S Columbus St
891,39.769059,-84.062043,Amethyst Pass/Jade Run
185,39.795243,-83.925381,Huston Rd
216,39.715655,-84.029297,Richmar Dr/Lloyd Ct
160,39.655597,-84.065802,Katerina Ct
276,39.804474,-83.900955,Wright St/Dayton St
216,39.774301,-84.021565,Beaver Valley Rd/Old Troon Dr
160,39.650370,-84.088858,Fox Trl/Possum Run Rd
605,39.705389,-83.938042,Fields Dr/Fairview Cir
472,39.816339,-84.026078,Hemlock St/Redwood St
160,39.840076,-84.004775,Sandhill Rd
684,39.658239,-84.109470,Wilmington Pike
390,39.803690,-83.890445,W Limestone St
185,39.611024,-84.010310,Willow St/
305,39.748495,-84.073451,Skyline Dr/Shady Ln
185,39.714401,-83.906412,Silvers Dr
216,39.728960,-83.988049,Runnymeade Way
216,39.718188,-84.055429,US Hwy 35
276,39.804096,-83.893367,W Limestone St/Phillips St
1046,39.761738,-84.076716,Chalet Cir S/Chalet Cir N
216,39.759304,-84.046952,Lakeview Dr
160,39.677974,-84.092362,Baileys Trl
1407,39.773211,-84.089160,Colonel Glenn Hwy
216,39.708678,-84.075030,Talowood Dr/Blythewood Dr
246,39.774350,-84.035563,Russell Dr
390,39.699880,-83.880643,/N Bickett Rd
216,39.682210,-84.080030,Ashleaf Ct
1200,39.684467,-83.937770,Vine St/S Dayton Xenia Rd
160,39.693296,-83.924370,Louise Dr/Marshall Dr
917,39.781206,-84.075613,Calder Ct
160,39.725147,-84.089046,E Patterson Rd
276,39.797676,-84.013010,Rustic Ct
305,39.661446,-83.745211,Hidden Creek Dr
216,39.653983,-84.086696,Clear Brook Dr
813,39.720003,-83.877102,Lane Dr
418,39.805312,-83.890190,Short St/S Walnut St
216,39.829173,-83.992471,Sartell Dr/Rona Parkway Dr
2274,39.788317,-84.065747,Village Dr
216,39.788715,-84.042162,Daytonia Ave/North Blvd
390,39.819634,-84.026742,S 2nd St/W Dayton Dr
579,39.694628,-83.930834,/E Ankeney Mill Rd
160,39.739280,-84.053782,Edith Marie Dr
160,39.743386,-83.663460,Solon Rd/Gordon Rd
305,39.711610,-84.062482,N Fairfield Rd/Greer Dr
160,39.747926,-84.099338,Cross Bow Dr/Willowgreen Dr
334,39.740091,-83.808840,/W Xenia Ave
185,39.770460,-84.017542,/Patrick Blvd
185,39.654833,-84.078527,Country Wood Dr
216,39.637992,-84.089082,Regent Park Dr/W Franklin St/N Regent Park Dr
160,39.667259,-83.731941,S Charleston Rd
526,39.785356,-84.016772,Mulberry Ct
160,39.707400,-83.991328,N Valley Rd
246,39.635662,-84.065930,Washington Mill Rd/State Rte 725/E Franklin St
445,39.803118,-84.040574,Crabapple Dr/Redbud Ln
216,39.682781,-84.100405,Wagner Rd/I- 675
160,39.690724,-84.096742,Chantel Dr/Frontenac Dr
246,39.797969,-84.039961,Kauffman Ave/Montgomery Ave
160,39.625217,-84.109644,Edelweiss Dr
305,39.661631,-83.744817,Hidden Creek Dr
216,39.686728,-83.923473,Columbus Ave/E Market St
1641,39.778462,-84.074823,/Zink Rd
334,39.803205,-84.001821,Garland Ave/I- 675
185,39.656907,-83.974722,/Lower Bellbrook Rd
362,39.687934,-83.922186,E Church St/N Leach St
160,39.739326,-84.102108,N Dayton Xenia Rd
943,39.795992,-84.084863,Old State Hwy 4
276,39.806880,-84.025105,Ebony Ln/Ironwood Dr
917,39.695138,-84.085070,Darst Rd/Indian Ripple Rd
276,39.679698,-83.933571,N Miami Ave/Locust St/S West St
160,39.736026,-83.936044,US Hwy 68
185,39.686431,-83.960856,Ridgebury Dr/Bowman Dr
160,39.797070,-83.824571,North St
246,39.817869,-84.004015,E Xenia Dr/
160,39.722147,-84.080220,Rockdell Ct/Rexford Rd
362,39.608454,-84.009232,W Main St
160,39.663049,-84.078326,Glory Dr
499,39.640198,-84.085816,Polo Trace Ct
160,39.767418,-84.046047,Willowbrook Way
276,39.781715,-84.038965,Old Yellow Springs Rd
160,39.636631,-83.770303,Jasper Rd/Waynesville Jamestown Rd
160,39.721814,-83.860052,US Hwy 42
160,39.733199,-84.086336,Oak Ct
276,39.832787,-83.989058,Mountainview Ct
160,39.704749,-83.984280,/S Dayton Xenia Rd/Shaw Ln
276,39.648184,-84.089146,Poston Dr/Fox Trl
631,39.811131,-84.029086,Cedar St/Pear St
305,39.769189,-84.068675,Tulip Trl/Hibiscus Way
418,39.684582,-83.938836,Vine St
216,39.667930,-83.956414,US Hwy 35
276,39.759208,-84.045310,Lakeview Dr/Heather Glen Dr
305,39.783087,-84.014555,White Ash Ct
276,39.642380,-83.782518,Apache Trl
216,39.716307,-83.884983,Coleman Rd/Wilberforce-Clifton Rd
246,39.729492,-84.021088,Ticonderoga Ct
216,39.792373,-84.013369,Robin Hood Dr
160,39.773393,-84.003572,Deercreek Dr
185,39.609136,-84.007884,/E Main St
246,39.659328,-84.087205,Windy Bluff Ct
160,39.805171,-83.901313,N Wright St
418,39.566377,-83.704976,Orchard Grove Rd/I- 71
160,39.649588,-83.769067,Manito Trl/Navajo Trl
216,39.788262,-84.026653,Sunburst Dr/Rockdell Dr
160,39.633660,-84.092851,S Belleview Dr/Ridgetop Dr
185,39.664921,-83.735575,N Limestone St/Elm St
216,39.727085,-84.028502,Valdina Dr/Lomeda Ln
334,39.659030,-83.731514,E Xenia St
185,39.708901,-83.921111,Helen Ave/Whitestone Rd
246,39.732716,-84.065868,Research Park Dr/N Dayton Xenia Rd
160,39.663709,-84.035902,Mead Rd
418,39.766019,-84.046919,Lillian Ln
216,39.693182,-84.031442,Virginia Dr/James River Rd
160,39.730625,-83.961600,Hilltop Rd
305,39.710975,-83.926780,Yellowstone Rd/Kinsey Rd
160,39.793000,-84.019904,Royal Oaks Dr/Wildwood Ter
160,39.723477,-84.037718,Nantucket Rd/Hyannis Dr
276,39.788922,-83.989612,/Hemmingway Dr
160,39.730697,-83.961154,Hilltop Rd
305,39.759397,-84.075287,Hillsboro Dr/Big Sur Cir
185,39.796636,-84.018208,Burchwood Dr/Bowman Dr
631,39.833285,-84.008483,Van Tress Dr/Kneisley Dr
216,39.790402,-84.030248,W Funderburg Rd/Kathy Dr
418,39.810652,-84.000680,/I- 675
160,39.768152,-84.000739,April Ln
246,39.767811,-84.012144,Beaver Valley Rd
216,39.829982,-83.982555,Mill Race Dr/Wyckshire Pl
216,39.833779,-83.972050,Williamsburg Ct
185,39.676039,-84.000528,Upper Bellbrook Rd
246,39.668786,-83.726942,US Hwy 35
160,39.625209,-84.109832,Edelweiss Dr
276,39.656071,-83.731639,/Verity St
418,39.675369,-84.106324,Erica Ct
418,39.817725,-84.024579,Lynn Dr/Ohio St
305,39.788321,-84.024322,Centralia Ave/Oakwood Ave
305,39.653161,-83.760623,Ivy Creek Cove/Oakdale Dr
216,39.796908,-83.894993,Xenia Ave
216,39.674488,-83.966068,Gayhart Ct
418,39.789758,-84.076433,McClellan Dr/Dupont Way
305,39.802242,-83.894290,/W Whiteman St
631,39.783183,-84.021632,/Beaver Valley Rd
160,39.750014,-84.088464,Stedman Ln
390,39.817658,-84.024246,S Wright Ave/Ohio St
216,39.744714,-83.809523,/W Elm St
334,39.675653,-83.955416,Wigwam Trl/Moccasin Trl
160,39.773358,-84.001565,Whitetail Dr/Antler Ct
276,39.722614,-84.061942,/US Hwy 35
246,39.717346,-84.072326,Briddlewood St
160,39.710831,-83.925005,Ann Dr/Jane Dr
216,39.662422,-83.934071,US Hwy 35
160,39.675078,-83.976941,Harmony Dr/Serenity Ln
185,39.754611,-83.997021,Grand Portage Trl/Ash Meadow Ct
1329,39.644175,-84.110683,Wilmington Pike
334,39.680486,-83.923951,/S Monroe St
216,39.769997,-84.038622,College Hill Ct/Varsity Dr
160,39.676502,-83.975436,Whisper Ln/Kathys Way
160,39.747763,-84.061419,Rich Rd/Willow Creek Dr
185,39.670128,-83.936395,Coddington St/Arlington Dr
216,39.760248,-83.991390,Trebein Rd/Rolling Meadows Dr
917,39.657121,-84.109568,/Wilmington Pike
216,39.825166,-84.023122,N Wright Ave
762,39.784030,-83.993571,/E Dayton Yellow Springs Rd
445,39.795611,-84.038841,Wilbur Ave/Grove St
246,39.771311,-84.094126,Colonel Glenn Hwy
276,39.734250,-84.069134,/N Dayton Xenia Rd
185,39.662978,-84.087699,Little Sugar Creek Rd/Timberly Dr
631,39.686393,-84.102109,Cattail Way/Tollhouse Rd
334,39.778688,-84.033155,Hazelnut Dr
216,39.782001,-84.008403,Hidden Valley Ct
185,39.782175,-84.078963,National Rd
305,39.634626,-84.103119,Plantation Trl
276,39.773659,-84.072159,Germany Ln
246,39.773710,-84.070381,Germany Ln
246,39.681609,-83.943664,Scott St/Trumbull St
160,39.727159,-84.072029,Research Blvd
160,39.697684,-84.089415,Aberdeen Village Dr/Whitegate Dr
472,39.704780,-83.936174,Alameda Dr
160,39.728086,-84.096619,Research Blvd
246,39.725304,-84.046654,Hickory Dr/Hanes Rd
445,39.652250,-83.761766,Sun Hollow Pl
1641,39.777908,-84.076821,Ascot Way/Laurel Dr
305,39.636885,-84.068601,/Ryder Ct
418,39.800020,-83.892856,E Center College St/Xenia Ave
185,39.712281,-83.941000,Monterey Dr
185,39.680777,-83.972987,Oregon Dr/Wyoming Dr
390,39.792542,-84.038086,Stewart Blvd/Orville St
160,39.707718,-84.076151,Crosswood Dr/Talowood Dr
160,39.680862,-84.079315,Swigart Rd/Stutsman Rd/Darst Rd
185,39.607567,-84.008384,W Walnut St/Bank St
160,39.720373,-84.019641,S Ridge Ct
334,39.766927,-84.045730,Willowbrook Way
276,39.711355,-84.021075,Hartman Dr/Alpha Rd
276,39.712606,-83.923377,Winding Trl/Kinsey Rd
160,39.727500,-84.013527,Raceway Trl
334,39.667283,-83.967182,Atkinson St/Colorado Dr
185,39.807420,-84.040711,Chandler Dr/Chidlaw Rd
334,39.709511,-84.092506,I- 675
160,39.764129,-83.918316,US Hwy 68
185,39.810729,-84.033488,Talbott Rd/Schuster Rd
276,39.834568,-84.008381,Hillridge Dr/Kneisley Dr
552,39.772865,-84.071535,/I- 675
216,39.795023,-84.052589,/A Rd/McClerron Mem Skwy
216,39.795583,-84.053944,/H Rd
216,39.634953,-84.074297,/W Maple St
418,39.643780,-84.088745,Sable Ridge Dr/Kensington Dr
160,39.651053,-83.763288,Quarry Rd/Hunters Pointe Dr
362,39.722520,-84.024121,Brookside Dr/Dakem Dr
185,39.699371,-83.926175,Wilson Dr/Gmh Parking Acc/Meadow Ln
390,39.678330,-83.975195,Harmony Dr/Tranquil Dr
472,39.716014,-84.076242,Silver Leaf Ct/Autumn Leaf Dr
185,39.735679,-83.805651,Mc Millan St/Wilmington Rd
1304,39.691181,-84.106479,Stonecastle Dr
216,39.660018,-83.977783,Crescent Ct
362,39.686524,-83.940936,Hillcrest Ave
305,39.726015,-84.076906,Tralee Trl/E Patterson Rd
334,39.698029,-84.094139,Daina Ct/Whitegate Dr
305,39.778764,-84.041200,Faircreek Ridge Dr
185,39.655986,-83.905837,Valley Dale Dr
334,39.684319,-84.103238,Woodbank Dr
684,39.792320,-84.069132,Kauffman Ave/Shields Ave
216,39.707171,-84.072195,Riverwood Dr
246,39.614432,-83.998228,/US Hwy 42
160,39.807149,-84.021884,E Doris Dr/Beech St
276,39.653009,-84.085510,Clear Brook Dr
552,39.768228,-84.074712,Reserves Blvd/Ohio Pl
216,39.722883,-84.063154,Seajay Dr
160,39.795389,-84.030631,/W Dayton Yellow Springs Rd
160,39.701940,-84.029578,Factory Rd
552,39.805416,-84.027699,W Garland Ave/Ironwood Dr
160,39.773423,-84.041583,Kant Pl/Big Woods Trl
160,39.781255,-83.989510,Trebein Rd
160,39.722671,-83.859754,Co Rd 143
334,39.792821,-84.042340,Orville St/Rice Blvd
334,39.779502,-84.021983,Oxford Dr/Beaver Valley Rd
445,39.680676,-83.940876,Walnut St/Bellbrook Ave
658,39.782992,-84.001334,/Dayton Yellow Springs Rd
185,39.718914,-84.069762,Woodgreen Dr
499,39.688766,-84.103354,Somerset Path
736,39.683282,-83.934826,S Church St/W 2nd St
160,39.832730,-83.976004,Heritage Ct
246,39.820699,-84.025610,Clover St
445,39.817844,-84.025895,Lovington Dr/Ohio St
216,39.651533,-84.090456,Caudell Dr/Possum Run Rd
276,39.793842,-83.896973,Allen St/Xenia Ave
390,39.682458,-83.956184,Rockwell Dr/Drake Dr
185,39.734906,-84.065990,Marsetta Dr
216,39.703619,-84.060104,Leigh Dr
276,39.658752,-84.081242,Deerbluff Dr/Feedwire Rd
276,39.637589,-84.087433,Rosecrest Dr/W Franklin St
216,39.646050,-84.099107,Beryl Dr/Bledsoe Dr
362,39.699092,-83.928543,Wilson Dr/N Monroe Dr
246,39.693330,-83.945638,Layne Dr
305,39.692672,-83.941954,Antrim Rd
390,39.687633,-83.925144,E Church St/N Monroe Dr
160,39.810899,-84.086074,Lower Valley Pike
160,39.689836,-83.898657,Old US Rte 35 E
160,39.665002,-83.933500,State Rte 380
499,39.701012,-83.933612,Omalee Dr
216,39.649263,-84.093061,Kensington Dr/Clarkston Dr
160,39.809200,-84.043152,Chandler Dr/Pearson Rd
185,39.811526,-83.889744,Polecat Rd
246,39.827835,-84.020106,E Emerson Ave/W Emerson Ave/N Central Ave
334,39.814811,-84.031967,Allbrook Dr/Cooper Rd
216,39.785271,-84.015386,Mulberry Ct
185,39.774498,-84.038213,Russell Dr/Pascal Dr
968,39.778321,-84.077260,Camberlee Way/Stratford Way
160,39.721070,-84.024165,Brookside Dr/Greenlawn Dr
334,39.794154,-83.824659,Main St
160,39.723660,-84.018369,Princess Dr
216,39.768811,-84.024942,Mulligan Way/Eagle View Dr
160,39.639008,-83.776955,/Jasper Rd
390,39.657643,-84.060022,Spillway Ct
160,39.748569,-84.059444,Willow Creek Dr
362,39.816820,-84.033119,Allbrook Dr
579,39.708437,-84.025363,Alpha Rd/Heller Dr
160,39.680625,-84.029630,Shepherd Rd
160,39.800168,-83.896044,S High St/Center College St
246,39.824384,-84.015462,Holmes Dr/N Elm Ave
334,39.738592,-84.099093,/US Hwy 35
305,39.746012,-84.080576,Timberline Dr
684,39.706891,-84.019637,N Orchard Ln
499,39.725684,-84.072613,/E Patterson Rd
334,39.677490,-83.930730,High St
160,39.671189,-83.937493,Mount Vernon Dr
334,39.659814,-83.746620,Hidden Creek Dr/W Washington St
160,39.590817,-84.103640,Wilmington-Dayton Pike
631,39.670297,-84.101393,Killian Ct
246,39.766207,-84.065136,Access Drive B/King George St
216,39.646059,-84.086266,Creekway Trl
160,39.722616,-84.084805,Largo Ln/Grange Hall Rd
216,39.674121,-83.973322,Nevada Dr/Michigan Dr
160,39.723299,-84.067791,Lipton Ln/Colborne Dr
160,39.684476,-83.865344,Foust Rd
246,39.837610,-84.008483,N Broad St
160,39.645015,-84.042977,Washington Mill Rd
246,39.813645,-84.010815,Pat Ln
552,39.726062,-84.090525,I- 675
246,39.783178,-84.016144,White Ash Ct/Chapel Dr
185,39.628214,-84.083544,Wead Pl
185,39.737380,-84.039129,Lantz Rd/McKay Rd
246,39.760073,-84.091945,I- 675
246,39.656610,-83.732438,Clemens St/S Sycamore St
160,39.631323,-84.085468,Creekview Pl
160,39.689639,-84.076721,Ironwood Ct
216,39.589718,-84.074750,Waynesville Rd/Sears Rd
246,39.732361,-84.030963,Brendon Way
160,39.658185,-83.953679,Beason Rd/Orville Way
160,39.667258,-83.733277,/Greeneview Dr
185,39.692067,-83.952807,Conard Dr/Omard Dr
305,39.752217,-84.097596,S Helenwood Dr/E Entrada Dr
216,39.688306,-83.958927,W Main St
472,39.668260,-83.921931,Tyndale Ln
160,39.656309,-84.099047,/Possum Run Rd
305,39.805396,-84.039915,Talbott Rd/Schlatter Dr
246,39.611231,-84.001875,W Spring Valley Paintersville Rd/E Main St
246,39.789919,-84.096187,5th St/D St
334,39.788554,-84.054739,Wright State Rd
891,39.695083,-84.084294,/Indian Ripple Rd
445,39.803672,-83.890343,W Limestone St/Xenia Ave
526,39.771792,-84.086017,Eastside Dr
185,39.717720,-83.873438,Campus Dr
185,39.645261,-83.783672,Huron Trl/Navajo Trl
813,39.706797,-83.931708,Greene Lake Dr/Greene Lake Ct
305,39.791860,-84.076259,Halleck Ct/Dupont Way/Sykes Cir
216,39.780617,-84.001644,Valle Greene Dr
160,39.712417,-84.012484,N Dayton Xenia Rd/Distribution Dr
552,39.776908,-84.051552,/Warner Dr
216,39.769089,-84.081042,Magnolia Way/Promenade Blvd/Primrose Pl
216,39.765404,-83.992347,Howards Cir/New Germany Trebein Rd/Trebein Rd
185,39.737584,-84.054093,Diplomat Dr/Suburban Dr
390,39.687926,-84.106217,Sentry Hill Ct
185,39.654644,-84.064607,Heritage Trace Dr
418,39.739273,-84.099804,US Hwy 35
334,39.725825,-84.074258,Firewood Dr/E Patterson Rd
185,39.635453,-84.084437,Sheffield Ct
246,39.676773,-84.105684,Aaron Ct
160,39.804676,-84.095596,Huffman Dam Rd/State Rte 4
160,39.780306,-84.033581,Fryer Ct
160,39.711576,-84.072435,Woodspring Ct
276,39.757053,-84.071453,Fincastle Dr/N Tulane Dr
334,39.686648,-83.940934,S Dayton Xenia Rd/York St
216,39.683919,-84.098339,Emmajane Ct/Wayside Dr
160,39.668376,-83.773570,E Junkin Rd
276,39.725026,-84.049022,Katherine Dr/N Dayton Xenia Rd
185,39.791301,-84.013630,Forest View Dr/Robin Hood Dr
246,39.656102,-83.954929,US Hwy 42
185,39.670328,-83.929529,Ormsby Dr/Pocahontas St
160,39.623621,-83.894919,US Hwy 68
160,39.612419,-83.769813,Hite Rd
160,39.703193,-84.013145,Valley Springs Rd
160,39.787457,-84.033998,North Dr/Truman Ave
160,39.723931,-84.095507,Bay Ln/E Patterson Rd
185,39.807973,-84.043540,Yount Dr/
390,39.652480,-84.056469,Muzzete Dr/Seton Hill Dr
185,39.767549,-84.000970,New Germany Trebein Rd/April Ln
1252,39.779101,-84.074001,Bromley Dr/Zink Rd
246,39.686495,-83.934752,Church St/W Church St
160,39.618363,-84.007661,Tahoe Dr/Park Ave
994,39.683220,-83.935430,/W 2nd St
160,39.788515,-84.030186,Sunburst Dr/Kathy Dr
216,39.657414,-84.075327,Feedwire Rd
160,39.804239,-84.095293,Huffman Dam
185,39.676097,-83.974206,Whisper Ln/Iowa Dr
160,39.772657,-84.012270,Crisp Wind Ct
216,39.793017,-84.020378,Royal Oaks Dr/Wildwood Ter
631,39.698236,-84.096158,Thames Ln/I- 675
160,39.633979,-84.098111,Woodedge Dr/S Linda Dr
216,39.724574,-83.809129,Wilmington Rd
499,39.724748,-84.039209,Ater Dr
185,39.761166,-84.044000,White Water Ct/Hillsdale Dr
185,39.660541,-83.764009,Quarry Rd/Jamestown Connector Bikeway
160,39.670490,-83.936329,Arlington Dr
160,39.749578,-84.034177,/Greenridge Cir
216,39.741798,-83.811553,W Cedar St
305,39.713430,-84.104743,Research Blvd/Weber Dr
185,39.640626,-84.087470,Liam Ct
185,39.802181,-84.041512,Plumwood Dr/Redbud Ln
362,39.654640,-84.109776,Wilmington Pike
276,39.681177,-83.922571,Orient Ave/S Columbus St
472,39.815496,-84.031013,/S Broad St
305,39.828794,-84.000385,Spangler Rd
276,39.695647,-83.934934,W Ankeney Mill Rd/Galloway St
216,39.787198,-84.002897,I- 675
160,39.678451,-83.931869,Fayette St/Druid St
276,39.705230,-84.091696,Pennywood Dr
418,39.768670,-84.074689,Ohio Pl/Grant Ave
2061,39.774804,-84.075621,Zink Rd
684,39.708441,-83.933481,Old Springfield Pike
305,39.739425,-84.094426,/I- 675
160,39.762548,-84.062880,Fullerton Ct
276,39.750752,-84.051342,Prudence Dr/Crab Tree Dr
185,39.663118,-83.927386,US Hwy 35
305,39.681167,-83.975182,Upper Bellbrook Rd/Colorado Dr
276,39.770175,-84.041310,Hickory Ridge Ct/Big Woods Trl
160,39.647717,-83.801054,Jasper Rd/Shawnee Trl
631,39.779935,-84.060355,Loop Rd/Center Rd
276,39.788621,-84.047879,Wright State Rd/University Blvd
185,39.819484,-84.024467,Lynn Dr/Dayton Dr/W Dayton Dr
305,39.824292,-83.989137,W Yellow Springs Fairfield Rd/Black Ln
334,39.803181,-84.001444,Garland Ave/I- 675
160,39.572864,-83.857482,US Hwy 68/Old US Hwy 68
305,39.819141,-84.019056,Shawnee Ln/E Dayton Dr
160,39.745916,-84.051486,Kingfisher Pl
160,39.689568,-84.054750,Winterset Dr/Birchall Dr
185,39.710362,-83.934137,Old Springfield Pike
185,39.829291,-83.989393,Dorado Dr
390,39.775420,-84.047732,I- 675
276,39.800956,-84.042255,Spruce Way/Redbud Ln
160,39.653406,-84.030412,Stewart Rd
362,39.666921,-84.108737,Wilmington Pike
216,39.743215,-84.056830,Old Fairfield Rd
185,39.776565,-83.991779,Spyglass Ct
216,39.703060,-83.902284,Stevenson Rd/US Hwy 42
185,39.741443,-83.812501,W Cedar St
305,39.777832,-84.005861,Valle Greene Dr/Wenlock Ct
526,39.708466,-84.089634,Breckenridge Way
160,39.780672,-84.038968,Bishea Ct
246,39.606699,-84.009240,Little Miami Scenic Trl
216,39.634270,-84.107627,Bellemead Dr/Tampico Trl
216,39.751128,-84.096451,E Mohave Dr
185,39.634350,-84.070886,S Main St
160,39.705702,-83.766535,S Main St
160,39.808567,-84.022631,S Central Ave/W McLaughlin Ave/E McLaughlin Ave
160,39.679693,-84.107298,Timberwilde Ct
276,39.684763,-84.078230,Palmetto Ct/Mesquite Dr
994,39.684988,-83.929377,E Main St/W Main St/N Detroit St/S Detroit St
160,39.787953,-84.014208,Herky Pl
216,39.791103,-84.040374,Funderburg Rd/Montgomery Ave
160,39.609473,-84.006211,/Clay St
246,39.688776,-83.920829,N Fair St/Clark St
362,39.688317,-83.925288,Hayes St/N Monroe Dr
418,39.784107,-84.016691,Timber St
390,39.772996,-84.020309,Cypress Point Rd
276,39.827603,-84.017498,E Emerson Ave/N Maple Ave
362,39.798711,-84.033787,Anna St/Charles St
216,39.794293,-84.051215,B Rd/McClerron Mem Skwy
390,39.672030,-83.970900,Maryland Dr/Colorado Dr
160,39.731350,-84.046105,Old Heritage Way/Hanes Rd
246,39.581956,-83.725007,Chillicothe St
334,39.663105,-83.977736,Arlie Ct/Childers Dr
305,39.773101,-84.026132,Royal Lytham Dr/Royal Troon Way
185,39.735226,-84.057671,Ambassador Dr/N Fairfield Rd
813,39.669877,-84.102431,Killian Ct/Belfast Dr
246,39.781168,-84.079063,12th St/National Rd
185,39.768436,-84.024981,New Germany Trebein Rd/Mulligan Way
185,39.666542,-83.965343,Roxbury Dr/Drummond Dr
216,39.767538,-84.046425,Willowbrook Way/Lillian Ln
160,39.798743,-84.084222,Marl Rd
246,39.715805,-84.061784,N Fairfield Rd
305,39.828752,-83.999552,I- 675
160,39.723999,-84.078356,Stanwick Dr/Ruanda Rd
160,39.770655,-83.993308,Windsong Trl/Trebein Rd
160,39.692556,-83.938257,Towler Rd
216,39.728227,-84.016820,Raceway Trl/Show Ct
472,39.722003,-84.036716,Fudge Dr/Lantana Dr
216,39.686543,-83.939333,Dayton Ave/Gatch St
160,39.797943,-83.894292,Marshall St/Xenia Ave
418,39.782101,-84.016076,Chapel Dr/Sycamore Dr
185,39.708937,-83.770654,Straley Rd/S Main St
216,39.784265,-84.019387,Branch St/Timber St
276,39.709859,-84.090975,Nettleton Pointe
185,39.821780,-84.035704,Skeel Ave/Swann Pearson Rd
160,39.655026,-83.772191,Chippewa Trl/Shawnee Trl
160,39.829861,-83.980883,Mill Race Dr
305,39.727705,-84.017056,Show Ct
305,39.634424,-84.082097,Hillrise Cir
334,39.701162,-83.999691,US Hwy 35
185,39.710531,-83.883242,Wenofred Dr
216,39.709753,-84.094191,Willow Run Dr/Grouse Ct
246,39.674469,-83.971335,Connecticut Dr/Wisconsin Dr
390,39.681743,-83.929650,Sycamore St
2569,39.785098,-84.070642,/Zink Rd
160,39.780744,-83.989566,/Trebein Rd
185,39.679855,-83.934849,Queen St/Center Ave/Center St
160,39.653813,-84.096356,Blue Stone Ct/Sugar Leaf Dr
658,39.771071,-84.074326,New Germany Trebein Rd/Monterey Cir
246,39.658745,-83.742653,/W Washington St
216,39.706822,-84.096580,Plattner Trl/Willow Run Dr
185,39.715191,-84.073805,Briddlewood St
185,39.721238,-84.070601,Ceylon Cir/Kenbrook Dr
216,39.658520,-83.740492,W Washington St/S Maple St/N Maple Ave
418,39.588459,-83.666458,I- 71
276,39.798747,-84.052645,F Rd
185,39.625000,-84.089172,Elizabeth Cir
246,39.673519,-83.941921,Cincinnati Ave
185,39.683312,-84.105031,Walden Way/Springside Dr
276,39.607174,-84.009167,Walnut St/W Walnut St
216,39.642086,-84.095516,N Belleview Dr/Weller Dr
305,39.819368,-84.022680,S Grand Ave/W Dayton Dr
305,39.723765,-84.054184,Beaver Vu Industrial Dr/Beaver Vu Dr
160,39.725516,-84.079058,Stanwick Dr/Kenora Cir
418,39.579636,-83.682871,I- 71/Smith Rd
1046,39.814491,-84.025678,Fir St/Spruce St
762,39.785047,-84.013071,/Treeborn Pl
216,39.662625,-84.080887,Paxon Dr
160,39.610496,-84.104945,Centerville Rd/Gerhart Cir
216,39.836282,-84.009889,West St/Rhett Ln
216,39.796848,-84.034675,W Dayton Yellow Springs Rd
160,39.692546,-83.938172,Towler Rd
216,39.719301,-84.076043,Woodenbrook Ct
579,39.695983,-84.096962,I- 675/Indian Ripple Rd
