Estimated daily crossings,Latitude,Longitude,Name
160,39.057251,-82.721180,Pine Ridge Rd/Beaver Pike
160,38.894636,-82.560429,Cross St/Bingham St
216,38.897533,-82.566493,4th St/Madison St
216,39.064981,-82.640321,Chillicothe St/Grace St
160,39.036346,-82.629555,Grimes St
305,39.049494,-82.633717,Main St/Harding Ave
185,39.114160,-82.532751,S New York Ave/E 11th St
160,38.893458,-82.560534,S Bingham St/Bingham St
334,38.893994,-82.574647,Park Ave/Maple St
246,39.052217,-82.652161,W Oak St/Parkview Ave
246,39.124785,-82.538080,W A St/N Michigan Ave
160,38.904522,-82.568746,N Jackson St
276,38.895603,-82.572594,Railroad St/W Main St
160,39.046951,-82.645109,S Chestnut St/Tropic St/Chestnut St
185,39.071164,-82.627989,US Hwy 35
334,39.120453,-82.534521,3rd St/S Ohio Ave/E 3rd St
160,38.899158,-82.565240,4th St/Washington St
362,39.123548,-82.534175,S Ohio Ave/N Ohio Ave/E Broadway St
305,39.120235,-82.539770,W 4th St/S Illinois Ave
246,39.110776,-82.610998,Darling St/2nd St
160,39.013108,-82.702027,Buckeye Church Rd
362,39.041643,-82.538447,State Rte 327
160,39.011709,-82.702113,State Rte 776
160,39.092845,-82.536585,Jenkins Memorial Rd/Honeysuckle Ln
216,39.055055,-82.591948,Pattonsville Rd/State Rte 32
499,39.048724,-82.643351,W South St/West St
160,38.996910,-82.609516,Franklin Town House Rd
160,39.079800,-82.541226,Fairgreens Rd
160,39.046666,-82.651553,Kenwood Ave
160,39.033190,-82.688110,Jisco West Rd/Hammertown Lake Rd
246,39.054730,-82.645183,N Bennett Ave/W John St
160,38.942724,-82.564542,/State Rte 93
185,39.086789,-82.645851,Simpson Rd
160,38.943129,-82.564171,State Rte 93
216,39.051032,-82.651170,Ohio Ave/
418,39.034838,-82.627917,Lincoln St
185,39.073396,-82.555667,State Rte 32
160,39.016034,-82.650372,State Rte 139
216,38.897918,-82.569617,Monroe St
160,39.123298,-82.530583,N New Jersey Ave/S New Jersey Ave/E Broadway St
160,39.126557,-82.462598,A W Long Rd
160,39.146758,-82.727115,US Hwy 35/Brohard Rd
160,39.054440,-82.642842,West St/John St
160,38.893079,-82.576030,Thomas St/Charlotte Ave
185,39.118519,-82.528758,S Massachusetts Ave/E 6th St
160,39.042473,-82.657829,Tom Campbell Rd
216,39.112881,-82.611509,Broadway St/Church St
185,39.031675,-82.620564,Watts-Blevins Rd/Ballard St
185,39.120017,-82.536569,4th St
216,39.037258,-82.629836,Eastview Dr
334,39.123746,-82.536966,W Broadway St
160,39.024368,-82.617293,Watts Colony St
185,39.053844,-82.629067,Carson St/E Broadway St
185,39.063201,-82.639791,Chillicothe Pike/Chillicothe St
305,39.045324,-82.647346,W Huron St/S High St/High St
160,39.112965,-82.612632,Meade St/Church St
160,38.918258,-82.576870,/Zane Oak Rd
160,39.109959,-82.530868,S Vermont Ave/Vermont Ave/E 14th St
390,39.051986,-82.639166,Portsmouth St/Pearl St
334,39.035292,-82.628036,Lincoln St/Ballard St
334,39.036274,-82.627393,Grimes St
160,39.041175,-82.651129,Mount Zion Rd/Ed Michael Dr
246,39.053892,-82.650637,State St
160,38.888443,-82.576054,Cedar St/Knigge Rd/W Cedar St
160,38.895968,-82.560319,Firebrick St/Bingham St
185,39.124028,-82.544008,W Broadway St
160,39.058112,-82.643137,Earl St
216,39.059257,-82.631830,Athens St/Owen St
160,38.888450,-82.576205,Cedar St/W Cedar St/Knigge Rd
185,39.104786,-82.535020,Braley Rd//Honeysuckle Ln
276,39.125403,-82.533960,E B St/N Ohio Ave
418,39.121804,-82.535965,2nd St
185,39.124329,-82.531642,E A St/N New York Ave
160,38.872623,-82.514190,/Sardis Rd
160,39.073150,-82.558580,State Rte 32
216,39.117186,-82.549830,8th St
160,39.025854,-82.626992,Mayhew Rd
276,39.052283,-82.643034,West St/Bridge St
160,39.127748,-82.541283,W D St/N Minnesota Ave
216,39.121121,-82.539670,/S Illinois Ave
185,39.111054,-82.528395,E 13th St/S Connecticut Ave
160,38.894192,-82.577386,Maple St/Evan St
160,39.108140,-82.611630,O'Neal St
246,39.122605,-82.534284,S Ohio Ave/E 1st St
185,39.050336,-82.644372,N Chestnut St/Cross St
185,39.056404,-82.723037,Limerick Rd/Beaver Pike
160,39.140962,-82.723271,US Hwy 35/Savageville School Rd
216,38.999640,-82.553542,Dillon Rd/Clary Rd
246,39.032753,-82.638138,Burlington Rd
305,39.048514,-82.637445,Broad St/E South St
160,39.118636,-82.527575,S Connecticut Ave/E 6th St
246,39.051170,-82.633715,Water St/Columbia St
160,38.996663,-82.651150,State Rte 139/Sheward Rd
185,38.894506,-82.571672,/Gallia St
160,38.976024,-82.520606,Dixon Run Rd/US Hwy 35
160,39.126059,-82.530263,N New Jersey Ave/New Jersey Ave/E C St
185,38.908317,-82.596203,Shady Point Rd
160,38.965327,-82.497735,US Hwy 35/Vega Rd
216,39.115908,-82.683003,US Hwy 35/Oakland Rd
216,38.998903,-82.553374,Dixon Run Rd/US Hwy 35/Clary Rd
334,39.049249,-82.653339,W South St/Westlawn St
185,39.039281,-82.625300,/State Rte 32
160,38.893043,-82.575378,/Thomas St
216,38.899759,-82.569180,N Jackson St/Front St
605,39.035400,-82.626975,Ballard St
160,39.042848,-82.652364,Oiler Ave
185,39.057978,-82.640769,Boyd St/E Earl St
160,39.164663,-82.737011,/US Hwy 35
216,39.047023,-82.609348,/State Rte 32
160,39.042989,-82.609967,US Hwy 35
185,39.054810,-82.619811,/Longworth St
160,39.127585,-82.538944,W D St/N Illinois Ave
334,39.126515,-82.536708,N Indiana Ave/W C St
160,38.896535,-82.558686,Davis St/Reed St
334,39.024528,-82.624540,Yellow Delicious Dr/Peach Dr
160,39.016075,-82.574403,Clary Rd
499,39.045564,-82.633541,Gay St
276,39.110813,-82.611556,Darling St
216,38.896228,-82.568678,E Main St/E Cross St
185,39.105084,-82.535765,State Rte 327
160,39.060257,-82.647807,Jones St/W Wood Ave
160,39.037374,-82.632951,State Rte 32
246,39.052142,-82.651067,Ohio Ave/W Oak St
160,39.130505,-82.425429,State Rte 32
185,39.071387,-82.645035,/Chillicothe Pike
160,39.084069,-82.636561,Prices Switch Rd
160,38.897919,-82.567608,/3rd St
246,39.029718,-82.623336,State Rte 93
305,39.063642,-82.638100,Lincoln Dr/Lady Ave
185,39.124855,-82.539251,W A St/N Illinois Ave
362,39.114259,-82.534162,E 11th St/S Pennsylvania Ave
216,39.048300,-82.655122,Orange St
276,39.045846,-82.636660,Burlington Rd
216,39.061411,-82.620033,US Hwy 35
185,39.051692,-82.643087,E Oak St/W Oak St/West St
276,39.049178,-82.638306,Broad St/Church St
185,39.043759,-82.646200,Bennett Ave
160,38.902352,-82.448593,US Hwy 35
246,39.052805,-82.580082,/Pattonsville Rd
185,39.124576,-82.535163,E A St/A St/N Railroad Ave/Railroad Ave
216,39.053981,-82.631501,E Broadway St/York St
185,39.026254,-82.620985,/State Rte 93
160,39.188040,-82.762323,US Hwy 35
216,39.074867,-82.563214,Fairgreens Rd/Sunrise
160,39.116087,-82.560707,State Rte 788
246,39.123912,-82.539357,W Broadway St/S Illinois Ave/N Illinois Ave
160,39.037019,-82.637346,Burlington Rd
185,39.124599,-82.535440,A St
160,39.072440,-82.628517,US Hwy 35/State Rte 93
185,39.074962,-82.563212,Sunrise
246,39.054950,-82.592040,Pattonsville Rd/State Rte 32
276,38.896955,-82.565623,Bryn Mawr Dr/Palmyra Ave
216,39.054907,-82.726152,Hunter Rd/Beaver Pike
160,39.046414,-82.627198,Corporation St
631,39.051131,-82.635857,Church St/Main St
246,39.147689,-82.727405,/US Hwy 35
160,38.999707,-82.666783,Ralph Riegel Rd
160,39.164597,-82.736871,US Hwy 35
276,39.115565,-82.536920,S Railroad Ave/W 10th St
185,39.113744,-82.611352,Broadway St/Main St
305,39.111736,-82.537060,W 11th St/Railroad Ave
160,38.896205,-82.557267,Firebrick St/E Main St
160,39.019634,-82.650310,State Rte 139/Mercer Rd
216,39.059276,-82.637385,Freeman St
216,38.974539,-82.514074,Vega Rd
246,39.016596,-82.628854,Null
390,39.123692,-82.536218,W Broadway St/W Broadway
246,39.103244,-82.544984,Meadow Run Rd/Debbie Ln
160,39.109486,-82.523959,S Delaware Ave/E 14th St
185,39.039687,-82.633351,Puerto Dr/Redondo Dr
526,39.113134,-82.534398,E 12th St/S Pennsylvania Ave
334,38.894914,-82.575328,/W Hill St
160,39.164844,-82.540754,Cox Rd
216,39.032921,-82.596008,Clary Rd
276,39.060027,-82.636960,Freeman St/Logan St
185,39.112497,-82.612141,Elizabeth Ave
276,39.032702,-82.618921,Smith's Ln
246,39.053321,-82.622614,East St/E Broadway St
160,39.132472,-82.517251,Lookout Loop/Lookout Dr
160,38.989270,-82.544618,Dixon Run Rd/C H and D Rd
185,39.093916,-82.537483,State Rte 327
185,39.054604,-82.652227,State St/Lee Ave
160,38.860957,-82.512529,Sardis Rd/Delaney Rd
185,39.060867,-82.639050,Vine St/Chillicothe St
185,39.040814,-82.622134,/State Rte 32
160,39.013466,-82.667764,Mount Zion Rd
160,38.858532,-82.527815,/Sardis Rd
160,39.092783,-82.537523,State Rte 327/Wellston Industrial Park Rd/Tom Corwin Rd
160,39.112558,-82.613051,Foster St/Elizabeth Ave
418,39.053649,-82.641341,Pearl St/Bridge St
185,38.890442,-82.584384,Jim Reese Rd
276,39.055373,-82.639210,Water St/Bridge St
160,39.126379,-82.534758,E C St
160,39.068918,-82.641638,Turner Ave/Jessie St
216,39.014443,-82.645572,Russ Rd
276,39.046957,-82.650466,S David Ave
526,39.033413,-82.626106,Lincoln St/E Main St
216,39.055048,-82.629003,Orchard Ln
246,39.049843,-82.637473,Walnut St/Church St
160,39.113304,-82.606660,/Bridge St
216,39.117847,-82.568293,Oak St/Locust Str/Locust St
160,38.932049,-82.566352,/State Rte 93
185,39.028473,-82.624450,Pleasant View Dr/Pleasantview Dr
160,39.125998,-82.462855,State Rte 32
160,39.011447,-82.651817,State Rte 139
160,39.128659,-82.541223,Jeff Montomery Way/E St/N Minnesota Ave
160,39.062881,-82.640335,Boyd St/E Mitchell St
160,39.130318,-82.425448,State Rte 32
526,39.045963,-82.634302,Center St
246,39.056329,-82.638268,Chillicothe St
185,39.030765,-82.628706,Anderson Dr
160,39.029635,-82.638164,Burlington Rd
185,39.054795,-82.654409,State St
160,39.042238,-82.690974,Hammertown Lake Rd
185,39.121386,-82.693481,US Hwy 35
160,39.036355,-82.629697,Grimes St/Ballard St
185,39.054666,-82.643988,N Chestnut St/W John St
160,39.032039,-82.607604,Smith's Ln/McCarty Ln
216,39.045488,-82.613075,US Hwy 35/State Rte 32
160,38.948555,-82.602049,Franklin Valley Rd
362,39.116174,-82.534780,E 9th St
185,39.022235,-82.614037,State Rte 93
185,39.062443,-82.636695,/Morton St
185,39.059403,-82.618104,/US Hwy 35
246,39.121244,-82.542013,/S Minnesota Ave
276,38.995934,-82.552357,Dixon Run Rd/Barton Rd
160,39.061073,-82.633695,Summitt St/Putnam St
185,39.021548,-82.618865,Four Mile Rd
418,39.051555,-82.639710,Portsmouth St/Walnut St
246,39.147230,-82.578176,Lesmil Rd/W J Burke Rd
276,39.032833,-82.625686,E Main St/Anderson Dr
160,39.126127,-82.546663,W B St/Tammy Ln
216,39.082536,-82.638811,US Hwy 35/Prices Switch Rd
160,39.068860,-82.641585,Turner Ave/Jessie St
185,39.014974,-82.713313,State Rte 32
160,39.091892,-82.524823,State Rte 32
160,39.042596,-82.630682,/Harris St
160,39.069936,-82.610061,/State Rte 788
160,39.043369,-82.640034,Hillcrest Pl/Dickason St
160,39.104314,-82.672498,US Hwy 35
216,39.068418,-82.642572,Turner Ave/Chillicothe St
160,39.109879,-82.529699,S Massachusetts Ave/E 14th St
160,39.111292,-82.531896,E 13th St/S New Jersey Ave
160,38.897713,-82.561070,E Main St
276,39.120314,-82.540939,W 4th St/S Wisconsin Ave
160,39.046395,-82.652553,Fleetwood Ave/Greenmeadow Ct
185,39.166644,-82.741369,US Hwy 35
362,39.045481,-82.650628,S David Ave/W Huron St
160,39.074889,-82.652524,/Smith Bridge Rd
160,39.118544,-82.542316,6th St/Minnesota Ave
160,39.118356,-82.557569,W Broadway St
276,38.897327,-82.566058,E Main St/Madison St
160,39.112411,-82.531770,S New Jersey Ave
160,39.054395,-82.651727,State St/Parkview Ave
160,39.071279,-82.628037,US Hwy 35
160,39.040629,-82.691127,Hammertown Lake Rd
185,39.042937,-82.636121,Colonial Dr
185,39.048588,-82.639552,Dickason St/E South St
160,39.043232,-82.638868,Hillcrest Pl
160,39.096583,-82.660165,Clubhouse Rd/Pierce-Mather Cemetery Rd
246,39.062674,-82.637222,Holly Hills Dr
160,39.059651,-82.646074,N High St
160,38.896858,-82.558310,E Main St
160,39.055482,-82.554168,Pattonsville Rd
216,38.897849,-82.562333,Herbert Dr/E Main St
305,39.032951,-82.622781,Smith's Ln/Brumback Ave
246,39.055041,-82.592215,Pattonsville Rd
276,39.049328,-82.654494,W South St/Payne St
185,39.122890,-82.538304,S Michigan Ave/W 1st St
185,39.123865,-82.556981,/Number 8 Pike/Finley Chapel Rd
334,39.048479,-82.636423,Burlington Rd/E South St
658,39.044483,-82.629934,Carr St/E Main St/E Huron St
276,39.058233,-82.637972,Mill St/Freeman St
160,39.112508,-82.606464,Church St
185,39.053420,-82.647985,State St/N Star St
579,39.117059,-82.534302,8th St
160,39.022569,-82.579491,Clary Rd
160,39.116688,-82.539063,S Michigan Ave/W 9th St
160,39.107821,-82.610615,Exline St/2nd St
185,39.029999,-82.638129,/Burlington Rd
334,39.120374,-82.533358,S Pennsylvania Ave/E 3rd St
216,39.038119,-82.631053,Buckeye Ln/Harris St
160,39.035846,-82.591674,Keystone Furnace Rd
334,39.123249,-82.536399,W Broadway
160,39.056393,-82.658009,Austin Way
246,39.052403,-82.654742,Maple Ave
185,38.899236,-82.608221,State Rte 279/Frank Puckett Rd
160,39.062220,-82.647632,Coffman St/Jones St
185,39.031527,-82.594949,US Hwy 35
160,38.906559,-82.643346,Four Mile Rd
185,39.078536,-82.544648,Keenan Rd
160,39.109967,-82.611650,Stewart St
160,39.096485,-82.537392,State Rte 327
276,38.901427,-82.572354,Mill Lawn Ave/Morgan St
160,39.047299,-82.655413,Brookside Dr
185,39.039755,-82.633347,Puerto Dr
185,38.895085,-82.582942,State Rte 279
185,39.062292,-82.636860,/Morton St
246,38.901687,-82.568075,Rainer Dr
160,38.894129,-82.576520,Western Ave/Maple St
216,39.123049,-82.540632,S Wisconsin Ave/W 1st St
499,39.045996,-82.634299,/Center St
160,38.950870,-82.480116,/Cardwell Rd
418,38.898287,-82.571674,Railroad St/Elm St
160,39.046652,-82.655511,Brookside Dr
216,38.895453,-82.570357,Portland St/E Main St
246,38.895633,-82.569751,E Main St/2nd St/Glencove Ave
160,39.125483,-82.535065,E B St
160,39.080212,-82.538850,State Rte 124
160,39.112070,-82.524821,/Jarvis St
160,39.014329,-82.574200,US Hwy 35
160,38.896308,-82.582420,W Main St
185,39.038158,-82.630233,/State Rte 32
160,39.038610,-82.606763,Acey Ave
185,39.047033,-82.645968,S Bennett Ave/Tropic St
160,39.126904,-82.542414,W C St
216,39.054797,-82.646505,W John St/N High St
362,39.121783,-82.535708,2nd St
246,39.052826,-82.640262,Pearl St/Locust St
276,39.061047,-82.631436,/Mill St
216,39.121421,-82.530801,S New Jersey Ave/E 2nd St
246,39.047250,-82.650434,S David Ave/Tropic St
246,39.123861,-82.700232,Fremont Rd/US Hwy 35
160,39.080273,-82.576030,Country Club Rd
305,39.053145,-82.641967,State St/Bridge St
334,39.039386,-82.627928,E Main St
246,39.056011,-82.619975,Cherokee Ln/Cherokee St
216,39.044599,-82.651979,Hickory Rd
160,39.043269,-82.609675,Industry Dr
160,38.896985,-82.567654,/Monroe St
160,39.054761,-82.627585,Mason Ave
160,39.075280,-82.558552,Fairgreens Rd/Martin Dr
160,39.111748,-82.531845,S New Jersey Ave/New Jersey Ave
216,39.052247,-82.652617,W Oak St/Oak St
216,39.064585,-82.638017,Lincoln Dr/Fisher Dr
185,38.899447,-82.569220,Front St
246,39.051031,-82.652272,/Parkview Ave
160,39.045269,-82.646140,S Bennett Ave/W Huron St
445,39.051123,-82.638033,Pearl St/Broadway St
160,38.902813,-82.568915,N Jackson St
185,39.057798,-82.721105,Pine Ridge Rd
160,39.117289,-82.569794,Vine St/State Rte 93
160,39.013872,-82.604480,State Rte 93
276,39.128364,-82.536890,Jeff Montomery Way
216,39.128058,-82.532481,E E St/N Pennsylvania Ave
526,39.127505,-82.537775,W D St/N Michigan Ave
185,39.040267,-82.630875,Harris St/Ralph St
160,39.137285,-82.530347,Grady Ln
185,38.894625,-82.571637,Gallia St/E Hill St/2nd St/Hill St
160,39.112895,-82.606278,Dixon St
160,39.116697,-82.528950,S Massachusetts Ave/E 8th St
185,39.165522,-82.738906,US Hwy 35/Cain Rd
246,39.053689,-82.634269,E Broadway St
276,39.045867,-82.627244,Corporation St/Circle Dr
160,39.087581,-82.618906,Rafferty Rd
160,39.019611,-82.647452,Mercer Rd
160,39.125186,-82.544093,/W A St
160,39.116773,-82.543658,S Missouri Ave/W 9th St
185,39.112924,-82.612085,Church St
160,39.058585,-82.653314,W Main Pl/W Main St/Diamond St
305,39.124500,-82.534064,E A St/N Ohio Ave
246,39.128338,-82.536503,N Indiana Ave
160,39.003599,-82.575847,/Hanley Rd
185,39.063742,-82.649284,Elm St
160,39.009691,-82.751032,Van Fossan Rd/State Rte 32
526,39.033150,-82.625918,Smith's Ln/E Main St
216,38.898834,-82.566897,3rd St/Jefferson St
185,39.094800,-82.493940,State Rte 32/Hollingshead Rd
334,39.049371,-82.655199,W South St/Jisco West Rd
160,39.111061,-82.533100,S New York Ave
216,38.895501,-82.571147,E Main St/Gallia St
185,38.926256,-82.527245,C H and D Rd/Corwin Rd
216,39.068372,-82.642653,Chillicothe Pike/Turner Ave
160,39.116776,-82.530119,E 8th St/S Vermont Ave
276,39.108543,-82.533383,S New York Ave
160,39.191116,-82.761627,Elam Rd
185,39.034415,-82.601313,Acey Ave
185,39.054582,-82.628986,Orchard Ln
362,39.048449,-82.635651,Walnut St/E South St
185,38.890606,-82.575625,Ohio Ave/Jones St
246,38.893537,-82.574700,Park St/Park Ave
185,39.122875,-82.550310,W 2nd St
185,39.076313,-82.583701,Fairgreens Rd
216,38.893914,-82.573546,Maple St
472,39.051726,-82.641638,E Oak St/Broad St/Locust St
216,39.101981,-82.545142,Meadow Run Rd
216,39.028537,-82.625588,Pleasant View Dr/Florence Ave/Lewis St
216,39.067899,-82.636936,Taft Rd
216,39.067884,-82.638286,Omar St/Daisy Ave
305,39.052418,-82.655112,Cherry Ave/Maple Ave
246,39.045170,-82.644121,W Huron St
334,39.124421,-82.532902,E A St/N Pennsylvania Ave
160,39.081787,-82.538032,/State Rte 327
216,38.893930,-82.573739,Maple St
185,39.165659,-82.739225,US Hwy 35
185,39.128381,-82.541218,N Minnesota Ave
305,39.032792,-82.621321,Ballard St
305,39.046670,-82.636586,Highland Dr/Burlington Rd
160,39.014482,-82.574314,US Hwy 35
216,39.049526,-82.640032,/Broadway St
762,39.031241,-82.621622,Watts-Blevins Rd/Brumback Ave
160,39.028825,-82.638242,Burlington Rd
160,39.112708,-82.623899,/Buffalo Skull Rd
216,39.031313,-82.625197,Mullin St/Walter St
390,39.052843,-82.638094,Portsmouth St/Main St
160,39.054806,-82.654569,State St
160,39.137065,-82.518440,Wellston Park Rd
160,39.026701,-82.619897,/Watts Colony St
185,39.058484,-82.637429,Mill St
276,39.053214,-82.641881,Walnut St/Bridge St
160,39.116866,-82.471697,State Rte 32/Mulga Rd
185,39.022273,-82.618783,Four Mile Rd
185,39.080240,-82.539430,State Rte 124
305,39.060369,-82.637956,Morton St/Logan St
160,39.046992,-82.645105,Tropic St/Chestnut St
216,39.120077,-82.537424,4th St/S Indiana Ave/W 4th St
160,39.014284,-82.573196,Clary Rd/Standpipe Rd
185,38.903750,-82.563052,Norman St/John Evans Rd
216,38.895741,-82.574442,Park St/W Main St
185,39.063272,-82.649325,W Mitchell St/Elm St
160,39.187404,-82.751209,Boy Scout Rd/Bronx Corner Rd
246,39.124071,-82.541696,S Minnesota Ave/W Broadway St/N Minnesota Ave
160,39.125481,-82.535154,E B St/Railroad Ave
160,39.092549,-82.658746,Dearing Rd/Rock Run Rd
160,38.883320,-82.480645,E Main St/Straight Rd
216,39.047092,-82.647207,S High St/Tropic St
160,38.947337,-82.477539,US Hwy 35/Bank Cross Rd
216,39.123244,-82.543527,W 1st St
160,39.006680,-82.767602,Van Fossan Rd
216,39.117687,-82.530024,S Vermont Ave/E 7th St
390,39.116110,-82.533808,E 9th St/S Pennsylvania Ave
160,38.892418,-82.575419,Jones St
160,38.954887,-82.636023,King Farrar Rd/Farrar Rd
390,38.897698,-82.570605,Portland St/Front St
185,39.061167,-82.645939,W Vine St/High St/N High St
305,39.125323,-82.532798,N Pennsylvania Ave/E B St
216,39.128379,-82.537111,Jeff Montomery Way/
160,39.049437,-82.650200,N David Ave
160,39.078093,-82.538301,State Rte 327
160,39.122271,-82.529523,E 1st St/Vermont Ave
160,39.137032,-82.519333,Wellston Park Rd
813,39.046039,-82.630835,E Main St
160,39.113238,-82.606234,/Bridge St
216,39.122398,-82.544145,W 2nd St
160,39.042971,-82.636900,Colonial Dr/Burlington Rd
160,39.015859,-82.713404,/Buckeye Church Rd
390,39.046357,-82.647265,Globe St/S High St
160,39.013468,-82.727390,Cedar Cemetery Rd/State Rte 32
276,39.062441,-82.637910,Holly Hills Dr
160,39.112446,-82.605850,Dixon St/Church St
160,39.106752,-82.611316,Railroad St/Oiler St
552,39.111093,-82.534628,S Pennsylvania Ave
216,38.924433,-82.464942,Centerville Rd/US Hwy 35
185,39.121610,-82.524956,Rhode Island Ave
160,39.180862,-82.750639,Bronx Corner Rd/US Hwy 35
185,39.045115,-82.643020,Vaughn St/W Huron St/E Huron St
185,38.882110,-82.576259,Knigge Rd
160,39.062184,-82.646832,/Coffman St
160,39.137221,-82.529441,Grady Ln/State Rte 93
305,38.899324,-82.567927,Jefferson St/2nd St
160,39.037421,-82.628925,Eastview Dr
160,39.042765,-82.609676,US Hwy 35
185,39.049636,-82.603026,Pattonsville Rd
362,39.122526,-82.533122,E 1st St/S Pennsylvania Ave
216,39.065109,-82.638557,Daisy Ave/Grace St
160,39.008038,-82.757011,Van Fossan Rd/State Rte 32
216,39.052393,-82.654586,Maple Ave
185,39.023466,-82.617758,State Rte 93
216,39.039022,-82.604808,US Hwy 35
552,39.050725,-82.636368,Church St
185,39.126230,-82.532692,N Pennsylvania Ave/E C St
160,38.950817,-82.676371,Riegel Ridge Rd
160,39.013702,-82.626932,Robin Hill Ln
472,39.127427,-82.536606,N Indiana Ave/W D St
160,39.071940,-82.628309,US Hwy 35
160,39.055603,-82.554800,Pattonsville Rd
160,39.115639,-82.602862,Main St
216,38.897222,-82.568151,Monroe St/3rd St
160,38.900736,-82.580818,Antioch Rd
160,39.124250,-82.530473,E A St/N New Jersey Ave
216,39.123992,-82.540526,W Broadway St/S Wisconsin Ave/N Wisconsin Ave
216,39.107322,-82.543598,Co Rd 1a/Meadow Run Rd/Fairgrounds Rd
185,39.066272,-82.640736,Cambrian Ave/Chillicothe St
185,39.120501,-82.530905,S New Jersey Ave/E 3rd St
160,39.085337,-82.536035,Sand Hill Rd
160,39.125062,-82.535137,Railroad Ave
160,39.014798,-82.673734,State Rte 32
185,39.089427,-82.537652,State Rte 327
185,38.900153,-82.567310,Washington St/2nd St
160,38.996446,-82.650791,Sheward Rd
185,39.061855,-82.639296,Coffman St/Chillicothe St
160,39.052516,-82.657559,Honeysuckle Ln
160,39.123377,-82.531752,S New York Ave/N New York Ave/E Broadway St
305,39.106986,-82.534936,/Honeysuckle Ln
185,39.124584,-82.535265,A St
160,39.072532,-82.569952,Brown Rd
246,39.044997,-82.640531,E Huron St
160,39.055406,-82.660819,/Beaver Pike
216,39.127343,-82.535436,W D St/N Park Ave/D St
185,39.170609,-82.744861,/US Hwy 35
305,39.048372,-82.634088,E South St/Center St
276,39.068795,-82.643028,Chillicothe Pike/Beul Harris Rd
246,39.057875,-82.638471,Chillicothe St/E Earl St
334,39.047307,-82.653527,/Westlawn St
160,39.052006,-82.621643,Longworth St/Old US Hwy 35
526,39.033344,-82.626262,Lincoln St
160,38.928662,-82.545035,Mining Haul Rd/Pyro Rd
160,38.895274,-82.567226,Bowman St
185,39.116914,-82.551564,Trailer Court Driveway
160,39.187747,-82.751744,Bronx Corner Rd
185,38.891202,-82.574061,S Front St/Steadman Ave
160,39.054067,-82.588095,Pattonsville Rd
185,38.884958,-82.577083,Knigge Rd
160,39.026971,-82.659861,Mount Zion Rd
185,39.055572,-82.647766,N Star St
246,39.056887,-82.638277,Chillicothe St/Hunt St
390,39.023707,-82.624632,Apricot Dr/Peach Dr
160,38.890277,-82.581303,Cozy Glenn Rd/Jim Reece
185,39.096158,-82.661510,US Hwy 35
305,39.059031,-82.642462,West St/Mound St/W Mound St
160,39.126170,-82.547486,W B St
185,39.063112,-82.637159,Holly Hills Dr
160,38.892653,-82.574820,/S Park Ave
160,39.166308,-82.740715,US Hwy 35
185,39.039327,-82.604139,Industry Dr
185,39.024320,-82.619341,State Rte 93
216,38.952575,-82.486252,Ebb Tomblin Rd
185,39.047828,-82.647150,S High St/Orange St
362,39.050496,-82.653242,Parkview Ave
305,39.115371,-82.535915,E 10th St
160,38.858168,-82.528165,Sardis Rd/George Faulkner Rd
160,39.033341,-82.637747,Markham Dr/Burlington Rd
185,39.039949,-82.630901,Sellars Dr/Harris St
334,38.896291,-82.569678,E Cross St/2nd St
216,39.064977,-82.636747,/Grace St
216,39.114763,-82.539326,S Michigan Ave/W 11th St
216,39.119182,-82.538721,S Michigan Ave/W 6th St
160,39.067948,-82.639470,Omar St/McKitterick Ave
160,39.080324,-82.541092,Fairgreens Rd/State Rte 32/State Rte 124
216,39.126432,-82.535539,W C St/N Park Ave
216,38.898365,-82.572705,Mill Lawn Ave
216,39.048119,-82.652364,Fleetwood Ave/Orange St
160,39.076897,-82.542235,State Rte 32
160,39.098855,-82.667591,Chillicothe Pike/US Hwy 35
185,39.061463,-82.630416,Mill St/Wheeler Ave
216,39.056312,-82.647700,N Star St/Crossland St
276,39.050428,-82.641119,Portsmouth St/
160,39.129813,-82.446081,State Rte 32
185,39.031436,-82.625297,Walter St
246,39.114672,-82.537993,S Indiana Ave/W 11th St
334,39.036879,-82.627387,Walnut Hills St
185,39.049219,-82.603088,State Rte 32
362,39.121592,-82.533230,S Pennsylvania Ave/E 2nd St
185,38.892908,-82.586327,/Jim Reese Rd
160,39.115978,-82.602238,Main St/State Rte 93
160,39.036926,-82.630966,Walnut Hills St
276,39.103325,-82.546068,Debbie Ln
160,39.058116,-82.653944,/W Main Pl/W Main St
362,39.123469,-82.533012,N Pennsylvania Ave/S Pennsylvania Ave/E Broadway St
160,39.140796,-82.492410,/Number 12 Hollow Rd
362,39.045330,-82.627289,Corporation St
185,39.183846,-82.754702,US Hwy 35
305,39.123666,-82.535850,W Broadway St/N Park Ave
160,39.125014,-82.541590,W A St/N Minnesota Ave
185,39.114011,-82.532768,S New York Ave/11th St
472,39.051753,-82.641606,Broad St/Locust St
185,39.165937,-82.738540,Cain Rd
160,39.133550,-82.544426,/State Rte 327/N Minnesota Ave
160,38.892240,-82.577116,Evelyn Dr
362,39.053287,-82.645311,N Bennett Ave/State St
246,39.066136,-82.639543,Short St/McKitterick Ave
185,39.050361,-82.644805,N Chestnut St/Cross St
658,39.044511,-82.630523,Harris St/E Huron St
185,38.930641,-82.467803,Folden Rd
246,39.074587,-82.565034,Fairgreens Rd
216,39.044894,-82.625716,/Carr St
418,39.053895,-82.633634,E Broadway St
334,39.122754,-82.548888,Harrison Ave/W 2nd St
185,39.057260,-82.646287,W Main St/N High St
185,39.065207,-82.639305,McKitterick Ave/Grace St
246,39.107679,-82.534276,15th St
305,39.031944,-82.624980,E Main St/State Rte 93
185,39.137984,-82.529320,State Rte 93
160,39.001436,-82.556675,Clary Rd
185,39.091609,-82.651543,US Hwy 35
185,39.048932,-82.648391,W South St/S Star St/N Star St
216,39.123828,-82.545407,W Broadway St/Burns Ave
160,39.075251,-82.558752,Fairgreens Rd
160,38.899892,-82.448858,Centerville Rd
160,38.858896,-82.599959,Gallia-Blackfork Rd/Cambria Rd
216,39.111039,-82.612091,Hearney Ave
160,39.062872,-82.631322,Ohio St
216,39.054292,-82.619890,/Andrew St
160,39.051798,-82.621674,Longworth St
216,39.111047,-82.612200,Hearney Ave/Anderson
216,38.897640,-82.564866,E Main St/Bowman St
185,39.055789,-82.638692,Bridge St
246,39.123128,-82.541801,S Minnesota Ave/W 1st St
160,39.028592,-82.626590,Lewis St
185,38.917575,-82.567240,N Jackson St/State Rte 93/Zane Oak Rd
160,38.895976,-82.479316,Thurman Rd/Cherry Fork Rd
185,39.039818,-82.634930,Redondo Dr
160,39.045223,-82.645254,S Chestnut St/W Huron St
160,39.059841,-82.636428,Logan St
334,39.048389,-82.634460,Pearl St/E South St
305,39.031996,-82.638166,Burlington Rd
160,38.891716,-82.577236,Davis Ave/Evelyn Dr
160,39.061907,-82.640421,Coffman St/Boyd St/E Coffman St
246,38.954427,-82.488805,Old US Hwy 35
246,39.030883,-82.638026,Burlington Rd
276,39.052563,-82.642685,Broad St/Bridge St
246,39.044438,-82.627363,Corporation St/Carr St
276,39.059865,-82.638862,Chillicothe St/E Wood Ave
160,39.062573,-82.622844,State Rte 788
160,38.904143,-82.568787,N Jackson St
160,39.020254,-82.608198,State Rte 93/Standpipe Rd
160,39.127952,-82.538903,Illinois Ave/N Illinois Ave
160,39.058853,-82.635582,Harrel St
160,39.126730,-82.544148,Jason St
216,39.049448,-82.656447,/Jisco West Rd
185,39.127267,-82.534344,Jeff Montomery Way
445,39.052834,-82.635889,Broadway St/Water St/E Broadway St
334,39.115231,-82.533900,E 10th St/S Pennsylvania Ave
418,39.049898,-82.635309,Columbia St
526,39.033314,-82.627253,Lincoln St
160,39.129145,-82.597461,Jack Vaughn Rd/Finley Chapel Rd
160,39.127681,-82.458644,Charles Bierhup Rd/State Rte 32/Lincoln Cemetery Rd
390,39.033145,-82.625838,Smith's Ln
216,39.054698,-82.652942,State St/Maple Ave
246,39.117608,-82.528854,S Massachusetts Ave/E 7th St
246,39.035351,-82.600034,Keystone Furnace Rd/US Hwy 35/McCarty Ln
216,39.119589,-82.531001,S New Jersey Ave/E 4th St
160,39.043189,-82.617572,/State Rte 32
160,39.056169,-82.645054,N Bennett Ave/Bennett Ave/Crossland St
160,39.127971,-82.531220,E E St/N New York Ave
185,38.953421,-82.636155,King Farrar Rd/Farrar Rd
160,39.041881,-82.653063,/State Rte 776
160,38.895906,-82.566506,Bryn Mawr Dr/Buckeye Ave
185,39.061167,-82.639106,Chillicothe St
185,38.991326,-82.538347,US Hwy 35
185,38.894519,-82.571701,/2nd St
160,39.061745,-82.632058,Summitt St/Ohio St
216,39.065045,-82.640340,Chillicothe St
185,39.061613,-82.639208,Chillicothe St/Clinton St
216,38.990147,-82.691859,John Hoops Rd/Five Points Rd
160,39.116874,-82.570484,State Rte 93
160,38.859624,-82.600727,State Rte 93/Cambria Rd
276,39.039227,-82.627876,/E Main St
185,39.054703,-82.626591,/Mason Ave
160,38.880592,-82.514830,Sardis Rd
216,38.897664,-82.564774,Boundary St/E Main St
160,39.014017,-82.574218,Standpipe Rd
160,39.040587,-82.622569,State Rte 32/Veteran's Dr
160,39.028845,-82.636705,Trenton Ave/Smith Ct
185,38.882075,-82.576647,Knigge Rd
276,39.111458,-82.538110,S Indiana Ave/W 13th St
160,39.014793,-82.688735,Patrick Ave/Five Points Rd
276,39.114585,-82.536709,W 11th St
216,39.191166,-82.761032,Bronx Corner Rd/Elam Rd
185,39.053680,-82.639190,Main St/Locust St
246,39.142111,-82.532858,Jolly Ln/State Rte 93
160,39.008664,-82.756982,Van Fossan Rd
305,39.030943,-82.638017,Twin Oaks Dr/Burlington Rd
160,38.890235,-82.574274,S Front St/Steadman Ave
216,39.113027,-82.532879,S New York Ave/E 12th St
246,39.066008,-82.637121,Taft Rd/Short St
160,39.023181,-82.618683,Four Mile Rd/Yellow Delicious Dr
276,39.111427,-82.537387,Driving Park Rd/W 13th St
160,38.893549,-82.602387,Lakeview Dr/State Rte 279
185,39.126674,-82.539046,W C St/N Illinois Ave
216,39.056045,-82.642700,West St/Crossland St
185,39.126005,-82.544435,W B St
216,39.035724,-82.599459,Keystone Furnace Rd/Industry Dr/Clary Rd
246,39.110749,-82.610596,Darling St/2nd St
160,39.061269,-82.633216,Summitt St/Owen St
160,38.891538,-82.574569,Davis Ave
185,39.080471,-82.544021,Fairgreens Rd/Keenan Rd
160,39.126757,-82.540215,N Wisconsin Ave/W C St
160,39.050663,-82.617773,/US Hwy 35
160,39.072462,-82.571165,Fairgreens Rd
216,39.118844,-82.533519,E 6th St/S Pennsylvania Ave
216,39.055376,-82.617051,Kessinger School Rd
246,39.111101,-82.611012,2nd St
160,39.052616,-82.625053,Triumph St/George St
185,38.900074,-82.572510,Mill Lawn Ave/Center St
246,39.060791,-82.637717,Morton St
185,39.081373,-82.622489,State Rte 93
160,38.934220,-82.468095,US Hwy 35/Plum Rd
276,38.896324,-82.570267,Portland St/E Cross St
185,39.089185,-82.537096,Braley Rd
216,38.925363,-82.529881,/C H and D Rd
276,38.895624,-82.572874,W Main St
160,39.113000,-82.613036,Foster St/Church St
160,39.097252,-82.665405,Chillicothe Pike
305,39.047981,-82.650353,S David Ave/Orange St
276,39.110223,-82.534725,S Pennsylvania Ave/E 14th St
185,39.044936,-82.650694,S David Ave/Hickory Rd
526,38.900885,-82.569127,N Jackson St/Cross St
160,39.106424,-82.532496,Maple Dr
160,39.028932,-82.638232,Trenton Ave/Burlington Rd
246,38.881451,-82.514764,Sardis Rd/E Main St
216,39.046420,-82.648588,Globe St/S Star St
160,39.045055,-82.625141,/Veteran's Dr
160,38.899775,-82.609134,State Rte 279
185,39.108130,-82.525265,/S Maine Ave
605,39.035420,-82.626849,Ballard St
185,39.163439,-82.735095,US Hwy 35
246,39.122788,-82.549391,W Broadway St/W 2nd St
160,39.116451,-82.549287,Comet Rd/Ingalls Rd
418,38.894843,-82.574548,Park St/W Hill St/Park Ave
185,39.045250,-82.613557,State Rte 32
185,39.069865,-82.642852,Jessie St
160,39.057764,-82.642549,West St/Earl St
160,38.859742,-82.600679,State Rte 140/State Rte 93
499,39.044662,-82.633621,Gay St/E Huron St
160,39.014071,-82.573996,US Hwy 35/Standpipe Rd
246,39.114600,-82.536955,W 11th St/S Railroad Ave
418,39.036879,-82.627162,E Main St/Walnut Hills St
185,39.048811,-82.645794,N Bennett Ave/S Bennett Ave/W South St
185,39.118427,-82.540585,6th St
160,39.048572,-82.639067,Church St/E South St
160,39.129923,-82.702582,US Hwy 35/Sour Run Rd
305,39.031833,-82.638173,Burlington Rd/State Rte 32
160,39.117902,-82.569876,Vine St/Oak St
185,38.896084,-82.558381,Firebrick St
160,39.056105,-82.643860,N Chestnut St/Crossland St
160,39.123393,-82.529394,N Vermont Ave/E Broadway St
276,39.049460,-82.635859,Pearl St/Columbia St
246,39.019628,-82.650040,Mercer Rd
185,39.028510,-82.625102,Pleasant View Dr
160,39.062852,-82.631335,Ohio St
305,39.032414,-82.626080,Walter St
246,38.894076,-82.593319,State Rte 279
246,39.046936,-82.643917,Trago St/Tropic St
216,39.088499,-82.586231,State Rte 788/Sand Hill Rd
390,39.113235,-82.535929,E 12th St/S Ohio Ave
246,38.896487,-82.572422,W Cross St
185,39.120473,-82.543242,W 4th St/S Missouri Ave
499,39.033545,-82.627558,Lincoln St
160,38.890730,-82.577461,Ohio Ave/Evelyn Dr
160,39.059284,-82.635691,Mill St
160,39.104605,-82.671248,Lloyd Bridges Rd
305,39.107223,-82.535063,Honeysuckle Ln/State Rte 327
160,39.104791,-82.671276,Lloyd Bridges Rd
160,39.111995,-82.523677,S Delaware Ave//Delaware Ave
216,39.041815,-82.633876,Gay St/Gay Pl
160,39.054601,-82.642828,West St/W John St
334,39.036334,-82.627018,Grimes St/E Main St
160,39.104817,-82.534009,/Braley Rd
160,38.892535,-82.544571,E Main St/C H and D Rd
305,39.032681,-82.625568,E Main St
160,38.898023,-82.567527,3rd St/Madison St
185,39.038614,-82.627416,State Rte 32
185,38.904419,-82.452348,Centerville Rd/US Hwy 35
160,39.127071,-82.458241,Charles Bierhup Rd
160,39.117529,-82.527692,S Connecticut Ave/E 7th St
160,39.038604,-82.646531,State Rte 139
160,39.109972,-82.611732,Broadway St/Stewart St
160,38.906736,-82.624256,State Rte 279/Leonard Ln
160,39.050398,-82.632589,Harding Ave
246,39.117664,-82.538399,/W 8th St
185,39.094842,-82.493839,State Rte 32/Hollingshead Rd
246,38.896450,-82.571927,W Cross St/Cross St/Railroad St
185,39.031362,-82.626560,Walter St
185,39.120731,-82.537350,S Indiana Ave
276,39.056241,-82.646378,Crossland St/N High St
185,39.114785,-82.472792,State Rte 32
185,38.911015,-82.651788,Dark Hollow Rd
185,39.156925,-82.733251,Tennant Rd/US Hwy 35
160,39.055945,-82.619225,Harper Ave/Cherokee Ln
305,39.047310,-82.654689,/Payne St
185,38.915579,-82.460073,US Hwy 35
390,39.053696,-82.637022,Portsmouth St/Water St
185,38.886301,-82.570963,/State Rte 233
526,38.900884,-82.569111,Cross St
305,38.899653,-82.566275,Washington St/3rd St
160,39.117280,-82.568903,/State Rte 93
526,39.111284,-82.534606,E 13th St/S Pennsylvania Ave
160,39.026934,-82.646978,Mayhew Rd
160,39.142042,-82.724579,US Hwy 35/Savageville Rd
305,39.046377,-82.643964,Trago St
246,39.048778,-82.644913,W South St/N Chestnut St
185,39.110611,-82.541538,Driving Park Rd/Fairgrounds Rd
185,39.120156,-82.538601,W 4th St/S Michigan Ave
246,39.140373,-82.532741,Plummer Ln
185,39.125967,-82.543741,W B St//Brian Ave
185,38.902560,-82.448570,US Hwy 35
185,39.042925,-82.633776,Briarwood Dr/Gay St
160,39.057108,-82.571087,Kessinger School Rd/Rice Rd
160,39.085546,-82.642907,US Hwy 35
216,38.895730,-82.584525,State Rte 279/W Main St
160,38.953824,-82.568562,State Rte 93
276,39.114540,-82.536054,W 11th St/E 11th St
160,39.132821,-82.544245,/Radcliff Ln/Radcliff St
216,38.990201,-82.691831,John Hoops Rd/Five Points Rd
185,38.898488,-82.449009,State Rte 279
579,39.051491,-82.635408,Church St/Court St
246,39.051816,-82.645442,W Oak St/N Bennett Ave
160,39.087669,-82.619734,State Rte 93/Rafferty Rd
160,38.991261,-82.691703,Five Points Rd
185,39.049112,-82.651283,Ohio Ave/W South St/Kenwood Ave
160,38.949408,-82.479198,US Hwy 35
160,38.897273,-82.579243,/Antioch Rd
160,39.107253,-82.536231,S Ohio Ave
362,39.050989,-82.641876,Locust St
160,39.132662,-82.530056,N Pennsylvania Ave/State Rte 349
736,39.047280,-82.631554,E Main St
185,39.070377,-82.573738,Rice Rd/State Rte 32
160,38.896824,-82.567607,/E Main St
362,38.898784,-82.571617,Aetna St/Elm St
160,39.202593,-82.760080,Bronx Corner Rd
276,39.053777,-82.654958,Cherry Ave/Elm St
305,39.118757,-82.532266,S New York Ave/E 6th St
418,39.053223,-82.644116,State St/N Chestnut St
305,38.894827,-82.592294,State Rte 279/Mc Corkle Rd
160,39.111678,-82.541927,W 13th St
216,38.999060,-82.552038,Dillon Rd
160,39.092718,-82.536600,Braley Rd/Honeysuckle Ln/Tom Corwin Rd
160,39.050404,-82.645608,N Bennett Ave/Cross St
185,39.095263,-82.659233,Chillicothe Pike/US Hwy 35/Clubhouse Rd
216,39.033847,-82.637644,Canterbury Dr/Burlington Rd
160,38.897138,-82.560321,/Bingham St/N Bingham St
160,38.925158,-82.466041,Folden Rd/Centerville Rd/Moriah Rd
185,39.089637,-82.532177,State Rte 32
526,39.048697,-82.642680,Vaughn St/E South St
185,39.139680,-82.721720,US Hwy 35
246,39.122681,-82.535383,E 1st St/N Railroad Ave
216,39.117861,-82.568864,/Oak St
185,39.011158,-82.747264,Cove Rd/State Rte 32
216,39.119510,-82.529832,E 4th St/S Vermont Ave
216,39.061191,-82.637491,Morton St/Clinton St
246,39.039354,-82.605239,US Hwy 35
185,39.117269,-82.551108,Newman Ln/8th St
246,39.069211,-82.636808,Taft Rd/Parrish St
390,39.048189,-82.653442,Westlawn St/Orange St
579,39.035431,-82.626780,E Main St/Ballard St
160,39.023296,-82.624677,Peach Dr
160,39.035690,-82.635963,Canterbury Dr
160,39.133428,-82.712985,US Hwy 35/Ervin Hollow Rd
160,39.062622,-82.539763,State Rte 327
185,38.996337,-82.651229,State Rte 139
185,39.054776,-82.619366,Harper Ave/Longworth St
276,39.047209,-82.635706,Park St
160,39.047582,-82.628367,Bowman St
185,39.136295,-82.561194,State Rte 327
185,39.088545,-82.538442,Woodsen Cemetery Rd
334,39.115719,-82.539195,S Michigan Ave/W 10th St
160,38.859547,-82.601725,State Rte 140
160,39.041738,-82.632317,Gay Pl
160,39.113898,-82.546329,State Rte 93
216,39.044041,-82.615936,/State Rte 32
526,39.033462,-82.626141,E Main St
185,39.058056,-82.642549,West St/E Earl St/Earl St
276,39.052850,-82.618284,US Hwy 35/Pattonsville Rd
246,39.048778,-82.644954,W South St/Chestnut St
418,38.897816,-82.570856,Lincoln St/Railroad St
185,39.118464,-82.563497,Paul Green Rd
246,39.124935,-82.540420,N Wisconsin Ave/S Wisconsin Ave/W A St
185,39.065036,-82.637977,Lincoln Dr/Grace St
246,38.986211,-82.531018,US Hwy 35
334,39.042133,-82.626631,Electron Ave
160,38.976232,-82.520322,Dixon Run Rd
185,39.113708,-82.536988,W 11th St
160,39.094968,-82.449607,Mulga Rd/State Rte 124
216,39.044184,-82.649595,Starr Pl/High Pl
185,39.013691,-82.651288,State Rte 139/State Rte 32
246,39.124887,-82.540425,S Wisconsin Ave/N Wisconsin Ave
246,39.057992,-82.638495,Mill St/Chillicothe St
185,39.034481,-82.601396,Acey Ave/McCarty Ln
185,38.918499,-82.566983,Harmon Rd/State Rte 93
216,39.075315,-82.563205,Sunrise/Twilight Dr
472,39.126598,-82.537877,W C St/N Michigan Ave
160,39.063351,-82.651104,Dungan St/W Mitchell St
185,39.070464,-82.573585,Rice Rd/State Rte 32
276,39.053423,-82.623723,E Broadway St/Fairmount St
418,39.121872,-82.536790,2nd St
216,39.032987,-82.623417,Smith's Ln/Walmart Dr
160,38.991745,-82.549529,Dixon Run Rd
185,39.024010,-82.618921,State Rte 93
246,39.051989,-82.634785,Church St/Water St
276,38.896427,-82.571611,E Cross St/Front St
160,38.892636,-82.576080,/Charlotte Ave
305,39.032757,-82.625863,Anderson Dr
160,38.900164,-82.573540,Hyland Ave/Center St
160,38.901279,-82.612344,/Twp Hwy 403
160,39.111134,-82.529558,S Massachusetts Ave/E 13th St
246,38.954688,-82.488641,US Hwy 35
160,39.112925,-82.606716,Dixon St
362,38.894729,-82.573315,W Hill St
185,39.033460,-82.637705,Burlington Rd
305,39.116023,-82.532554,S New York Ave/E 9th St
160,39.124878,-82.463795,Hollingshead Rd
160,39.070790,-82.644670,/Chillicothe Pike/Chillicothe St
160,39.126867,-82.546574,Jason St/Tammy Ln
160,39.064042,-82.634999,Morton St/Fisher Dr
216,39.053512,-82.649819,State St/N David Ave
160,39.070053,-82.642641,/Jessie St
216,39.118304,-82.539987,S Illinois Ave
246,38.898319,-82.563299,Herbert Dr
160,39.142714,-82.532637,State Rte 93
334,39.032387,-82.625338,E Main St
276,39.108225,-82.524101,/S Delaware Ave
160,39.053912,-82.630285,E Broadway St/Harding Ave
160,39.026975,-82.647620,State Rte 139/Mayhew Rd
160,39.130445,-82.530019,Oak Ridge Rd/Oak Ridge
160,39.112443,-82.611570,Broadway St/Elizabeth Ave
276,39.119129,-82.537531,S Indiana Ave/W 6th St
160,39.024221,-82.621997,Apricot Dr/Yellow Delicious Dr
216,39.118065,-82.686355,US Hwy 35
185,39.111595,-82.540740,W 13th St
160,39.036739,-82.630982,Walnut Hills St
160,39.032341,-82.613281,Smith's Ln
160,39.059623,-82.634924,Crossin St/Mill St
160,39.071070,-82.573837,Rice Rd
334,39.044899,-82.649012,/Starr Pl
160,39.074996,-82.626648,/State Rte 93
418,39.117593,-82.536845,W 8th St/S Railroad Ave
160,39.107829,-82.610702,Exline St/2nd St
160,39.040530,-82.622679,State Rte 32
276,38.895065,-82.577099,W Hill St
246,39.053775,-82.621400,Smith Pl/Longworth St
246,39.048267,-82.654596,Payne St/Orange St
160,38.878971,-82.544682,C H and D Rd
160,39.107887,-82.611350,Railroad St/Exline St
160,39.094100,-82.536422,Honeysuckle Ln
185,39.047189,-82.652466,/Fleetwood Ave
526,39.050313,-82.634787,Columbia St/Main St
160,39.126878,-82.546735,Tammy Ln
160,38.893167,-82.577502,Thomas St/Evan St
160,38.994375,-82.647559,Russ Rd/Sheward Rd
216,39.063343,-82.582899,State Rte 32
305,39.120491,-82.535065,3rd St
160,39.099749,-82.661585,Lunsford Rd
216,38.892758,-82.584480,Jim Reese Rd/Jim Reece Dr
216,39.062850,-82.639662,E Mitchell St/Chillicothe St
185,39.062350,-82.636805,Morton St/Holly Hills Dr
276,39.050133,-82.641489,Portsmouth St/Sycamore St
160,39.112140,-82.612992,Winfough Ave
185,38.997038,-82.651069,State Rte 139/Ralph Riegel Rd
160,39.044346,-82.611691,US Hwy 35
276,39.121044,-82.538501,/S Michigan Ave
418,39.053855,-82.633759,E Broadway St
246,38.895645,-82.573159,Mill St/W Main St
160,39.006687,-82.566605,US Hwy 35
246,39.095203,-82.537437,/State Rte 327
185,38.930016,-82.565766,State Rte 93
390,39.116554,-82.536883,W 9th St/S Railroad Ave
246,39.058863,-82.638665,Chillicothe St/E Mound St
160,39.107899,-82.611467,Exline St
160,39.036887,-82.630245,Walnut Hills St
185,39.060642,-82.619051,US Hwy 35
334,39.123749,-82.537019,N Indiana Ave/W Broadway St
160,39.013900,-82.574923,Hanley Rd/Standpipe Rd
160,38.980498,-82.641814,Four Mile Rd
305,39.031986,-82.625742,Walter St
185,39.031255,-82.628063,Florence Ave/Anderson Dr
305,39.032636,-82.625532,E Main St
185,38.898867,-82.574070,/N Park Ave
160,38.893010,-82.574779,Park St/S Park Ave/Thomas St
160,39.126703,-82.543657,/Jason St/Brian Ave
334,39.053158,-82.642956,State St/West St
160,38.966544,-82.498083,Vega Rd
160,39.043951,-82.643131,Vaughn St
160,39.052165,-82.620215,/Triumph St
216,39.119407,-82.539863,W 6th St/S Illinois Ave
160,39.111027,-82.542486,/Driving Park Rd
276,39.141327,-82.532089,/State Rte 93
185,39.111213,-82.530727,E 13th St/S Vermont Ave
160,39.114159,-82.546785,State Rte 93
305,39.034068,-82.627713,Lincoln St
788,39.031160,-82.622922,Watts St/Walmart Dr
390,39.048412,-82.634895,/E South St
185,39.062410,-82.636901,Holly Hills Dr
160,39.052398,-82.657568,Honeysuckle Ln/Elm St
526,39.048736,-82.643764,W South St/Trago St
362,39.123507,-82.547513,W Broadway St
246,39.085436,-82.537791,Bessie Hill Rd/State Rte 327/Sand Hill Rd
185,39.074192,-82.562411,Brown Rd
334,39.111403,-82.536825,E 13th St/W 13th St
160,39.028371,-82.642360,State Rte 32
390,39.050693,-82.634312,Columbia St/Court St
185,39.126143,-82.531432,N New York Ave/E C St
216,39.056612,-82.638228,Chillicothe St/Athens St
160,39.125767,-82.539149,W B St/N Illinois Ave
160,39.107934,-82.611854,Broadway St/Exline St
160,39.050349,-82.599818,State Rte 32
160,39.048700,-82.739684,Dry Run Rd/Beaver Pike
160,39.107854,-82.611858,Broadway St
160,38.895225,-82.566543,Bowman St/Buckeye Ave
160,39.113053,-82.613730,Wells St/Church St
246,39.117828,-82.562543,Lockhard Rd/Paul Green Rd
160,38.913641,-82.567738,N Jackson St/John Evans Rd
160,39.115944,-82.531385,E 9th St/S New Jersey Ave
276,39.033016,-82.625820,E Main St
160,39.069465,-82.641526,Parrish St/Turner Ave
276,39.051800,-82.657763,Oak St/Elm St
185,38.896107,-82.565622,Bryn Mawr Dr/Palmyra Ave
216,39.120393,-82.542108,W 4th St/S Minnesota Ave
160,38.934342,-82.467276,Burchett Rd/Plum Rd
160,39.040868,-82.622706,Veteran's Dr
160,39.022685,-82.580878,US Hwy 35
160,39.052796,-82.627030,Triumph St
579,38.901410,-82.569070,N Jackson St
185,39.122355,-82.530692,E 1st St/S New Jersey Ave
160,39.046401,-82.628727,Bowman St
276,39.049024,-82.636403,Walnut St/Columbia St/Burlington Rd
246,39.114755,-82.539207,S Michigan Ave/W 11th St
185,39.091082,-82.536941,/Braley Rd
216,38.898959,-82.573678,Hyland Ave/Aetna St
305,39.111410,-82.536979,W 13th St
216,39.049045,-82.650237,N David Ave/W South St/S David Ave
185,39.003397,-82.596527,State Rte 93
185,39.048051,-82.651400,Kenwood Ave/Orange St
276,39.111413,-82.537072,W 13th St/Railroad Ave
334,38.894713,-82.573118,W Hill St/Hill St
160,39.026566,-82.638461,Burlington Rd
246,39.121505,-82.531970,S New York Ave/E 2nd St
160,39.023850,-82.630470,Null
160,38.968745,-82.636663,Four Mile Rd/Camba Rd
216,39.054282,-82.619803,Andrew St
160,39.038555,-82.627658,E Main St/State Rte 32
246,39.044403,-82.649591,/Starr Pl
185,39.189439,-82.764643,US Hwy 35
276,39.048642,-82.641136,Broadway St/E South St
185,39.130332,-82.543026,W E St/Sunset Dr
160,39.025457,-82.620842,Mayhew Rd
276,39.107728,-82.535006,15th St/State Rte 327/S Pennsylvania Ave
160,39.120981,-82.505592,Heading Ln/Mulga Rd
579,38.901179,-82.569095,N Jackson St/Morgan St
160,39.067739,-82.640592,Cambrian Ave/Jessie St
185,38.917786,-82.567193,State Rte 93
185,39.109899,-82.610673,Stewart St/2nd St
160,39.153630,-82.597163,Jack Vaughn Rd/State Rte 327
160,39.088925,-82.534482,State Rte 32
305,39.032866,-82.621488,Smith's Ln/Ballard St
185,39.023853,-82.618663,Four Mile Rd/State Rte 93
305,39.054537,-82.638118,Water St/Locust St
160,39.074947,-82.559104,Brown Rd
246,38.896061,-82.579389,W Main St
160,38.984251,-82.533379,Dixon Run Rd
185,39.009160,-82.774392,State Rte 32
160,39.040633,-82.643616,Vaughn St
362,39.125687,-82.537979,W B St/N Michigan Ave
160,39.055315,-82.660481,Austin Way/Beaver Pike
160,38.896435,-82.560320,Bingham St/N Bingham St/Reed St
160,39.040737,-82.651705,Mount Zion Rd
160,39.048488,-82.739979,Beaver Pike
276,39.020086,-82.619021,Four Mile Rd/Robin Hill Ln
246,38.896443,-82.571816,Cross St/E Cross St
276,39.046514,-82.650514,Globe St/S David Ave
160,39.077621,-82.624919,State Rte 93
185,38.992387,-82.539887,US Hwy 35/State Rte 327
160,39.090425,-82.537207,Braley Rd
160,38.912006,-82.590966,Antioch Rd/Shady Point Rd
185,38.893841,-82.577426,Evan St
216,38.893899,-82.573324,S Front St/Front St/Maple St
160,39.057685,-82.720025,Beaver Pike
246,39.065002,-82.637219,Taft Rd/Grace St
276,39.114408,-82.534105,E 11th St/S Pennsylvania Ave
216,39.088335,-82.537229,Braley Rd
160,39.063346,-82.640293,Boyd St
160,39.129011,-82.452582,State Rte 32
305,39.044557,-82.626943,Carr St/Powell Dr
246,39.066144,-82.639646,Short St/McKitterick Ave
160,38.887779,-82.626392,Leonard Ln/Hickory Grove Rd
160,39.009844,-82.783164,Glade Rd/State Rte 32
276,39.058952,-82.640683,Boyd St/Mound St/E Mound St
276,39.111516,-82.539571,S Michigan Ave/W 13th St
246,39.128318,-82.536221,Jeff Montomery Way
160,39.037299,-82.637277,Burlington Rd
390,39.048450,-82.635594,Park St/E South St
246,39.066079,-82.638462,Short St/Daisy Ave
445,39.054067,-82.633014,E Broadway St
160,38.991396,-82.725030,Spohn Rd
246,38.897713,-82.569183,Monroe St/2nd St
334,38.899984,-82.571479,Elm St/Center St
216,38.898869,-82.572648,Mill Lawn Ave/Aetna St
160,38.895358,-82.568380,Bowman St
160,39.141086,-82.531694,Plummer Ln/State Rte 93
334,39.031501,-82.638016,Burlington Rd
216,38.893310,-82.574745,Park St/S Park Ave
246,39.124618,-82.535742,A St/N Park Ave
160,39.030355,-82.623769,Watts-Blevins Rd/State Rte 93
276,39.111009,-82.611669,Hearney Ave/Broadway St
160,39.043720,-82.643153,Vaughn St
160,38.931460,-82.566182,State Rte 93
160,39.117317,-82.527714,/S Connecticut Ave
160,39.106613,-82.611327,Railroad St/Oiler St
276,39.032601,-82.626226,Walter St/Anderson Dr
1433,39.045373,-82.630451,Harris St/E Main St
160,38.898325,-82.565882,4th St/Jefferson St
305,39.032063,-82.625077,E Main St
160,39.051578,-82.654556,Oak St
160,39.038491,-82.538763,State Rte 327
216,39.037346,-82.631562,Eastview Dr
246,39.147262,-82.578167,Lesmil Rd/Scott Horn Rd
160,38.891513,-82.574213,Davis Ave
160,38.937225,-82.469471,Burchett Rd
305,39.045391,-82.648669,S Star St/W Huron St/Starr Pl
185,39.120005,-82.536395,4th St
185,39.125232,-82.531537,E B St/N New York Ave
305,39.048333,-82.633299,Gay St/E South St
185,39.113505,-82.611395,Broadway St
160,38.896771,-82.576225,W Cross St/Western Ave
185,39.127290,-82.534686,D St
185,39.111972,-82.541876,Wisconsin Ave
185,39.039388,-82.604229,/Industry Dr
160,38.868069,-82.724284,/Jackson Furnace Rd
185,39.013371,-82.574252,Hanley Rd
185,39.032459,-82.637184,State Rte 32
305,39.114557,-82.536315,/W 11th St
631,39.042768,-82.629107,/E Main St
305,38.894962,-82.575856,/W Hill St
160,39.051709,-82.684686,/Hammertown Lake Rd
160,39.100270,-82.484789,State Rte 32
216,39.038043,-82.631059,Harris St/State Rte 32
185,39.128254,-82.535334,Jeff Montomery Way/N Park Ave
185,39.044937,-82.639291,E Huron St
160,39.094246,-82.659096,Chillicothe Pike
499,39.046058,-82.633498,Gay St
246,39.064521,-82.636787,/Fisher Dr
160,39.038473,-82.602889,Industry Dr
246,39.123833,-82.538187,W Broadway St/S Michigan Ave/N Michigan Ave
160,39.132747,-82.713116,Ervin Hollow Rd
276,39.049415,-82.655910,Jisco West Rd
185,39.020642,-82.688175,Yinger Rd/State Rte 776/Risner Rd/Five Points Rd
185,39.119669,-82.532170,S New York Ave/E 4th St
185,39.049494,-82.602280,Cutlip Rd/State Rte 32
160,39.112883,-82.539417,S Michigan Ave
334,39.124370,-82.532208,/E A St
334,39.060208,-82.637487,Logan St
160,39.127196,-82.544876,Radcliff St
185,39.054167,-82.628951,Orchard Ln
160,39.116343,-82.560189,State Rte 788
160,39.051964,-82.648087,W Oak St/N Star St
362,39.121765,-82.535489,N Railroad Ave/E 2nd St/2nd St
216,39.110359,-82.536728,E 14th St
160,39.059329,-82.653248,Diamond St
160,38.898019,-82.572869,Lincoln St/Mill St
605,39.117022,-82.533712,E 8th St/S Pennsylvania Ave/8th St
305,39.051752,-82.644246,W Oak St/N Chestnut St
472,39.116935,-82.532458,S New York Ave/E 8th St
160,39.030747,-82.619933,Ballard St/Watts Blevins
160,39.130400,-82.542092,Old Rd/N Minnesota Ave
160,39.121178,-82.505167,Ratchford St/Mulga Rd
185,39.053838,-82.628962,Orchard Ln/E Broadway St
185,38.896100,-82.558768,Firebrick St/Davis St
185,39.110360,-82.541702,Racetrack Rd/Fairgrounds Rd
185,39.036738,-82.633519,Puerto Dr
185,39.066252,-82.641075,Chillicothe Pike
160,39.112045,-82.531811,New Jersey Ave
246,39.125273,-82.532114,/E B St
216,39.125520,-82.535641,W B St/N Park Ave
185,39.012799,-82.702360,State Rte 32
160,38.901459,-82.613153,/Twp Hwy 403
160,39.024117,-82.621739,Pear Ct/Yellow Delicious Dr
185,38.898146,-82.574157,Lincoln St/N Park Ave
185,39.052068,-82.649954,W Oak St/N David Ave
216,39.066196,-82.640700,Short St/Chillicothe St
160,39.052295,-82.621599,Triumph St/Longworth St
185,38.898514,-82.568563,Madison St/2nd St
185,38.893685,-82.575962,Charlotte Ave
185,38.897557,-82.560322,E Main St/Bingham St/N Bingham St
160,38.970333,-82.579965,Erwin Rd/State Rte 93
160,39.104784,-82.535904,Braley Rd/State Rte 327
246,39.109696,-82.677930,US Hwy 35/Lloyd Bridges Rd
499,39.048720,-82.643261,Portsmouth St/W South St/E South St
185,38.953407,-82.636508,King Farrar Rd/Antioch Rd
185,39.117482,-82.552349,Trailer Court Driveway
185,38.952947,-82.487873,Ebb Tomblin Rd/Old US Hwy 35
334,39.114521,-82.535784,S Ohio Ave/E 11th St
185,38.882131,-82.576040,State Rte 93/Knigge Rd
160,39.127985,-82.544788,Radcliff Ln/Radcliff St/W D St
160,39.033437,-82.634057,Terry Ln
160,39.107050,-82.644857,Raysville Rd
160,39.030781,-82.625889,Mullin St
552,39.117933,-82.533616,S Pennsylvania Ave/E 7th St
160,39.019997,-82.642734,State Rte 32
276,39.053427,-82.623767,E Broadway St/Fairmount St
160,38.992061,-82.541661,State Rte 327/C H and D Rd
160,39.060928,-82.640508,Vine St/Boyd St/E Vine St
526,38.898199,-82.570206,Monroe St/Front St
216,39.033562,-82.637683,Burlington Rd
160,38.954782,-82.569505,Sternberger Rd/State Rte 93
276,38.895596,-82.572483,Main St/W Main St
276,39.060733,-82.627716,State Rte 788
160,39.047769,-82.645897,S Bennett Ave/Orange St
185,39.038522,-82.627834,State Rte 32
216,38.921379,-82.461538,Centerville Rd
185,38.997253,-82.548494,US Hwy 35
445,39.054511,-82.640276,Bridge St/Main St
185,39.120048,-82.537015,4th St
160,39.119431,-82.528662,S Massachusetts Ave/Massachusetts Ave/E 4th St
160,39.092221,-82.658344,Dearing Rd
160,39.054910,-82.621130,Longworth St
185,39.037253,-82.629700,Eastview Dr
185,39.054343,-82.621340,Longworth St/Andrew St
526,39.033326,-82.626643,Lincoln St
276,39.110825,-82.611680,Darling St/Broadway St
788,39.040160,-82.628186,E Main St/Ralph St
216,39.085374,-82.536956,Bessie Hill Rd/Sand Hill Rd
160,38.996521,-82.721056,State Rte 776
276,39.057735,-82.638443,Chillicothe St
185,39.096856,-82.661425,Clubhouse Rd
362,38.901338,-82.571324,Morgan St/Elm St
246,39.122434,-82.531862,S New York Ave/E 1st St
276,39.103450,-82.671751,US Hwy 35/Lloyd Bridges Rd
246,39.046630,-82.635575,Highland Dr
160,39.126314,-82.533854,N Ohio Ave/E C St
418,39.034987,-82.627956,Lincoln St
216,38.899797,-82.568950,N Front St/Jefferson St/Front St
160,39.088044,-82.626799,Eisnaugle Hollow Rd
160,39.132744,-82.530050,N Pennsylvania Ave
362,39.121680,-82.534391,S Ohio Ave/E 2nd St/2nd St
160,39.103637,-82.544935,/Debbie Ln/Meadow Run Rd
185,39.052391,-82.640806,Walnut St/Locust St
276,38.897388,-82.565818,Palmyra Ave/E Main St
160,39.047895,-82.648473,S Star St/Orange St
185,38.953145,-82.485709,US Hwy 35
216,39.062578,-82.637255,Holly Hills Dr
185,39.113763,-82.611656,Main St
160,39.031731,-82.627441,Anderson Dr
185,39.111372,-82.533065,S New York Ave/E 13th St
160,39.129388,-82.531374,Oak Ridge Rd/Milton Pl
160,39.118678,-82.531097,S New Jersey Ave/E 6th St
160,39.042986,-82.634867,Briarwood Dr
185,39.105719,-82.673731,US Hwy 35
390,39.054058,-82.632863,E Broadway St
499,39.117038,-82.536866,S Railroad Ave
390,39.121837,-82.536363,2nd St
160,39.072975,-82.570829,Cora Ln
246,38.897335,-82.576163,Western Ave
246,39.125604,-82.536810,W B St/N Indiana Ave
185,39.129674,-82.543153,Sunset Dr
334,39.122635,-82.547667,W 2nd St/S High St
276,39.075415,-82.564305,Blue Sky Dr/Twilight Dr
185,39.039750,-82.634934,Redondo Dr
160,39.039157,-82.625624,/State Rte 32
160,39.107537,-82.460163,Melvin Downard Rd/Mulga Rd
246,39.106356,-82.544115,Co Rd 1a/Fairgrounds Rd
160,39.116935,-82.600011,/State Rte 93
160,38.856854,-82.599231,Gallia-Blackfork Rd
246,39.049500,-82.651261,/Ohio Ave
390,39.121688,-82.534476,S Ohio Ave/E 2nd St/2nd St
160,38.849621,-82.464483,Jimes Emory Rd/Corinth Rd
216,38.895635,-82.584290,State Rte 279
185,39.125980,-82.529093,N Vermont Ave/E C St
160,39.045266,-82.646062,W Huron St/Bennett Ave
160,39.020843,-82.599709,/Standpipe Rd
160,38.901517,-82.573385,Hyland Ave/Morgan St
160,39.045224,-82.645194,S Chestnut St/W Huron St
160,39.126386,-82.463031,A W Long Rd
216,39.030583,-82.638072,Breaden Ave/Burlington Rd
160,38.972547,-82.636115,Four Mile Rd/Four Mile Cemetery Rd
216,39.065907,-82.640878,Chillicothe Pike
390,39.050894,-82.640534,Portsmouth St/Broad St
160,39.050644,-82.633027,Water St/Evans Pl
276,39.050027,-82.639405,Broad St/Broadway St
216,39.008249,-82.762728,State Rte 32
185,39.038488,-82.628019,State Rte 32
246,39.110303,-82.535887,S Ohio Ave/E 14th St
334,39.123628,-82.535273,W Broadway St/E Broadway St/N Railroad Ave
160,39.107915,-82.611626,Exline St
160,39.115865,-82.530216,E 9th St/S Vermont Ave
160,39.112143,-82.613067,Winfough Ave/Foster St
185,38.887704,-82.624021,Hickory Grove Rd/Wilfred Coon Rd
160,38.859579,-82.600521,Cambria Rd
526,39.030803,-82.622680,Watts-Blevins Rd/Watts St
276,39.122494,-82.545559,Burns Ave/W 2nd St
185,39.008876,-82.761499,Van Fossan Rd
160,39.022956,-82.618706,Four Mile Rd
305,38.895010,-82.576378,W Hill St/Western Ave
160,38.946938,-82.476704,Cardwell Rd
160,39.043871,-82.611114,/US Hwy 35
160,39.012820,-82.701546,State Rte 776/Buckeye Church Rd
185,38.898990,-82.574055,N Park Ave/Aetna St
418,39.050688,-82.638577,Walnut St/Broadway St
185,39.030495,-82.636508,Breaden Ave
185,39.072628,-82.570492,Brown Rd/Fairgreens Rd
305,39.117846,-82.532362,S New York Ave/E 7th St
160,38.871096,-82.594388,Wecem Rd/State Rte 93
160,39.115250,-82.532635,S New York Ave
160,39.024604,-82.619637,State Rte 93
160,39.050552,-82.632394,Veteran's Dr/Harding Ave
160,39.128576,-82.540011,Jeff Montomery Way/Wisconsin Ave/Jeff Montgomery Way
216,39.031524,-82.638704,State Rte 32
246,38.899920,-82.569214,N Jackson St/Railroad St
362,39.046884,-82.642852,Vaughn St/Tropic St
216,38.956465,-82.790305,Johnson Rd/Crabtree Rd
276,38.894642,-82.571980,E Hill St
160,39.066183,-82.573024,Rice Cemetery Ln/Rice Rd
160,39.121619,-82.695190,US Hwy 35/Caves Rd
185,39.116548,-82.552486,Trailer Court Driveway
160,39.047634,-82.615263,/US Hwy 35
246,39.122204,-82.548951,Harrison Ave
276,39.123142,-82.549092,/W Broadway St
160,38.971453,-82.508312,US Hwy 35
160,39.133100,-82.530003,N Pennsylvania Ave/State Rte 93
160,39.012416,-82.701779,State Rte 776/State Rte 32
160,39.050278,-82.636929,Pearl St/Church St
305,38.896043,-82.578398,Antioch Rd/W Main St
160,39.096252,-82.664064,Berla Rd
305,39.118962,-82.535226,6th St
160,39.013884,-82.650242,State Rte 32
305,39.123651,-82.535618,W Broadway St
305,39.107045,-82.543694,Co Rd 1a/Fairgrounds Rd
334,38.894685,-82.572843,Front St/Hill St/E Hill St
276,39.059223,-82.638736,Morton St/Chillicothe St
185,39.022159,-82.613808,State Rte 93
160,39.130269,-82.542107,W E St/Old Rd
160,39.035734,-82.629756,Ballard St
334,39.049364,-82.655075,W South St
160,38.946014,-82.476552,US Hwy 35
185,39.041729,-82.620376,State Rte 32
185,38.980003,-82.587420,State Rte 93
185,39.125925,-82.541488,W B St/N Minnesota Ave
246,39.107190,-82.543536,Co Rd 1a
185,39.088370,-82.537674,State Rte 327/Woodsen Cemetery Rd
160,38.892460,-82.581138,Smittle Rd/Jim Reese Rd
216,39.041504,-82.633903,Gay St/Missouri Ave
160,38.981035,-82.512184,Dixon Run Rd/Scurlock Rd
276,39.107140,-82.543744,Fairgrounds Rd
246,38.896057,-82.568987,E Main St/Bowman St
160,38.913108,-82.625141,Wood Hill Dr/Dan T Davis Rd
246,39.053646,-82.650825,State St/Ohio Ave
216,39.064952,-82.640453,Chillicothe Pike/Grace St
246,39.056221,-82.638310,Bridge St/Chillicothe St
160,39.058920,-82.653284,Diamond St
246,39.107135,-82.543103,Co Rd 1a
736,39.051976,-82.636961,Broadway St/Main St
160,38.898048,-82.567580,/Madison St
160,39.116199,-82.525526,E 9th St/S Rhode Island Ave
160,39.118599,-82.529928,E 6th St/S Vermont Ave
160,38.895882,-82.576324,W Main St/Western Ave
246,38.894085,-82.575916,Maple St/Charlotte Ave
160,39.099996,-82.667927,Clubhouse Rd
160,39.008545,-82.756984,Van Fossan Rd
160,39.047752,-82.601082,Cutlip Rd
160,39.113124,-82.531690,E 12th St/S New Jersey Ave/New Jersey Ave
185,38.898473,-82.574117,/N Park Ave
160,38.903361,-82.562883,Norman St/E Evans St/N Bingham St
216,39.056962,-82.639934,Hunt St
246,39.051273,-82.657658,Honeysuckle Ln
276,39.116855,-82.531289,E 8th St/S New Jersey Ave
185,38.886150,-82.570824,State Rte 233
160,38.987069,-82.750034,State Rte 776
160,39.109557,-82.674238,Lloyd Bridges Rd
185,39.122965,-82.539463,S Illinois Ave/W 1st St
160,39.062141,-82.645853,Coffman St/High St
185,39.122164,-82.540731,S Wisconsin Ave/W 2nd St
160,38.891645,-82.576193,Davis Ave/Charlotte Ave
334,39.122672,-82.547663,W 2nd St
362,39.049809,-82.634129,Main St/Evans Pl
276,38.895581,-82.572276,E Main St/Main St/Front St
216,39.127055,-82.531326,E D St/N New York Ave
246,39.127142,-82.532586,N Pennsylvania Ave/E D St
216,39.190829,-82.760945,Bronx Corner Rd/Elam Rd
185,39.052731,-82.626310,Triumph St
185,39.032689,-82.596569,US Hwy 35
246,39.057564,-82.635905,Athens St
216,39.056070,-82.620692,Cherokee St
160,39.199633,-82.760390,Bronx Corner Rd
160,39.025428,-82.620403,Mayhew Rd/State Rte 93
160,39.121505,-82.545595,W Hoop St
216,39.082213,-82.638370,US Hwy 35
160,39.097612,-82.665221,US Hwy 35
185,39.026389,-82.638479,Mayhew Rd/Burlington Rd
246,39.054004,-82.631902,E Broadway St
185,39.022064,-82.613519,State Rte 93
160,38.926408,-82.530449,/Griffith St
216,38.919989,-82.539177,C H and D Rd
160,39.122880,-82.613028,Garfield Rd
216,38.893441,-82.574730,Park St
185,39.059901,-82.630158,Athens St/State Rte 788
185,39.078279,-82.541614,Fairgreens Rd/State Rte 32
246,39.028834,-82.622737,State Rte 93
185,39.053697,-82.626683,/E Broadway St
684,39.048273,-82.632158,E Main St/Main St/E South St
276,39.045506,-82.636690,Burlington Rd
631,39.111478,-82.534584,E 13th St/S Pennsylvania Ave
185,39.014080,-82.666719,Mount Zion Rd/State Rte 32
160,39.128391,-82.537675,Michigan Ave/N Michigan Ave
160,39.041310,-82.656263,State Rte 776/Tom Campbell Rd
246,39.046503,-82.654767,Payne St
246,38.999348,-82.554720,US Hwy 35
185,39.035631,-82.637500,Burlington Rd
160,39.023617,-82.620457,Yellow Delicious Dr
216,39.049319,-82.640291,Broadway St/Sycamore St
160,39.061917,-82.620740,US Hwy 35
160,38.989924,-82.545913,Dixon Run Rd
246,39.048501,-82.637060,Columbia St/E South St
160,39.035619,-82.591011,Keystone Furnace Rd/Lewis Rd
160,39.133242,-82.544198,Radcliff St/N Minnesota Ave
160,39.091343,-82.651126,Jackson Hill Rd/US Hwy 35
160,39.111057,-82.612777,Foster St/Hearney Ave/Scott St
160,39.129143,-82.532042,N Pennsylvania Ave/Oak Ridge Rd
276,39.037726,-82.627400,/E Main St
160,39.063815,-82.651063,Dungan St
246,39.044811,-82.636753,E Huron St/Burlington Rd
334,38.898996,-82.569576,Madison St/Front St
216,39.045453,-82.625943,Carr St/Circle Dr
185,39.044172,-82.650788,S David Ave/High Pl
445,39.045904,-82.633512,Gay St
160,39.136513,-82.560580,Adelphia State Rd/State Rte 327
160,38.892076,-82.574885,S Park Ave
185,38.892715,-82.584120,Jim Reese Rd
185,39.009670,-82.753018,Van Fossan Rd
160,38.890186,-82.584420,Cozy Glenn Rd/Jim Reese Rd
185,39.117767,-82.531193,S New Jersey Ave/E 7th St
160,38.898873,-82.564649,Boundary St/Washington St
160,39.059090,-82.653269,Diamond St
185,39.023256,-82.619479,Yellow Delicious Dr
160,39.062932,-82.635975,Morton St
160,38.892816,-82.574801,Park St/S Park Ave
246,39.044448,-82.628889,Carr St/Bowman St
160,39.014530,-82.694392,Patrick Ave
276,39.053502,-82.634846,E Broadway St
276,38.894048,-82.575401,/Maple St
160,39.027707,-82.659526,Mount Zion Rd/Mayhew Rd
185,39.020870,-82.609900,State Rte 93/County Home Rd
216,39.044966,-82.639870,E Huron St/Dickason St
216,39.056236,-82.642716,Main St/W Main St
160,39.129522,-82.702342,US Hwy 35
160,39.110712,-82.610038,Darling St/3rd St
160,38.890187,-82.584660,Cozy Glenn Rd/Harrison Betts Rd
305,39.031882,-82.638089,State Rte 32
246,39.121194,-82.540841,S Wisconsin Ave
160,38.928704,-82.545087,/Pyro Rd
276,39.124702,-82.536911,N Indiana Ave/A St/W A St
276,39.032858,-82.621366,Smith's Ln/Ballard St
185,39.060019,-82.642374,West St/E Wood Ave/W Wood Ave
276,39.123637,-82.535410,W Broadway St
185,38.897132,-82.566801,4th St/E Main St
160,39.115911,-82.586502,Walnut St/Glen Roy Rd
216,38.939536,-82.588846,Clay Banner Rd/Zane Oak Rd
160,39.107329,-82.611885,Broadway St
185,39.039714,-82.634012,Redondo Dr
160,38.894600,-82.559733,Cross St
160,38.986895,-82.750674,/State Rte 776
160,38.891498,-82.573995,Davis Ave/S Front St
216,39.053216,-82.621459,Longworth St/E Broadway St
160,39.085723,-82.542557,/Sand Hill Rd/Wellston Industrial Park Rd
216,39.044430,-82.628304,Carr St/Powell Dr
185,38.926299,-82.527115,Ch and D Rd/C H and D Rd
710,39.112118,-82.534512,/S Pennsylvania Ave
160,39.094735,-82.450233,State Rte 124/Jefferies Ln
246,39.118924,-82.534682,S Ohio Ave/6th St/E 6th St
160,39.110043,-82.532037,S New Jersey Ave/E 14th St
160,39.033147,-82.628726,Dawson St
246,39.033129,-82.625598,Smith's Ln
160,39.024687,-82.621574,Pear Ct
216,39.118572,-82.568134,/Locust St
185,39.069122,-82.644394,Beul Harris Rd
185,39.191021,-82.762353,Elam Rd
160,38.949366,-82.478576,Cardwell Rd
185,39.122085,-82.539562,S Illinois Ave/W 2nd St
305,39.106586,-82.535197,State Rte 327
160,38.976399,-82.521340,US Hwy 35
160,39.041753,-82.651077,State Rte 776/S David Ave/Mount Zion Rd
160,39.121610,-82.543115,S Missouri Ave
160,39.076908,-82.563098,Sunrise
216,39.053537,-82.624913,George St/E Broadway St
216,38.931027,-82.566057,State Rte 93
160,39.027138,-82.719929,/Jisco West Rd
216,39.046448,-82.653610,Greenmeadow Ct/Westlawn St
216,39.040386,-82.633977,Redondo Dr/Gay St/Ralph St
160,39.107367,-82.542452,Co Rd 1a/Fairgrounds Rd
216,39.050529,-82.648230,Cross St/N Star St
276,39.114595,-82.536867,W 11th St
160,39.061215,-82.647038,W Vine St
390,39.053354,-82.646634,State St/N High St
160,39.128417,-82.537672,/Michigan Ave/Jeff Montomery Way
246,39.051841,-82.658305,Oak St
160,39.181082,-82.750103,Bronx Corner Rd
160,39.123554,-82.466500,Hollingshead Rd
160,39.052672,-82.730675,Beaver Pike
160,39.047982,-82.628749,Veteran's Dr
160,39.057008,-82.644980,Bennett Ave/W Main St
160,39.032895,-82.636665,State Rte 32
334,39.048641,-82.634788,Pearl St/Harding Ave
160,39.120639,-82.552492,W Broadway St
185,39.045792,-82.612397,State Rte 32
216,39.045223,-82.639847,Dickason St
185,39.109720,-82.569053,State Rte 788
216,39.107440,-82.543517,Racetrack Rd/Fairgrounds Rd
390,38.900844,-82.568552,Cross St/Rainer Dr
445,39.111363,-82.535768,S Ohio Ave/E 13th St
160,39.051595,-82.654795,Oak St
276,39.053979,-82.623588,Smith Pl/Fairmount St
216,39.055449,-82.617959,US Hwy 35
185,39.030645,-82.593700,US Hwy 35
334,39.036306,-82.627194,Grimes St
160,39.092711,-82.658461,Chillicothe Pike/Rock Run Rd
390,39.047404,-82.633380,Gay St
216,39.047263,-82.636533,Burlington Rd
160,39.059465,-82.635315,Mill St
185,38.896634,-82.574344,Park St/W Cross St/N Park Ave
160,39.075235,-82.558872,Brown Rd/Fairgreens Rd
160,39.060447,-82.708522,Harrison Rd/Beaver Pike
246,39.117661,-82.538929,S Michigan Ave/W 8th St
246,39.053373,-82.623184,E Broadway St
160,39.130522,-82.545777,W E St//Adam Ln
160,39.013192,-82.729966,State Rte 32
185,39.031237,-82.628091,Florence Ave/Anderson Dr
160,38.928859,-82.545360,Pyro Rd
185,39.061605,-82.630064,Mill St
246,39.055148,-82.641110,John St/Main St
185,38.935203,-82.567102,Clay Banner Rd/State Rte 93
185,39.126836,-82.541385,W C St/N Minnesota Ave
185,39.122243,-82.541901,S Minnesota Ave/W 2nd St
160,38.939637,-82.587591,Clay Banner Rd
160,38.923222,-82.656588,Four Mile Rd
185,39.046298,-82.646040,Globe St/S Bennett Ave
246,39.120287,-82.532105,S New York Ave/E 3rd St
276,38.900011,-82.569144,Railroad St/Rainer Dr
160,39.069435,-82.640998,/Parrish St
160,38.889916,-82.539543,E Main St
185,39.008273,-82.763036,State Rte 32
160,38.892689,-82.577556,Oak View Rd/Evan St
185,39.068867,-82.575872,State Rte 32
246,39.053752,-82.650334,State St/Carroll Ave
185,39.121475,-82.694135,US Hwy 35
160,39.032228,-82.631834,Florence Ave
160,39.054824,-82.654839,State St/Cherry Ave/Beaver Pike
216,39.055187,-82.591845,State Rte 32
185,38.898075,-82.574166,N Park Ave
185,38.937998,-82.470581,US Hwy 35
216,38.900539,-82.568385,Washington St/N Front St
160,39.024661,-82.609465,County Home Rd
216,39.044281,-82.639940,Dickason St
185,39.062494,-82.583296,Kessinger School Rd
216,39.122005,-82.538393,S Michigan Ave/W 2nd St/2nd St
160,39.172342,-82.699547,Cain Rd/Borland Rd
305,38.894927,-82.572693,/Front St
185,38.858303,-82.528568,Sardis Rd
160,39.033493,-82.635263,Terry Ln/Twin Oaks Dr
160,39.011444,-82.745965,State Rte 32
276,39.051790,-82.657617,Honeysuckle Ln/Oak St
