Estimated daily crossings,Latitude,Longitude,Name
390,39.459339,-81.463959,T700/Main St
185,39.281408,-81.586103,Moore Ave
499,39.277293,-81.597495,Tuttle St
813,39.273038,-81.569557,Main St
418,39.394366,-81.399747,Sunny View Dr/T1350/Sunnyview Dr
418,39.425329,-81.474082,Gilman Ave/Groves Ave
185,39.388031,-81.227298,Morus St
185,39.284872,-81.640771,US Hwy 50/Shell St
185,39.464091,-81.120496,State Rte 7
160,39.537296,-81.241474,State Rte 26
216,39.451956,-81.457866,/Cambridge Rd
160,39.296895,-81.669127,Hannah Pl/Jenny Dr
334,39.418207,-81.464845,Fort Harmar Dr
185,39.372986,-81.398085,/Sterling Rd
246,39.524776,-81.061502,3rd St
185,39.368554,-81.519762,/State Rte 7
160,39.390146,-81.404142,Pike St/
185,39.424936,-81.619479,/Fisher Ridge Rd/C2
160,39.323345,-81.561942,T1160
185,39.408562,-81.431921,Pierce St/Jefferson St
390,39.271494,-81.572487,Ridge St/Elm St
160,39.430987,-81.456492,Saint Marys Ave/Locust St
160,39.458770,-81.501822,T547
246,39.545497,-81.639036,Elm St/2nd St
160,39.388921,-81.215172,Saint Marys Brg
362,39.371708,-81.395473,/Newport Pike
276,39.412115,-81.471309,Riverview Dr/Alta St
216,39.379296,-81.393666,T543
160,39.378528,-81.499089,State Rte 7
305,39.284973,-81.594308,US Hwy 50
246,39.608485,-81.457030,I- 77
334,39.488091,-81.456812,T337/Main St
185,39.429311,-81.549834,High Point Dr/Chainey Run Rd
185,39.444880,-81.429675,/Glendale Rd
160,39.282292,-81.661156,Co Rd 212
246,39.284414,-81.601259,Seneca Dr/Pennsylvania Ave
362,39.442131,-81.433344,I- 77
216,39.427072,-81.445847,Hillside Way/Hillcrest Dr
160,39.381408,-81.387423,Summit Dr
276,39.271432,-81.571140,Hamilton Ct/Walnut St
1252,39.414471,-81.440733,Hart St/Pike St
390,39.277887,-81.585248,Wyatt Ln
160,39.580817,-81.711598,T567
185,39.357585,-81.575565,Greenhill Rd/Twp Rd 282/Green Hill Rd
216,39.279003,-81.565986,7th St
160,39.403916,-81.388435,Bae Cir
579,39.418322,-81.431950,Greene St/Colegate Dr
185,39.468330,-81.469985,Country Club Dr/T1109
445,39.548602,-81.638502,/6th St
185,39.405326,-81.472410,Race St
160,39.400250,-81.226032,Null/Woodland Dr
216,39.482505,-81.442034,I- 77
160,39.515556,-81.074347,/Williamson Ave
968,39.414183,-81.456974,W Putnam St/Putnam Street Brg
334,39.424423,-81.466009,Montgomery St/W Montgomery St/Front St
334,39.273160,-81.567499,Spencer Ct/Oneal St
185,39.522250,-81.658491,/State Rte 339
160,39.468960,-81.492473,Muskingum River Rd
185,39.436792,-81.471239,C4
160,39.342553,-81.557288,State Rte 7
334,39.473141,-81.464190,Deerwalk Cir
418,39.396771,-81.667264,/State Rte 339
216,39.391058,-81.228482,Lee Dr/Greenwood St
160,39.552668,-81.623182,State Rte 60
185,39.532942,-81.511951,/State Rte 60
3643,39.416825,-81.447140,Butler St/
160,39.533834,-81.645572,C802/State Rte 339
552,39.406998,-81.461406,Franklin St/Virginia St
185,39.282910,-81.586910,Virginia St/Clayton Ave
185,39.427685,-81.411700,/Greene St
499,39.409687,-81.424880,I- 77
216,39.283297,-81.581453,Hocking Rd
362,39.421767,-81.426064,E Fay Ave/I- 77
276,39.326275,-81.716846,/Sealy Ridge Rd
160,39.470454,-81.485239,Ward St/Devols Dam Rd
216,39.486751,-81.443143,Cambridge Rd/I- 77
710,39.537724,-81.639157,Barbs Ln/High Ave
334,39.371330,-81.395259,Newport Pike
160,39.244185,-81.702128,/Stanley Mills Rd
160,39.465086,-81.635404,State Rte 339
917,39.431171,-81.463824,4th St/Ferguson St
160,39.376027,-81.668382,Church St/T1152
160,39.287650,-81.658289,T15/State Rte 339
160,39.286496,-81.590924,Belrock Ave
160,39.342011,-81.676950,C3
579,39.421962,-81.451920,/Mulberry St
276,39.383765,-81.385411,T541/Osage Ln
216,39.441477,-81.433993,Swaney Ct/Glendale Rd
160,39.282706,-81.601479,School Dr
2061,39.413362,-81.446887,State Rte 60/S 5th St
185,39.405197,-81.473412,Simpson St/Race St
160,39.282625,-81.591181,Belrock Ave/Patricia St
160,39.479625,-81.449534,/Arends-Ridge Rd
472,39.430999,-81.462656,5th St/Ferguson St
334,39.542724,-81.645640,T1064/T1180
418,39.422456,-81.445233,/Clifton St
418,39.279196,-81.595418,Talbot St/Elizabeth St
710,39.436825,-81.463587,Rathbone Rd
185,39.265219,-81.697350,/State Rte 124
160,39.282798,-81.571708,Wirt St/Elm St
185,39.288942,-81.567005,State Rte 7
246,39.308108,-81.566486,State Rte 7
334,39.427126,-81.461613,Montgomery St
305,39.547910,-81.642086,5th St
362,39.470546,-81.471779,Keyser St/Alden Ave
160,39.521343,-81.414169,Palmer St
334,39.279633,-81.611194,Penny Ct/Washington Blvd/Farson St
185,39.444894,-81.459005,Muskingum Dr
3755,39.419362,-81.448144,Walker St/7th St/Putnam St
160,39.343804,-81.659917,Veto Cir/Lake Ln
246,39.542391,-81.644801,T1064/Marquis Ave
160,39.572210,-81.702858,Clark Hill Rd/Coryhill Rd
185,39.537056,-81.393866,Old Plank Rd
185,39.441265,-81.261512,C9/Twp Rd 635
160,39.474310,-81.471384,Heiss Dr
246,39.488148,-81.455704,T337
160,39.604790,-81.457863,I- 77
160,39.470918,-81.411235,Stanleyville Rd
246,39.417446,-81.422268,W Fay Ave
1563,39.411478,-81.433057,Pike St/Court St/Lafayette Pl
362,39.410320,-81.459670,/Gilman Ave
160,39.430887,-81.454199,Dean St/Ray Rd
160,39.574844,-81.715271,Echo Valley Rd
185,39.415668,-81.462527,New St
160,39.400348,-81.485924,T1277
579,39.277487,-81.588185,Putnam Pl/Putnam Howe Dr
216,39.421991,-81.427610,E Spring St
216,39.524463,-81.067226,Broadway St/State Rte 260
246,39.464669,-81.467165,Main St/Snearly Dr
160,39.287396,-81.611441,Farson St
160,39.299070,-81.633085,Richwood Ct/Ridgewood Blvd
185,39.410889,-81.441228,/Wayne St
160,39.332950,-81.560900,State Rte 7
185,39.369951,-81.394478,Newport Pike/Burkhart Ln
305,39.389616,-81.222293,Gale Ave/Adkins St
216,39.307055,-81.566422,C51/State Rte 7
246,39.270011,-81.569885,Blennerhassett Ave/Main St
305,39.546217,-81.634437,3rd St/Mc Intosh St
160,39.377796,-81.676920,T854
246,39.551555,-81.625300,/State Rte 60
334,39.527317,-81.504527,McClain St/Main St
305,39.380635,-81.565635,/Robinson Hill Rd
246,39.449173,-81.438546,I- 77
246,39.483845,-81.442615,/I- 77
276,39.627431,-81.462542,/C8
334,39.516117,-81.451660,I- 77
160,39.388591,-81.270895,Newell Run Rd
246,39.464495,-81.466409,Lincoln Rd/Snearly Dr
185,39.275119,-81.710095,State Rte 555
185,39.369119,-81.394006,Newport Pike
160,39.282331,-81.640922,Shell St
305,39.495987,-81.448662,I- 77/C8
185,39.359844,-81.388727,/Newport Pike
305,39.426614,-81.439048,Colonial Dr
185,39.276923,-81.570665,Walnut St/5th St
160,39.281031,-81.683864,Wingrove Dr
216,39.247604,-81.716937,US Hwy 50/Collins Rd
418,39.405736,-81.428404,I- 77
334,39.548180,-81.642615,Zanesville St/5th St/Ohio St
246,39.530046,-81.650847,Windy Point Dr/Elm St
160,39.523760,-81.414056,Hill St/High St
160,39.404748,-81.712894,Hickman Rd/State Rte 550
185,39.413662,-81.463501,George St
160,39.297135,-81.668557,Hannah Pl
305,39.285541,-81.604231,Ann St
160,39.469808,-81.585310,Close Rd/Lancaster St/T711
305,39.406943,-81.467243,Pearl St/Fort Harmar Dr
216,39.399554,-81.487542,Belavista Dr
185,39.290888,-81.720381,State Rte 555
185,39.487846,-81.442570,/Cambridge Rd
216,39.285812,-81.589184,Braun Rd/Hill St
246,39.280647,-81.657320,/Washington Blvd/State Rte 339
160,39.448480,-81.465976,Ash Rd/Westchester Dr
305,39.277831,-81.573641,/Barclay St
160,39.314851,-81.665171,Spence Rd/State Rte 339
185,39.380378,-81.398496,Biehl Rd/Browns Rd
160,39.447183,-81.440088,T342
216,39.392243,-81.482926,T591/State Rte 7
160,39.268467,-81.573787,Parkersburg Ave/John St
305,39.537258,-81.637374,Washington St/High Ave
185,39.399309,-81.487651,Belavista Dr/T648
605,39.417197,-81.435010,Greene St/Plum St
362,39.429313,-81.453059,10th St/Warren St
418,39.411336,-81.457912,Fort St/Maple St
362,39.394187,-81.399869,Sunny View Dr
362,39.394642,-81.399627,/T1350
160,39.528673,-81.510022,Water St/Market St
246,39.389073,-81.222381,/T135/Adkins St
305,39.393750,-81.401973,/Tennis Center Dr
160,39.425877,-81.526898,T277/Bethel Rd
160,39.395683,-81.543402,State Rte 550
631,39.426364,-81.462872,Pioneer Ln/Montgomery St
216,39.517245,-81.450966,I- 77
185,39.401535,-81.682619,/State Rte 550
216,39.501381,-81.452283,I- 77
160,39.607873,-81.413142,T1121/State Rte 821
276,39.429547,-81.457623,Montgomery St/Hildreth Ln
334,39.477664,-81.485110,Masonic Park Rd/T550/Creston Ln
185,39.300272,-81.695722,/Burnfield Rd
390,39.416871,-81.431457,Porter St
362,39.419036,-81.422943,I- 77
185,39.427699,-81.425638,Van Bergen St
160,39.332384,-81.587077,T287
246,39.283359,-81.654200,Main St
160,39.421123,-81.437781,Shade St/Aurora St
160,39.333253,-81.727404,C3
631,39.421204,-81.460585,Washington St/2nd St
160,39.284090,-81.657188,/State Rte 339
246,39.377629,-81.384062,/C348
185,39.470218,-81.464579,Seneca Dr/Iroquois Dr
246,39.491322,-81.442619,/Da V Rd
216,39.524247,-81.067800,Duncan Dr
246,39.278114,-81.593441,Gene St/Park Dr
390,39.513433,-81.075378,Park Ave/2nd St
216,39.439406,-81.435666,Glendale Rd
160,39.390609,-81.239075,/T135
334,39.287696,-81.654717,Watson Ln
216,39.279124,-81.568158,7th St
418,39.438827,-81.450836,Academy Dr
472,39.377217,-81.398596,C20/Newport Pike/State Rte 7
418,39.551984,-81.636613,Center St
276,39.583948,-81.458199,I- 77
334,39.437848,-81.458451,Rathbone Ter/Caro Ln
216,39.398200,-81.660162,/State Rte 550
445,39.271239,-81.579363,Clement Ave
305,39.411518,-81.440197,S 7th St/Wayne St
160,39.555118,-81.634205,Lakeview Dr/Spring St
305,39.286464,-81.591948,Wiley Ave
160,39.283104,-81.697223,Meadowcrest Ln
160,39.475494,-81.478560,Strecker Ln
390,39.441623,-81.432774,I- 77
276,39.439596,-81.431959,I- 77
276,39.278774,-81.588557,Putnam Pl
216,39.400228,-81.225194,Null/Woodland Dr
160,39.394316,-81.218825,Poinciana Dr
160,39.350163,-81.355954,/Newport Pike
891,39.412561,-81.436330,Pike St/Mullholland Dr
216,39.414473,-81.426271,Wells Ave/Phillips St
185,39.443401,-81.434365,I- 77
216,39.390105,-81.226198,Eddy Ln
185,39.418199,-81.467957,Lancaster St/Fair View Ln
185,39.334117,-81.642663,T1399
160,39.472676,-81.439188,Cambridge Rd
334,39.426848,-81.456907,Marietta Ln/Warren St
185,39.354689,-81.789710,Bank St/State Rte 555
160,39.318821,-81.564190,Twp Rd 1305/T1304/Ayers Blvd
2841,39.421559,-81.447735,Gross St/Ephraim Cutler St/Clifton St
246,39.443092,-81.454063,Colegate Dr
246,39.560436,-81.448463,I- 77
160,39.287458,-81.611723,Farson St/Farson Ave/Valley View Dr
216,39.400188,-81.224139,Woodland Dr
160,39.288538,-81.658768,Watson Ln/State Rte 339
185,39.347884,-81.554138,Blue Knob Rd/State Rte 7
160,39.281384,-81.587024,Saw Grass Cir
216,39.283496,-81.657199,Main St/State Rte 339
276,39.551028,-81.637840,/Virginia St
276,39.418326,-81.471687,Lookout Park
160,39.378345,-81.670730,Layman Rd/High St
216,39.328488,-81.561209,State Rte 7
160,39.388880,-81.225981,T135
305,39.283047,-81.610870,Hanvey Ave/Farson St
160,39.526651,-81.506392,New Bridge St
160,39.275149,-81.572150,Elm St
160,39.330031,-81.640377,C85
305,39.419113,-81.463923,Washington Street Brg
472,39.450148,-81.458519,Cambridge Rd/Muskingum Dr/Main St
276,39.446734,-81.473023,Howard St/Oak Grove Ln/C4
891,39.410790,-81.448098,/Mtta Williamstown Brg
362,39.286122,-81.593023,Morgan Ave/Hill St
160,39.375533,-81.668426,/Church St/1st St
472,39.423831,-81.458974,Ellenwood Ave/4th St
185,39.525302,-81.445597,Twp Rd 1335
185,39.434081,-81.503256,/Lancaster St
305,39.419374,-81.463543,Washington Street Brg
160,39.526638,-81.058575,Petty St/2nd St
445,39.275679,-81.570764,4th St/Walnut St
160,39.464981,-81.635446,State Rte 339
246,39.417137,-81.426701,/Kenwood St
305,39.390987,-81.226728,T1096/Greenwood St/Charles St
526,39.429055,-81.462035,Garfield St/5th St
246,39.275277,-81.689041,US Hwy 50
305,39.385664,-81.666555,Warrior Rd/State Rte 339
160,39.405077,-81.530376,/State Rte 550
276,39.285582,-81.657389,US Hwy 50/State Rte 339
185,39.278035,-81.614216,Riverview Dr/Phillip St
160,39.527976,-81.443867,T1336/C8
185,39.325738,-81.562421,Co Rd Twp Rd 51/Lawn Ln
160,39.278173,-81.619073,/Beach Dr/Hutchinson St
526,39.419645,-81.428390,Holly St/Greene St
160,39.333544,-81.672037,State Rte 339
160,39.543869,-81.042679,T1307
1304,39.415538,-81.454881,2nd St/Court House Ln
185,39.436923,-81.439012,Crestwood Cir
390,39.280369,-81.600560,Sycamore St
2301,39.415224,-81.444177,Greene St
185,39.536101,-81.637898,Washington St/T1066/Virginia Ave
160,39.335116,-81.672124,/State Rte 339
160,39.282763,-81.653946,Railroad Ave
185,39.389398,-81.226707,Dye St
160,39.535487,-81.518434,/Lowell Loop Rd
472,39.548090,-81.630800,Ullman St
216,39.393028,-81.227223,Lauer Dr/Harrison St
246,39.284668,-81.605860,Mary St
276,39.528409,-81.503737,/McClain St
160,39.465103,-81.633621,Mill Ln/Twp Rd 1069
160,39.392323,-81.620387,State Rte 550
185,39.285300,-81.646407,Davis Creek
246,39.284790,-81.597784,Westview Dr
160,39.423386,-81.489838,/Cole Coffman Rd
160,39.436100,-81.461525,Sunset Dr
418,39.426438,-81.426134,State St/Van Bergen St
246,39.560933,-81.448824,I- 77/Twp Rd 48
160,39.471046,-81.460137,T1353
552,39.428630,-81.454012,9th St/Warren St
185,39.413509,-81.468313,Oakview Dr/Circle Dr
185,39.438467,-81.435616,Glendale Rd
185,39.572346,-81.091480,/C33
160,39.362425,-81.658747,/T1447
246,39.281075,-81.683064,US Hwy 50
246,39.525162,-81.067390,Cemetery Rd
216,39.570581,-81.452767,I- 77
160,39.346566,-81.588068,C3/T287
160,39.297828,-81.669245,T994/Jenny Dr
526,39.277272,-81.589131,Putnam Howe Dr/Pride Ct
185,39.377046,-81.353638,Sand Hill Rd
710,39.414563,-81.450844,/Butler St
246,39.558987,-81.450305,Twp Rd 48
216,39.392870,-81.225102,Null/Mitchell Dr
334,39.286781,-81.682868,School House Rd
216,39.524590,-81.067390,Broadway St/Main St
160,39.463097,-81.495436,C79/C4
216,39.401962,-81.683758,State Rte 550
185,39.286242,-81.606688,/Hill St
246,39.261994,-81.702840,W High St
160,39.497519,-81.664934,Twp Rd 108/Camp Hervida Rd/T107
362,39.408639,-81.425714,/I- 77
216,39.524268,-81.060401,1st St/Merchant St/Front St
216,39.389335,-81.227859,Mulberry St
499,39.435956,-81.464251,Muskingum Dr/Eggser Rd
276,39.359878,-81.544620,State Rte 7
276,39.393003,-81.226420,Harrison St
216,39.501432,-81.451980,I- 77
160,39.504369,-81.435899,Twp Rd 509
605,39.415845,-81.430645,Dabold Ave/Warner St
472,39.276317,-81.597174,Tuttle St/Washington Blvd
185,39.406607,-81.464135,Fearing St/Barber St
246,39.411915,-81.474943,Split Rock Dr
390,39.285103,-81.593222,US Hwy 50
160,39.494751,-81.514066,Stehly Ln
185,39.353266,-81.384966,/Newport Pike
185,39.282686,-81.604769,Miller Ave/Ann St
160,39.358224,-81.546925,T482/State Rte 7
276,39.554059,-81.642211,Circle Dr/Woodland Ave
246,39.279205,-81.576218,Depot St
472,39.418357,-81.437134,Euclid Pl/Aurora St
185,39.516582,-81.600775,Watertown Rd/Waterford Rd (C4)
2515,39.421273,-81.448365,Betsy Mitchell Ln/Ephraim Cutler St
160,39.351290,-81.669075,/State Rte 339
216,39.390949,-81.401300,Starlite Dr
276,39.351100,-81.383373,Newport Pike
160,39.425148,-81.408299,Greene St
160,39.372352,-81.389161,Buell Cir Exd/Buells Cir
160,39.280541,-81.587092,Boulevard Dr/Saw Grass Cir
160,39.390591,-81.238975,T135
216,39.472070,-81.469692,Glen Eagle Dr
305,39.413427,-81.471066,Alta St/Coventry Rd
185,39.291777,-81.662388,T1261/Hollywood Dr
185,39.392257,-81.224976,Wilson St/Mitchell Dr/Stanley Ave
216,39.278703,-81.577560,Depot St/Campus Dr
216,39.395667,-81.224105,Hendricks St
362,39.542705,-81.640022,Main St
160,39.465358,-81.635295,/State Rte 339
216,39.570054,-81.451413,Minch Rd/C8
216,39.524192,-81.495091,Main St
160,39.393980,-81.637254,State Rte 550
185,39.433679,-81.473375,Gilman Ave/C4
246,39.283927,-81.579103,US Hwy 50
185,39.278830,-81.596835,Gene St/Elizabeth St
160,39.277504,-81.606536,/Cross St
276,39.274226,-81.570895,Walnut St/3rd St
160,39.445625,-81.528924,Rummer Rd/Lancaster St
552,39.406708,-81.461423,Franklin St
160,39.531915,-81.651355,/State Rte 339
334,39.286801,-81.687886,Oak Dr/Pine Dr
246,39.530024,-81.650874,Maple Cir/Elm St
305,39.371281,-81.395231,Newport Pike
160,39.348248,-81.670063,Lane Rd/State Rte 339
160,39.305778,-81.605277,/C2
216,39.411950,-81.442736,S 6th St/Charles St
185,39.394915,-81.397722,Brandy Dr/Skyvue Cir
160,39.281167,-81.587042,Saw Grass Cir
160,39.409252,-81.419155,Country Club Dr
246,39.285054,-81.591991,US Hwy 50
865,39.419522,-81.451424,Foster Ln/Cutler St
185,39.325721,-81.562273,Co Rd Twp Rd 51
160,39.581555,-81.667851,State Rte 60
160,39.284747,-81.595461,Campbell Dr
160,39.353954,-81.668365,Lakeview Dr/State Rte 339
185,39.391655,-81.720174,/Tick Ridge Rd
160,39.491134,-81.443427,/C8
185,39.364724,-81.534355,Blue Knob Rd/State Rte 7
246,39.261843,-81.702081,US Hwy 50
160,39.515028,-81.074702,Williamson Ave
246,39.547720,-81.397672,/Old Plank Rd
160,39.577975,-81.609002,Tick Hill Rd/State Rte 339
185,39.398079,-81.659153,Foxhaven Dr/State Rte 550
160,39.418072,-81.467740,Lancaster St
305,39.527192,-81.505588,Lock St
185,39.469542,-81.470688,Lynn Ave/Nolan Cir
390,39.278272,-81.584674,Oak Tree Ln/Putnam Howe Dr
418,39.428334,-81.464782,Pioneer Ln/Marion St
160,39.271097,-81.748484,Cornes Rd/C26
276,39.389626,-81.222880,Gale Ave/Hendricks St
246,39.423649,-81.451523,Wooster St
160,39.523353,-81.415268,Pine St/T1072/Hill St
216,39.433174,-81.450540,Gibbons St/Gibbons Pl
160,39.391911,-81.388324,/Miller's Ln
246,39.284470,-81.645665,US Hwy 50/Davis Creek
160,39.359452,-81.602987,/C27
276,39.278479,-81.602380,Colvin St/Elizabeth St
334,39.414193,-81.470736,Alta St/Victory Pl
362,39.274368,-81.689466,Emory Ln
160,39.431861,-81.471550,Linwood Ave
246,39.630652,-81.463294,/I- 77
276,39.410529,-81.463460,Fearing St/Lord St/Elm St
160,39.278529,-81.631398,Washington Blvd/Twp Rd 97
185,39.523069,-81.414342,Pine St/High St
943,39.413502,-81.440161,S 8th St/Charles St
160,39.522554,-81.505929,/Muskingum River Rd
362,39.260584,-81.699794,C26/Federal Rd/State Rte 124
943,39.416513,-81.452782,Putnam St
160,39.450145,-81.431727,Bittersweet Trl
305,39.390970,-81.226137,Greenwood St/Eddy Ln
2141,39.415471,-81.444245,Greene St/N 7th St
216,39.391102,-81.220078,Gale Ave
362,39.392457,-81.215177,Waugh St
499,39.430121,-81.496860,Lancaster St
390,39.394230,-81.399365,Sunnyview Dr
305,39.379154,-81.399960,Pike St
246,39.551391,-81.625614,Riverview Dr/State Rte 60/Riverview Rd
160,39.273971,-81.697987,Walnut Ridge/State Rte 555
185,39.430652,-81.438329,Crestlyn Ct
160,39.409806,-81.457726,Fort St/Fort Sq
216,39.552822,-81.622888,/State Rte 60
276,39.448152,-81.438274,I- 77
185,39.416286,-81.462904,Wood St
362,39.393706,-81.666563,T1410/T1411
160,39.432363,-81.531553,/Warren Chapel Rd
216,39.523309,-81.062486,2nd St
160,39.519392,-81.068615,Grandview Ave/Park Ave
334,39.432711,-81.437238,Colegate Dr/Glendale Rd
445,39.546991,-81.634425,4th St/Mc Intosh St
160,39.457879,-81.491932,Stacy Orchard Rd/T547
160,39.522676,-81.064891,Broadway St
334,39.547875,-81.640768,/5th St
185,39.407209,-81.503007,Silver Globe Rd/State Rte 550
276,39.421373,-81.428288,E Spring St/Terrace Ave
216,39.283825,-81.593224,Morgan Ave/Pennsylvania Ave
246,39.280151,-81.580767,Colonial Sq/Oak St
276,39.417340,-81.468603,Lancaster St/Bartlett St
185,39.426825,-81.478544,Grand Ave/Groves Ave
305,39.552968,-81.635308,/Pennock Dr
216,39.552257,-81.623968,/State Rte 60
246,39.414749,-81.463438,Lancaster St/George St
334,39.428427,-81.446278,Hillside Way
160,39.429898,-81.413858,Greene St
276,39.422322,-81.463897,W Sacra Via St/Sacra Via St/Front St
390,39.271989,-81.578415,Warren Ave/Ridge St
160,39.428051,-81.408370,/Goose Run Rd
246,39.445764,-81.458925,/Muskingum Dr
305,39.418439,-81.465062,Stone St
305,39.430608,-81.439313,Crestlyn Ct/Glendale Rd
160,39.409385,-81.663192,/State Rte 339
216,39.540963,-81.636039,Mill St
216,39.394516,-81.630698,Reese Rd/State Rte 550
246,39.342384,-81.671780,State Rte 339
216,39.401077,-81.681288,Samples Rd/State Rte 550
334,39.414311,-81.421201,I- 77
276,39.528170,-81.503912,3rd St/McClain St
160,39.278512,-81.631629,Washington Blvd
276,39.554065,-81.641830,Circle Dr
362,39.379303,-81.399198,T543/Browns Rd
216,39.446190,-81.458879,/Muskingum Dr
160,39.362935,-81.319452,State Rte 7
160,39.406256,-81.482027,State Rte 550
246,39.405666,-81.227604,/C244
334,39.418879,-81.465078,Walnut St
160,39.293066,-81.733398,C248/State Rte 555
216,39.286051,-81.687819,T1301/Suzanne St
160,39.276318,-81.619221,Beach Dr/Blennerhassett Ave
160,39.281185,-81.617630,Victor St
499,39.278925,-81.581570,Putnam Howe Dr/Pomeroy Pike/Campus Dr
185,39.282830,-81.572934,Barclay St/Wirt St
276,39.438801,-81.444451,Colegate Dr/Meadow Ln
736,39.421636,-81.459984,/Washington St
160,39.298978,-81.632218,/Ridgewood Blvd
160,39.532386,-81.649650,Hickory Ln/State Rte 339
276,39.272637,-81.690775,Emory Ln/Hill St
246,39.286014,-81.605795,Mary St/Hill St
160,39.405083,-81.409450,County House Ln/Morris Loop Rd
334,39.440350,-81.532024,Harvest Run Rd/T1438
390,39.425469,-81.461968,Camp Ave/Pioneer Ln
160,39.282177,-81.608782,Graham Ave/Norris St
216,39.524621,-81.067685,State Rte 260/Main St/Cemetery Rd
216,39.522954,-81.062047,1st St
305,39.441127,-81.432745,I- 77
472,39.551606,-81.636157,/Jenison St
185,39.441124,-81.469253,/C4
362,39.392160,-81.214841,T135/Waugh St
305,39.399202,-81.664905,Cherry St/Belpre Rd/C804
334,39.418584,-81.464966,Walnut St
160,39.370340,-81.664672,Lewis Powte Dr
994,39.415202,-81.440092,Buckeye Ave/N Hart St
526,39.412164,-81.451473,Church St/2nd St
605,39.424455,-81.460849,Warren St
160,39.627989,-81.466460,Twp Rd 301
216,39.280645,-81.571891,8th St/Elm St
160,39.438212,-81.445393,Janet Rd
305,39.441820,-81.449460,Colegate Dr
160,39.332954,-81.561039,State Rte 7
276,39.454328,-81.439692,I- 77
305,39.271632,-81.568265,Florence St/Parkersburg-Belpre Brg
362,39.276633,-81.573831,School Dr/Barclay St/Maple St/Campus Dr
305,39.277467,-81.603742,Washington Blvd/Middle St
160,39.522174,-81.413966,Palmer St
305,39.408651,-81.461308,Franklin St/Clinton St
246,39.284738,-81.596599,George St
305,39.473494,-81.475004,Keeler Dr/Masonic Park Rd/C341
160,39.408096,-81.663526,State Rte 339
216,39.280720,-81.572885,/8th St
216,39.419454,-81.438029,W Spring St/Emerald St
334,39.418470,-81.464957,Stone St
160,39.288355,-81.686740,School House Rd/Quail St
160,39.314893,-81.666179,Spence Rd
246,39.282509,-81.679827,Washington Blvd/US Hwy 50
552,39.272491,-81.574637,Washington Blvd/Locust St
216,39.279911,-81.578247,/Depot St/Pomeroy Pike
418,39.424129,-81.461400,3rd St/Warren St
362,39.382093,-81.389935,T543
160,39.261997,-81.700476,Walnut St/Walnut Rd
160,39.307227,-81.683679,T291/Short Brook Rd
185,39.468876,-81.480264,Marshall Rd/Lawton Rd
160,39.521886,-81.066298,Elm St
216,39.430380,-81.454184,Emerson Ave/Dean St
160,39.461095,-81.663438,State Rte 676
246,39.376947,-81.385402,/C20
216,39.249427,-81.714112,US Hwy 50
334,39.408771,-81.422993,Pike St
246,39.266010,-81.697633,US Hwy 50/State Rte 124
185,39.272916,-81.591737,Civitan Park/Blenn Ave
1798,39.419031,-81.449896,Whites Rd/6th St
472,39.547850,-81.639584,5th St
216,39.328546,-81.561352,State Rte 7
362,39.438072,-81.459426,Rathbone Ter/Rathbone Rd
185,39.286407,-81.566345,Leota Ct
160,39.464098,-81.465315,T1393/Snearly Dr/Brittigan Cir
305,39.538159,-81.636980,/T1066/Washington St/T1149
160,39.373108,-81.389158,Longacre St/Buells Cir
160,39.627359,-81.452892,State Rte 821
276,39.284139,-81.706667,Teri Ln
160,39.329505,-81.717661,Twp Rd 244/Sealy Ridge Rd
216,39.431722,-81.466944,Linwood Ave/Pennsylvania Ave
390,39.425068,-81.426821,Van Bergen St
579,39.276241,-81.576459,4th St/Beauseaux St
160,39.522948,-81.065261,4th St/Broadway St
362,39.284325,-81.599114,Ashberry Dr/Pennsylvania Ave
160,39.516780,-81.072404,Park Ave
246,39.530575,-81.532283,State Rte 60
185,39.282112,-81.607345,Norris St/Nelson St
362,39.408686,-81.422791,Pike St
472,39.428574,-81.462944,Fulton St
160,39.451253,-81.428919,Glendale Rd
246,39.422601,-81.476748,Lincoln Cir/
185,39.522078,-81.064966,Grandview Ave/Duncan Dr
160,39.262270,-81.704842,W High St/Bliss Ave/Miles Ave
160,39.560602,-81.687048,Hayesville Rd/Twp Rd 68
334,39.416460,-81.436571,Greene St/Phillips St
216,39.631595,-81.462565,Broad St/State Rte 821
160,39.514108,-81.074769,Park Ave/Hickory Ln
246,39.431365,-81.439001,Cisler Dr/Glendale Rd
216,39.423039,-81.440124,Sunset Ln/Becker Ln
216,39.379942,-81.392793,Biehl Rd
276,39.261892,-81.702316,US Hwy 50
276,39.378774,-81.360071,C20
658,39.418295,-81.434928,Euclid Pl
216,39.443695,-81.434648,I- 77
216,39.286586,-81.659277,T1306
246,39.534108,-81.640181,Pond St/Center St
994,39.422907,-81.458037,4th St/Washington St
185,39.260261,-81.698130,T1042
160,39.373206,-81.391924,Longacre St/Buells Cir
160,39.364363,-81.536610,T482
160,39.397054,-81.228902,Greene St
246,39.538613,-81.636765,T1066/Waterford Rd (C4)
185,39.273564,-81.688091,Orchard Dr/Hill St
160,39.528844,-81.055659,Dunn Ln
160,39.373441,-81.674317,Murphy-Waite Dr
246,39.389730,-81.225852,Gale Ave
579,39.428800,-81.438141,Dawes Cir
160,39.407362,-81.498708,/State Rte 550
216,39.255357,-81.699943,/State Rte 124
216,39.414201,-81.476157,Edgewood Dr
305,39.454827,-81.429903,C375/Meredith Ln
160,39.334522,-81.643963,T322/T1399
185,39.282029,-81.591230,Belrock Ave/Prairie Dr
390,39.273907,-81.567422,3rd St/Oneal St
499,39.419372,-81.435658,W Spring St/Spring St
1850,39.413314,-81.453273,Tiber Way
762,39.419358,-81.453354,Scammel St/High School Ln
185,39.286315,-81.679311,School House Rd
185,39.550652,-81.638168,Virginia St
160,39.580640,-81.708895,T567/Echo Valley Rd
216,39.543059,-81.646501,Simms Rd/Sunset Ln/T1062
185,39.287882,-81.567380,State Rte 7
160,39.497832,-81.664188,T107
552,39.410156,-81.448111,Mtta Williamstown Brg
472,39.417905,-81.442925,Orchard St/Curtis Blvd
185,39.414183,-81.425060,Phillips St/Ingleside Ave
160,39.436686,-81.456914,Caro Ln
246,39.421224,-81.433816,Colegate Dr
917,39.413501,-81.458720,Putnam Street Brg
216,39.543080,-81.646019,Sunset Ln/T1062
216,39.283345,-81.631954,US Hwy 50/T97
160,39.334476,-81.643997,T322
160,39.542066,-81.638751,Mill St
390,39.425690,-81.458813,5th St/Warren St
246,39.253204,-81.701693,Gantsville Rd
160,39.390533,-81.238643,T135
185,39.284077,-81.655849,2nd St
160,39.527527,-81.501428,East St
3336,39.415532,-81.449250,/Butler St
160,39.396098,-81.573612,/Salster Rd/Twp Rd 557
160,39.456333,-81.445499,T477/T342
390,39.278767,-81.590310,Gene St/Belrock Ave
160,39.287780,-81.611703,Farson St/Farson Ave
246,39.417949,-81.441015,Dudley Ave/Cedar St
334,39.448639,-81.458565,Muskingum Dr
160,39.533736,-81.522616,Laurel Ridge Rd
472,39.417260,-81.443830,Orchard St/Walker St
334,39.281550,-81.594570,Rockland Ave/Boulevard Dr
390,39.429631,-81.452756,Warren St/Jahn St
185,39.286306,-81.568377,Main St/State Rte 7
305,39.272654,-81.690669,T1282/Orchard Dr/Hill St
276,39.378978,-81.389189,Dunedin Dr
160,39.392729,-81.556515,Wentz Rd/State Rte 550
160,39.464373,-81.119893,State Rte 7
216,39.474429,-81.475028,Keeler Dr/Bohl Dr
305,39.433606,-81.419484,Industry Rd
526,39.548592,-81.638128,6th St
246,39.442777,-81.534206,/Rummer Rd
334,39.410027,-81.461217,Franklin St
185,39.379387,-81.397584,Brant Dr/T543
305,39.283247,-81.578658,Clement Ave/Hocking Rd
216,39.636462,-81.464160,I- 77
736,39.283592,-81.568622,/US Hwy 50/Main St
362,39.278124,-81.585333,Putnam Howe Dr/Wyatt Ln
160,39.332467,-81.671980,/State Rte 339
160,39.483601,-81.502127,Muskingum River Rd/Rhodes Rd
216,39.522050,-81.064087,Broadway St/Park Ave/2nd St
276,39.518391,-81.070412,Park Ave/Baker Dr
216,39.280715,-81.657824,Washington Blvd
1200,39.410935,-81.446815,Ohio St
1097,39.411802,-81.448886,S 3rd St
334,39.428822,-81.465417,Matthew St
160,39.302738,-81.660982,Woodlawn Ave
246,39.478453,-81.441210,I- 77
418,39.272562,-81.571714,Hamilton Ct
160,39.287230,-81.589082,White Oak St/Braun Rd
216,39.527702,-81.057207,2nd St
246,39.477022,-81.484960,Indiana Ave/Masonic Park Rd
185,39.283567,-81.576338,Leonard Ave
216,39.267859,-81.695943,US Hwy 50
160,39.473041,-81.485173,/Devols Dam Rd
160,39.405503,-81.664254,State Rte 339
305,39.277966,-81.603679,Middle St/Washington Blvd
185,39.635919,-81.463897,I- 77
216,39.522976,-81.062907,Vine St/2nd St
216,39.429932,-81.480584,T50
2354,39.410608,-81.451486,Ohio St
334,39.398570,-81.666641,State Rte 339/State Rte 550
160,39.531866,-81.510131,4th St/Main St
160,39.371613,-81.305308,Orchard Rd/C713
216,39.376542,-81.395571,Rua Ln
185,39.473527,-81.476226,Masonic Park Rd/Clark Dr
499,39.437412,-81.463143,Muskingum Dr/Julian Ave
305,39.526556,-81.501497,East St
160,39.286051,-81.568425,State Rte 7
710,39.414244,-81.451352,Butler St/3rd St
216,39.528516,-81.055844,T428/2nd St
160,39.521035,-81.480720,Twp Rd 48/Main St
185,39.528920,-81.520351,Muskingum River Rd
160,39.399913,-81.406229,/Electra Ave
276,39.283291,-81.582595,Hocking Rd/Grant Ave
276,39.412323,-81.471178,Alta St/Prdr
160,39.337169,-81.647048,/C3
216,39.283374,-81.615806,US Hwy 50
605,39.412684,-81.470013,Riley Dr
762,39.421157,-81.462710,Saint Clair St/Front St
246,39.304806,-81.661422,/State Rte 339
216,39.384808,-81.381003,Chalet Ln/T1380
631,39.421481,-81.451419,Tupper St/Mulberry St
160,39.281449,-81.587019,Clayton Ave
445,39.409327,-81.425213,Pike St/I- 77
185,39.311082,-81.565533,State Rte 7
185,39.608844,-81.457300,I- 77
185,39.522606,-81.412794,Railroad St/Walnut Dr
305,39.553036,-81.628565,Fair Ave/Applegate St
185,39.483378,-81.443677,/Cambridge Rd
362,39.269432,-81.569960,Main St
185,39.478981,-81.491686,Garden City Rd
418,39.418691,-81.477185,Lancaster St/Pershing Rd
185,39.279132,-81.606433,Washington Blvd/Mary St
684,39.418926,-81.435055,Vine St
276,39.409491,-81.459723,Gilman Ave/Market St
160,39.514943,-81.075713,Null/Williamson Ave
185,39.391443,-81.387716,Miller's Ln
216,39.375780,-81.390447,/Delray Dr
160,39.386314,-81.270729,State Rte 7
246,39.275613,-81.619211,Beach Dr
160,39.415173,-81.807044,State Rte 550
362,39.536557,-81.639669,Barbs Ln/Virginia Ave
334,39.423721,-81.434909,Theis Ave
390,39.417237,-81.466277,Bellevue St/Bartlett St
276,39.372320,-81.510920,State Rte 7
305,39.391988,-81.226125,Eddy Ln
305,39.284278,-81.582355,US Hwy 50
185,39.433788,-81.451452,Cisler Dr/Gibbons Pl
160,39.528081,-81.517981,/Muskingum River Rd
813,39.413867,-81.457798,Putnam Street Brg
276,39.278505,-81.603583,Middle St/Elizabeth St
185,39.420495,-81.437031,/Aurora St
160,39.377023,-81.380479,C20
362,39.427904,-81.436090,Colegate Dr
246,39.429272,-81.480529,Westview Ave/T50
390,39.542493,-81.640675,Main St
185,39.446797,-81.468544,Bailey Dr
160,39.468537,-81.115515,T596/Old Beavertown Rd
160,39.432508,-81.532916,Christy Rd/Warren Chapel Rd
185,39.461774,-81.459519,/T700
305,39.468206,-81.465791,Wyandotte Rd/Shawnee Dr
185,39.350292,-81.669397,State Rte 339
160,39.374761,-81.670879,Bracken Ridge Rd/Barrett South Rd/First St/High St
246,39.568922,-81.452556,State Rte 530
185,39.246981,-81.716310,Collins Rd
160,39.551556,-81.631099,Ullman St/Pinecrest Dr
276,39.270564,-81.694255,/Domino Dr
185,39.274869,-81.709568,State Rte 555
185,39.474356,-81.472832,Heiss Dr/Ellsworth Dr
160,39.503763,-81.423674,Twp Rd 391/Kohl Rd
334,39.404916,-81.413808,Pike St
185,39.270426,-81.582122,Blenn Ave/Lee St
185,39.535290,-81.447043,I- 77/C8
305,39.284961,-81.652939,/US Hwy 50
334,39.276438,-81.594472,Washington Blvd
160,39.420402,-81.816924,South St
216,39.569090,-81.451101,/C8
160,39.608794,-81.412523,Elba Hill Rd
160,39.405029,-81.530508,Bender Rd/State Rte 550
276,39.274416,-81.595528,Bay Pointe Dr
216,39.628252,-81.463179,Twp Rd 301/
160,39.456706,-81.499230,T547
362,39.414846,-81.438472,Ash Ave/Elmwood St
216,39.380053,-81.400882,Pike St/
160,39.464908,-81.437924,/Cambridge Rd
658,39.272054,-81.569823,Washington Blvd/Main St
579,39.438981,-81.462724,Waldo St/Riverside Ln
762,39.547809,-81.637402,/5th St
160,39.282368,-81.566005,9th St
736,39.283527,-81.568628,Main St
185,39.280928,-81.586043,Adobe Creek
185,39.531473,-81.526362,State Rte 60
246,39.283854,-81.572928,/US Hwy 50
160,39.391075,-81.229129,Greene St/Greene Rd/Greenwood St
160,39.560805,-81.687077,/Hayesville Rd/Twp Rd 68
276,39.540302,-81.449434,I- 77
160,39.404347,-81.758747,State Rte 550
185,39.387776,-81.227593,T1253/Merchant Ln
362,39.398524,-81.406865,Wilson Ave/T1413
334,39.540051,-81.449108,I- 77
185,39.544238,-81.641005,Mitchell Ave
246,39.346843,-81.670524,State Rte 339/Lake Ln
185,39.263844,-81.713112,/C26
1071,39.414658,-81.445466,S 6th St/Greene St
334,39.280140,-81.579733,Oak St/Franklin Ave
334,39.391741,-81.215394,T135/Saint Marys Brg
216,39.261902,-81.699289,Walnut St/Walnut Rd
216,39.550878,-81.626626,State Rte 60/5th St
185,39.497610,-81.459789,Main St
246,39.347521,-81.370247,Newport Pike
276,39.372212,-81.510818,State Rte 7
160,39.463505,-81.430428,/C375
216,39.283772,-81.607896,Hanvey Ave/Nelson St
160,39.328650,-81.562476,Lawn Ln
160,39.561182,-81.686973,Hayesville Rd
160,39.429862,-81.495620,Lancaster St
160,39.472554,-81.476301,Milton Rd/Clark Dr
445,39.416767,-81.469012,Alta St/Lancaster St
334,39.410793,-81.437418,E 8th St
160,39.392946,-81.376604,T1422
390,39.434949,-81.439776,Colegate Dr
390,39.405450,-81.428802,I- 77
160,39.461175,-81.541559,Lancaster St/O'Linn Rd
160,39.281209,-81.604896,Rockland Ave/Ann St
160,39.547120,-81.641597,4th St
736,39.419748,-81.432808,Colegate Dr
334,39.417573,-81.441815,Quarry St/Sycamore St
276,39.412072,-81.442519,Charles St
185,39.545101,-81.640177,Ferry St
160,39.377451,-81.670750,T1126/High St
305,39.402107,-81.410188,Pike St/Products Ln
334,39.411188,-81.444020,5th St/Charles St
160,39.435419,-81.406113,Caywood Rd
160,39.552643,-81.624714,Riverview Dr/Riverview Rd/Fair Ave
418,39.547758,-81.635120,Park St/5th St
216,39.338929,-81.717280,C3
160,39.430867,-81.452277,/Cisler Dr/Ray St
160,39.394296,-81.229006,Greene Rd
499,39.449611,-81.458517,/Muskingum Dr
160,39.532046,-81.650875,Windy Point Dr/State Rte 339
185,39.470218,-81.467130,Iroquois Dr/Main St
185,39.441116,-81.447844,Colegate Dr/Academy Dr
160,39.408731,-81.458359,Fort St
160,39.531176,-81.508191,4th St/Market St
216,39.282993,-81.577363,Hocking Rd/Warren Ave/Edward St
362,39.422386,-81.426496,I- 77/Greene St
305,39.356394,-81.669155,C806/Bracken Ridge Rd
185,39.402569,-81.529820,Bender Rd
160,39.350923,-81.791213,State Rte 555
160,39.370114,-81.665106,State Rte 339
185,39.277823,-81.594981,Gene St/Talbot St
185,39.452649,-81.481090,C4
216,39.262465,-81.696212,Skeene St
185,39.347341,-81.372529,/Newport Pike
216,39.452887,-81.435830,T342A
216,39.283743,-81.576332,US Hwy 50
390,39.547853,-81.639762,5th St
305,39.271214,-81.567102,Parkersburg-Belpre Brg
160,39.262938,-81.708679,C26
305,39.374029,-81.396787,Newport Pike/T1027
276,39.448121,-81.438010,I- 77
160,39.387549,-81.507715,T1408
160,39.284894,-81.610705,Richmiller Ln/Farson St
160,39.513189,-81.420041,Cambridge Rd
246,39.628368,-81.462578,Twp Rd 301/I- 77
160,39.397732,-81.540581,/State Rte 550
246,39.419733,-81.478522,Lancaster St/Prdr
276,39.379466,-81.400280,Pike St
917,39.407908,-81.421125,/Cogswell Ln
305,39.548672,-81.641938,6th St
552,39.467003,-81.467150,Seneca Dr/Main St
185,39.311323,-81.565700,State Rte 7
160,39.379860,-81.382135,T541/C348/Cornerville Rd
472,39.436361,-81.430304,I- 77
762,39.272610,-81.569667,Main St
362,39.418423,-81.464594,Fort Harmar Dr/Stone St
216,39.283525,-81.605383,Short St/Ames St
4554,39.412598,-81.454036,Butler St/Front St
185,39.553840,-81.625401,Ballard St
160,39.533226,-81.542815,/State Rte 60
246,39.270326,-81.577644,Blennerhassett Ave/Stone Rd
160,39.447267,-81.428658,T343
246,39.426976,-81.483710,Groves Ave
160,39.527106,-81.507237,Water St
160,39.395663,-81.512946,/Bender Rd
362,39.428129,-81.437298,Dawes Cir/Cisler Ln
160,39.443271,-81.466802,Bf Goodrich Rd/Shamrock Dr
418,39.415189,-81.438450,Elmwood St/Wayne St
160,39.405127,-81.469809,State Rte 550/State Rte 7
160,39.288416,-81.686557,Quail St
305,39.269925,-81.693922,Domino Dr
160,39.525650,-81.069747,Main St
216,39.252482,-81.699110,State Rte 124
160,39.264695,-81.697689,State Rte 124
185,39.467092,-81.633198,Watertown Rd/Davis Rd/Co Rd 109A
305,39.408795,-81.423049,Pike St
185,39.553654,-81.611468,State Rte 60
216,39.349982,-81.659142,/T1250
472,39.411509,-81.462262,Harmar St/Maple St
710,39.425277,-81.437169,Hadley Ln/Aurora St
305,39.626937,-81.461826,I- 77
216,39.524587,-81.060890,Merchant St/2nd St
276,39.421319,-81.431597,Grove St/Chestnut St
445,39.437760,-81.463901,Riverside Ln/Julian Ave/Floral Cir
185,39.289650,-81.566928,/State Rte 7
185,39.325649,-81.561763,Joe Skinner Rd/State Rte 7
185,39.280637,-81.615123,Underwood Dr/Thomas St
246,39.285307,-81.605073,US Hwy 50/Mary St
813,39.412235,-81.436620,Olney St
472,39.412495,-81.462145,Prospect St
216,39.277820,-81.606316,Cross St/Murray St
185,39.278137,-81.607096,Murray St
160,39.374821,-81.394835,Dayton Rd
216,39.247466,-81.716791,US Hwy 50/Collins Rd
216,39.280170,-81.580213,Oak St/Franklin Ave
160,39.440250,-81.655714,State Rte 339/Woodruff Rd
160,39.581291,-81.667707,State Rte 60
579,39.548579,-81.637394,/6th St
160,39.405419,-81.467579,Browns Aly
160,39.466181,-81.470513,Country Club Dr/Alden Ave
216,39.392214,-81.612105,State Rte 550
276,39.400308,-81.408034,Ellsworth Ave/T1413
839,39.421339,-81.451650,6th St/Tupper St
160,39.487238,-81.439174,Twp Rd 1441/Coplin St
185,39.247014,-81.717526,US Hwy 50
246,39.377097,-81.392552,Brant Dr/C20/Sand Hill Rd
160,39.475463,-81.476261,Sylvan Way
160,39.451160,-81.428898,Glendale Rd/Glen Edwards Dr
185,39.365277,-81.534368,Blue Knob Rd/T482
276,39.395668,-81.223418,Hendricks St
160,39.433207,-81.489093,Flintwood Dr
185,39.279627,-81.614099,Washington Blvd/Phillip St
185,39.534121,-81.511009,Short St/6th St
160,39.268535,-81.575439,John St
246,39.529995,-81.649749,Elm St/Hickory Ln
334,39.408616,-81.460749,Clinton St
305,39.391825,-81.374817,Cornerstone Dr/Summerset Dr
472,39.276337,-81.599309,Washington Blvd/Sycamore St
246,39.360939,-81.389357,Newport Pike
185,39.527431,-81.056749,Front St
160,39.465757,-81.633451,Lancaster St/State Rte 676/Twp Rd 1069
1355,39.418693,-81.450599,Whites Rd/Foster Ln
160,39.262048,-81.703117,W High St
631,39.417994,-81.434487,Vine St/Oakwood Ave
305,39.546552,-81.640198,Ferry St
185,39.415888,-81.474165,Edgewood Dr/Cheyenne Rd
579,39.277489,-81.583741,Wyatt Ln
276,39.548550,-81.635108,Park St/6th St
160,39.476539,-81.482371,Indiana Ave/Kentucky Ave
216,39.621426,-81.461158,C8
445,39.548564,-81.636702,6th St/Center St
185,39.429872,-81.465235,Park St/Matthew St
736,39.273214,-81.569542,Main St
216,39.345288,-81.671032,/State Rte 339
305,39.422418,-81.426776,I- 77
160,39.254477,-81.699230,State Rte 124
160,39.645220,-81.465210,I- 77
160,39.524708,-81.496851,Main St
390,39.547088,-81.639743,4th St
1693,39.413761,-81.446947,Greene St/S 5th St
160,39.392320,-81.574399,State Rte 550
160,39.277193,-81.606805,Old Cemetery Dr/Cross St
472,39.392139,-81.404578,Pike St/Miller's Ln
185,39.273752,-81.688065,Orchard Dr/Merry Ln/Hill St
362,39.424167,-81.445692,Hillcrest Dr
185,39.389130,-81.215389,Saint Marys Brg
216,39.284346,-81.645597,Davis Creek
185,39.331773,-81.695383,/McGill Rd
216,39.415494,-81.661412,State Rte 339
472,39.419384,-81.435330,Vine St/Spring St
552,39.279376,-81.594534,Jennielou St/Elizabeth St
160,39.518730,-81.496941,Muskingum River Rd
246,39.449594,-81.437955,T342
362,39.392972,-81.404794,/Pike St
160,39.347987,-81.788955,State Rte 555/Turkey Hollow Rd
246,39.412421,-81.471137,Riverview Dr/Alta St
160,39.391387,-81.668797,/State Rte 339
160,39.550425,-81.628236,Dietz Ln/Applegate St
216,39.478056,-81.485221,Julie Ln/Masonic Park Rd
334,39.428790,-81.465423,Matthew St/Muskingum Ln
160,39.535578,-81.522509,Laurel Ridge Rd
160,39.342367,-81.557569,/State Rte 7
160,39.396269,-81.228937,Turkey Knob Rd/Greene St
246,39.285860,-81.590946,Belrock Ave/Hill St
216,39.442593,-81.451272,Colegate Dr/Colegate Woods Dr
185,39.523308,-81.063347,Vine St/3rd St
160,39.286636,-81.795258,C26
160,39.552858,-81.636355,/Pennock Dr
305,39.420357,-81.472553,Clark St/Summit St
334,39.551582,-81.635040,Lakeview Dr/Jenison St
185,39.452200,-81.431638,Belle Meadows Dr/Locust Ln
160,39.472250,-81.458381,Deerwalk Cir/Tecumseh Dr
276,39.279154,-81.602280,Colvin St/Elizabeth St
160,39.350301,-81.355546,/Newport Pike
216,39.516714,-81.450891,Dunbarger Rd
160,39.410761,-81.441471,S 6th St/Wayne St
160,39.627090,-81.438770,T305
2515,39.410806,-81.430911,Pike St/Acme St/Jefferson St
305,39.516016,-81.451308,Dunbarger Rd
216,39.554739,-81.634169,Lakeview Dr/Laughery Cir
160,39.547130,-81.641900,4th St
246,39.270204,-81.573694,Blennerhassett Ave/Parkersburg Ave
216,39.279172,-81.569024,Main St/7th St
445,39.404234,-81.412586,Pike St/County House Ln
160,39.278461,-81.632314,Washington Blvd
160,39.282349,-81.632090,/T97/Twp Rd 97
160,39.421375,-81.659340,/State Rte 339
276,39.547873,-81.633876,5th St
160,39.350453,-81.670202,C805
418,39.276747,-81.567152,5th St/Oneal St
160,39.476920,-81.482817,Indiana Ave
246,39.266157,-81.697764,US Hwy 50/T5/State Rte 124
216,39.408868,-81.463745,Fearing St
160,39.278423,-81.642593,Washington Blvd/
526,39.273694,-81.581945,Washington Blvd/Lee St
276,39.406073,-81.463702,Fearing St/Virginia St
276,39.418012,-81.441334,Quarry St/Dudley Ave
216,39.527954,-81.444827,I- 77/C8
185,39.530401,-81.508830,Market St/Main St
160,39.268475,-81.571444,Walnut St/John St
185,39.344766,-81.681910,C3
684,39.415793,-81.440065,N Hart St
185,39.289354,-81.588744,Braun Rd
276,39.522635,-81.062460,Vine St/1st St
246,39.390620,-81.217011,T135/Saint Marys Brg
305,39.392967,-81.225647,Mitchell Dr
526,39.427204,-81.466698,Marion St/2nd St
276,39.411662,-81.438300,S 8th St/8th St
160,39.520128,-81.415255,T391
943,39.411297,-81.445718,Hart St
160,39.424826,-81.426049,/Maine St
160,39.337794,-81.602505,/C3
246,39.282006,-81.585118,Poplar Ave/Carlisle Ave
968,39.416573,-81.452683,/Putnam St
418,39.410312,-81.458723,Crawford St
185,39.264880,-81.699129,US Hwy 50
160,39.558027,-81.532179,Laurel Ridge Rd
334,39.411072,-81.437701,E 8th St/8th St
185,39.528599,-81.503604,McClain St
605,39.284105,-81.568308,/Gibbens Ln
185,39.284194,-81.566426,Gibbens Ln
160,39.521047,-81.414245,Palmer St/Cambridge Rd
160,39.393097,-81.215952,Waugh Addition
160,39.280499,-81.586059,Adobe Creek/Boulevard Dr
160,39.469215,-81.466362,Chippewa Dr
160,39.285017,-81.595424,US Hwy 50
160,39.522377,-81.065350,Stover Dr/Duncan Dr
185,39.447300,-81.466028,Ash Rd/Oak Grove Ln/Bf Goodrich Rd
160,39.475136,-81.462853,Main St/T1321
305,39.425113,-81.426016,Maine St
276,39.448980,-81.438696,I- 77
216,39.399195,-81.664238,Cherry St/T 1051
305,39.542153,-81.640702,Mill St/Main St
185,39.271646,-81.574686,Ridge St/Locust St
246,39.276368,-81.580380,4th St
185,39.506630,-81.646423,Sand Ridge Rd/State Rte 339
305,39.379310,-81.400121,Pike St
160,39.336779,-81.672216,State Rte 339
160,39.448954,-81.533498,/Lancaster St
160,39.368652,-81.393737,Newport Pike/Burkhart Ln
185,39.556130,-81.631798,Mitchell Ave
185,39.411541,-81.463196,Barber Ave/Maple St/Elm St
185,39.283451,-81.655892,Glencoe St/Main St/2nd St
160,39.277052,-81.619176,Beach Dr/Blennerhassett Ave
1485,39.417316,-81.456696,Scammel St/2nd St
185,39.275762,-81.572092,4th St/Elm St
839,39.538914,-81.637790,/Waterford Rd (C4)
631,39.417913,-81.434438,Vine St
160,39.361787,-81.764715,C236
334,39.412077,-81.471071,Riverview Dr
160,39.551679,-81.638371,Jenison St
185,39.549427,-81.642875,Zanesville St/7th St
160,39.281610,-81.664471,Washington Blvd
160,39.278526,-81.608094,West St/Murray St
305,39.279629,-81.615232,Washington Blvd/Thomas St
216,39.380151,-81.290619,/State Rte 7
185,39.526214,-81.661567,C6/Wells Rd
362,39.408743,-81.422926,Pike St
185,39.284701,-81.640781,US Hwy 50/Shell St
418,39.279318,-81.590930,Lois St/Susanne Cir
2435,39.412149,-81.454747,Butler St/Post St
445,39.426697,-81.451881,9th St/Washington St
216,39.402445,-81.473010,State Rte 7
185,39.532608,-81.648857,C802/State Rte 339
216,39.300495,-81.645209,T289
185,39.265057,-81.698940,US Hwy 50
246,39.426913,-81.489974,Lancaster St
216,39.529986,-81.650217,Windy Point Dr/Elm St
305,39.401116,-81.409438,/Pike St
160,39.470654,-81.411330,Stanleyville Rd
276,39.405519,-81.465098,Virginia St/Ward St
160,39.375061,-81.614382,/C2
160,39.404864,-81.471975,Chapel Ave/State Rte 550
160,39.421900,-81.464516,Allen St/W Sacra Via St
334,39.410487,-81.462401,Lord St
276,39.380225,-81.393654,Biehl Rd
160,39.388781,-81.227950,T135/T1254/Mulberry St
605,39.416761,-81.443323,Quarry St/Walker St
160,39.335651,-81.560742,State Rte 7
160,39.370219,-81.394629,Andemur Ln/Newport Pike
216,39.393767,-81.402690,/Tennis Center Dr
160,39.497781,-81.664367,T107
445,39.277041,-81.579972,5th St
160,39.280906,-81.611075,Farson St
216,39.286190,-81.605450,Hill St
160,39.354277,-81.551310,State Rte 7
216,39.510166,-81.524609,C79/Huck Rd
1407,39.411081,-81.450379,S 2nd St
684,39.271994,-81.569700,Main St/Parkersburg-Belpre Brg
305,39.529752,-81.651324,Maple Cir
216,39.524190,-81.066887,Broadway St/Miracle St
334,39.414799,-81.422776,/Sheridan St
246,39.466085,-81.469903,Happy Ln/Alden Ave
185,39.548451,-81.397376,Old Plank Rd/T586
160,39.563012,-81.569800,State Rte 60
216,39.282525,-81.608777,Graham Ave
160,39.379101,-81.498407,T464/State Rte 7
185,39.522944,-81.414400,High Ln/High St
160,39.389546,-81.392263,/Smith Dr
160,39.435112,-81.443836,Marigold Ln
362,39.276614,-81.687965,US Hwy 50/Tower Rd/Orchard Dr
185,39.532922,-81.511344,Adams St/Cats Creek Rd
160,39.483795,-81.489864,T549
276,39.290172,-81.567469,Lockhart St
160,39.411972,-81.464030,Fort Harmar Dr/Maple St Exd
216,39.635736,-81.464208,I- 77
305,39.419609,-81.476607,Pershing Rd/Doris Ave
390,39.436464,-81.462985,Sunset Dr/Hamilton Ave
390,39.415745,-81.438427,Elmwood St
160,39.471891,-81.458900,T1353/Tecumseh Dr
216,39.546334,-81.640720,3rd St
276,39.284117,-81.567231,Gibbens Ln/Florence St/Main St
684,39.272878,-81.577494,Washington Blvd/Stone Rd
276,39.373878,-81.396704,T1205/Newport Pike
160,39.463964,-81.464900,T1393
246,39.391033,-81.227851,Greenwood St/Maple St
160,39.627172,-81.438994,T305/
185,39.352940,-81.384767,/Newport Pike
305,39.554170,-81.636578,Mary Ln/Center St
499,39.550618,-81.636659,Virginia St/Center St
160,39.390032,-81.400157,Starlite Dr
160,39.496018,-81.644428,T107/State Rte 339
552,39.272344,-81.568529,Washington Blvd
276,39.417665,-81.441055,Cedar St/Ridge St/Grandview Ave
526,39.276271,-81.581759,4th St/Lee St
185,39.544081,-81.641053,Mitchell Ave/State Rte 339
160,39.521520,-81.642026,/McNeal Rd
631,39.282901,-81.568686,US Hwy 50/Main St
246,39.304120,-81.650560,Emmaus Rd/Adorian Pl
185,39.503102,-81.646742,State Rte 339
276,39.280307,-81.615913,Thomas Ct
160,39.451881,-81.470324,Arrow Dr
185,39.523970,-81.067442,/Duncan Dr
305,39.547889,-81.641326,5th St
185,39.284558,-81.635163,US Hwy 50
658,39.284125,-81.568573,/Gibbens Ln/Main St
246,39.488489,-81.442451,Cambridge Rd/Coplin St
160,39.290300,-81.689036,Pine Dr
160,39.496230,-81.095635,State Rte 7
160,39.466968,-81.631671,Watertown Rd/T1071
334,39.547018,-81.636757,4th St/Center St
185,39.349536,-81.669649,Breckenridge/State Rte 339
334,39.418906,-81.464133,Fort Harmar Dr/Gilman Ave/Washington Street Brg
185,39.357455,-81.669720,Bracken Ridge Rd
362,39.286013,-81.593021,Morgan Ave
276,39.628842,-81.462422,I- 77
390,39.271957,-81.577548,Ridge St/Stone Rd
160,39.254551,-81.699292,State Rte 124
185,39.286792,-81.684073,School House Rd/
418,39.280493,-81.568900,Main St/8th St
246,39.252695,-81.698973,State Rte 124
160,39.374541,-81.673697,Murphy-Waite Dr/Barrett South Rd
246,39.406268,-81.462571,Harmar St
276,39.526607,-81.502882,Main St
185,39.274884,-81.700378,State Rte 555/Baker Rd
185,39.555628,-81.615469,Lovers Ln/State Rte 60
1071,39.416839,-81.444537,Bank St/Orchard St
276,39.412679,-81.443464,S 6th St/Hart St
472,39.424454,-81.455503,Washington St/6th St
216,39.454081,-81.438912,Timberline Dr
160,39.472463,-81.112444,Old Beavertown Rd/Parr Hill Rd
160,39.333486,-81.672034,/State Rte 339
334,39.284928,-81.593197,US Hwy 50
246,39.517632,-81.451105,I- 77
160,39.328942,-81.640697,/C85
334,39.456810,-81.449754,Cambridge Rd
305,39.536239,-81.638511,T1148/Virginia Ave
160,39.273477,-81.704092,State Rte 555/T5
631,39.427548,-81.466053,/Marion St
160,39.390118,-81.399462,Starlite Dr
185,39.278026,-81.614636,Riverview Dr/Julies Ln
526,39.425229,-81.464721,Montgomery St/2nd St
246,39.522324,-81.448241,I- 77
334,39.418714,-81.430873,Greene St/Warner St
185,39.285856,-81.662860,US Hwy 50
445,39.271999,-81.579317,Clement Ave/Ridge St
246,39.391864,-81.399530,Miller's Ln
216,39.456285,-81.461369,Main St
994,39.419748,-81.452724,Scammel St/5th St
160,39.473781,-81.483091,Masonic Park Rd/Woodrow St
160,39.400054,-81.405892,Electra Ave
160,39.244205,-81.704435,Stanley Mills Rd/State Rte 124
160,39.337157,-81.639859,Town Hall Ln/C3
499,39.270148,-81.572608,Blennerhassett Ave/Elm St
216,39.480719,-81.446423,/Arends-Ridge Rd
710,39.419127,-81.452074,5th St/Cutler St
276,39.430211,-81.439420,Cisler Dr/Glendale Rd
305,39.399622,-81.666279,State Rte 339
246,39.547027,-81.637390,4th St/
305,39.523799,-81.446962,I- 77
160,39.425917,-81.489919,Lancaster St/Cole Coffman Rd
246,39.478522,-81.440998,I- 77
246,39.270343,-81.578528,Warren Ave/Blennerhassett Ave
160,39.282072,-81.640955,Shell St
362,39.435215,-81.440078,Brentwood St/Colegate Dr
276,39.628343,-81.462705,Twp Rd 301/C8
216,39.391054,-81.404342,Pike St
526,39.410567,-81.459657,Gilman Ave
160,39.523170,-81.511117,Schwendeman Hill Rd/C60
246,39.534138,-81.640703,Pond St/Meadowbrook Dr
160,39.526325,-81.058106,Front St/Petty St
390,39.420857,-81.431315,E Spring St/Chestnut St
276,39.419452,-81.430471,Oakwood Ave/Chestnut St
160,39.442668,-81.518570,Lancaster St/T184
334,39.442211,-81.433400,/I- 77
526,39.424926,-81.460086,4th St/Warren St
185,39.264799,-81.698926,US Hwy 50
334,39.391788,-81.216068,Saint Marys Brg
160,39.320390,-81.646063,Oakmont Dr
185,39.377078,-81.391434,Holiday Dr/Sand Hill Rd
160,39.550767,-81.447074,T315/C8
246,39.492364,-81.446233,I- 77
246,39.383749,-81.384208,T541/Shady Ln
390,39.276405,-81.595190,Washington Blvd/Blenn Ave
418,39.446667,-81.437074,I- 77
160,39.522665,-81.692627,Twp Rd 106/Center Rd
390,39.435329,-81.464547,Muskingum Dr
160,39.272129,-81.691758,US Hwy 50/State Rte 555
445,39.417303,-81.435794,Plum St
185,39.533911,-81.518709,State Rte 60/Lowell Loop Rd
160,39.605546,-81.463435,Tile House/C8
684,39.425271,-81.436256,Colegate Dr/Hadley Ln
160,39.277644,-81.595947,Gene St/George St
160,39.261302,-81.705071,Miles Ave/C26
526,39.416437,-81.466179,Bellevue St/Flint St
185,39.364290,-81.535865,State Rte 7
305,39.283437,-81.573465,US Hwy 50
216,39.524098,-81.494776,/Main St
917,39.410993,-81.448060,State Rte 60/S 3rd St
160,39.407787,-81.465679,Barber Ave
160,39.462901,-81.495233,C4
160,39.473576,-81.431940,/C375
160,39.405621,-81.480219,State Rte 550
160,39.353132,-81.583257,C27
305,39.374729,-81.394640,Santa Claus Ln
216,39.286031,-81.662793,/US Hwy 50
276,39.276295,-81.688406,US Hwy 50/Tower Rd
160,39.357315,-81.661044,Quail Ridge
160,39.520026,-81.324289,Oliver Rd
526,39.425566,-81.464168,Montgomery St
160,39.437792,-81.435849,Glendale Rd/Dun-Wrentin Rd
185,39.367665,-81.785214,State Rte 555/C236
185,39.366145,-81.662342,T1447/Lewis Pointe
216,39.460619,-81.461616,T700
160,39.268444,-81.573270,Scott St/John St
216,39.472155,-81.471680,Alden Ave
185,39.423322,-81.480107,Lancaster St/Sunnyhill Dr
216,39.524888,-81.061348,3rd St/Merchant St
216,39.285320,-81.592006,Wiley Ave
185,39.271992,-81.690409,/T1282
552,39.420268,-81.433122,E Spring St/Colegate Dr
246,39.428917,-81.475129,Westview Ave
246,39.553016,-81.635047,Pennock Dr
160,39.462982,-81.438713,Cambridge Rd
185,39.540997,-81.635447,Mill St
276,39.527084,-81.501530,3rd St/East St
362,39.270542,-81.569829,Main St/Cunningham St
160,39.527959,-81.446689,/C8
305,39.418844,-81.464675,Walnut St
160,39.537593,-81.708545,Twp Rd 104/Righteous Ridge Rd
160,39.449312,-81.469814,/Hanson Dr
185,39.426376,-81.419901,Industry Rd/Greene St
160,39.532390,-81.050909,T66/T428
160,39.520272,-81.066848,Wm Knowlton Ln/Park Ave
216,39.555800,-81.631817,Lakeview Dr/Mitchell Ave
185,39.339808,-81.670823,T1269/Maple Ln
579,39.415525,-81.430769,Phillips St/Warner St
216,39.394131,-81.665186,T1410/C804
160,39.285349,-81.687580,T1301/Hickory Dr/Suzanne St
390,39.528154,-81.506471,Main St
526,39.425255,-81.437534,Hadley Ln
246,39.252587,-81.699040,State Rte 124
185,39.452732,-81.430940,Belle Meadows Dr/Sassafras Trce
160,39.280722,-81.683963,US Hwy 50
762,39.549220,-81.631291,Dietz Ln/Ullman St
185,39.307042,-81.566646,State Rte 7
185,39.288940,-81.567125,State Rte 7
499,39.398632,-81.664910,Warrior/C804/State Rte 550
185,39.364892,-81.534356,Blue Knob Rd/State Rte 7
160,39.442977,-81.518826,Lancaster St/T184
276,39.389725,-81.225039,Wilson St/Gale Ave
305,39.283291,-81.582159,/Hocking Rd
246,39.283220,-81.615674,US Hwy 50
246,39.416534,-81.472221,Edgewood Dr/Laramie Rd
185,39.278573,-81.577004,Stone Rd/Campus Dr
390,39.272149,-81.568303,Florence St
305,39.278512,-81.595199,Talbot St/Lois St
684,39.440822,-81.460566,Muskingum Dr
334,39.427613,-81.455653,Warren St/Hildreth Ln
160,39.442343,-81.470915,/C4
246,39.471802,-81.437229,I- 77
160,39.525225,-81.060968,Virgin Aly/3rd St
185,39.405471,-81.228600,/C244/C25
160,39.531551,-81.652400,/State Rte 339
160,39.394193,-81.225607,Mitchell Dr
390,39.389992,-81.218647,T135/Carlton Dr
160,39.461343,-81.460264,/T700
362,39.447001,-81.458757,Muskingum Dr
160,39.532578,-81.050650,/T428
185,39.592700,-81.461183,I- 77
276,39.409716,-81.464469,Fort Harmar Dr/Market St
185,39.572868,-81.091722,C33
160,39.325764,-81.562605,/Co Rd Twp Rd 51/Briggs Hill Rd
185,39.468988,-81.471847,Alden Ave/T1109
160,39.429555,-81.400725,Goose Run Rd
160,39.553146,-81.629631,Cemetery St/Cemetary St
216,39.417118,-81.426102,Wells Ave/Kenwood St
160,39.442777,-81.228660,Twp Rd 416
160,39.350493,-81.670220,C805/Bracken Ridge Rd
185,39.358214,-81.667502,State Rte 339
276,39.442912,-81.530898,Rummer Rd/Harvest Run Rd
246,39.392081,-81.402531,Miller's Ln
185,39.446427,-81.429200,T343/Glendale Rd
160,39.546346,-81.641553,3rd St/Ohio St
160,39.282734,-81.570168,Walnut St/Wirt St
276,39.279185,-81.603512,Middle St/Elizabeth St
160,39.278815,-81.631548,Twp Rd 97
390,39.473408,-81.472562,Keyser St/Masonic Park Rd
390,39.394615,-81.222666,Julian St/Hendricks St
216,39.470604,-81.476425,Clark Dr/Robson Dr/T1109
472,39.420433,-81.433226,E Spring St/Colegate Dr
362,39.547046,-81.638092,4th St/Flesher
276,39.371178,-81.395173,Newport Pike
216,39.384731,-81.396371,Browns Rd
185,39.283398,-81.615675,/US Hwy 50
631,39.539275,-81.638718,Main St/Waterford Rd (C4)
160,39.514198,-81.076501,Hickory Ln
160,39.465760,-81.633503,Lancaster St/State Rte 676/Co Rd 109A
160,39.521010,-81.414898,Cambridge Rd/Railroad St/T391
276,39.543071,-81.645601,T1064/Sunset Ln
160,39.402937,-81.408009,Margaret St/Products Ln
246,39.427029,-81.437989,Jefferson Sq/Cisler Ln
334,39.279574,-81.585168,Oak Tree Ln
246,39.415676,-81.460843,New St/Gilman Ave
185,39.249270,-81.698696,Hill Summitt Vw
305,39.277514,-81.603734,Middle St/Parker Aly
216,39.402368,-81.472928,T1322/State Rte 7
246,39.447580,-81.473080,Twila Ct/C4
362,39.425228,-81.454240,Washington St/N 7th St
418,39.278895,-81.586489,Ohio Ave/Roselawn Ave
216,39.289534,-81.568040,/1st Ln
552,39.428701,-81.461820,5th St
216,39.466382,-81.633368,Co Rd 109A
160,39.473777,-81.482972,/Masonic Park Rd
160,39.391844,-81.372419,Cornerstone Dr/Sandhill Rd
362,39.276852,-81.573746,Barclay St
185,39.404338,-81.473616,Virginia St
276,39.281149,-81.599212,Rockland Ave/Ashberry Dr
185,39.315968,-81.687022,Twp Rd 291/Moody Ridge Rd
246,39.527803,-81.092423,State Rte 260
160,39.345965,-81.668877,Blue Gill Ln/Perch Ln
246,39.280578,-81.613498,Underwood Dr
160,39.486674,-81.439565,Twp Rd 1441
185,39.530657,-81.530797,State Rte 60
445,39.272321,-81.568278,Washington Blvd/Florence St
160,39.332747,-81.575037,Co Rd 64
334,39.426529,-81.426573,State St
994,39.407652,-81.421404,/Cogswell Ln
334,39.379937,-81.389268,T543/Randolph Dr
160,39.464900,-81.635478,State Rte 339
362,39.417070,-81.424948,Ingleside Ave/Kenwood St
276,39.420679,-81.433382,Colegate Dr/Grove St
246,39.468502,-81.436032,C375
362,39.513058,-81.074558,Front St/2nd St
362,39.281551,-81.594521,Rockland Ave/Boulevard Dr
684,39.418360,-81.451309,Whites Rd/5th St
216,39.282347,-81.604802,Miller Ave/Ann St
390,39.542905,-81.640635,Main St
305,39.412308,-81.444075,Hart St/Meigs St
185,39.287101,-81.686137,School House Rd/Twp Rd 15/Oak Dr
246,39.374727,-81.394837,Santa Claus Ln
160,39.536905,-81.664731,Flint Run Rd
276,39.277994,-81.585912,Putnam Howe Dr
216,39.284607,-81.593150,Morgan Ave
160,39.497092,-81.570558,Strahler Rd/C4
160,39.445713,-81.466208,Devol Dr/Bf Goodrich Rd
891,39.431090,-81.463871,4th St/Ferguson St
160,39.291319,-81.592274,C2
1355,39.416332,-81.444024,Quarry St/Bank St
305,39.280094,-81.594781,Jennielou St/Railroad St
390,39.418550,-81.477057,Kingman Rd/Lancaster St
160,39.553148,-81.629578,Cemetary St
658,39.279704,-81.592788,Elizabeth St
185,39.553346,-81.610264,Fairway Dr/Pinewood Ln
160,39.569935,-81.473088,/Twp Rd 156
160,39.493586,-81.687489,Wells Rd/T174
472,39.453785,-81.430057,T342A/Glendale Rd/C375
216,39.414383,-81.466977,Pearle St Exd/Victory Pl/Vernon St
216,39.530574,-81.532522,State Rte 60
526,39.280157,-81.590739,Belrock Ave
160,39.244759,-81.706579,C84/T483
160,39.423915,-81.478318,Nelson Ave
160,39.395962,-81.543776,Coffman Rd/Twp Rd 125
185,39.280742,-81.573161,Barclay St/8th St
160,39.377970,-81.387555,Summit Dr/Morningside Dr
185,39.281398,-81.598021,Westview Dr/Rockland Ave
160,39.332247,-81.587094,T287/Briggs Hill Rd
839,39.413331,-81.459508,Gilman Ave/Putnam Ave
276,39.518320,-81.070316,Baker Dr
160,39.399097,-81.405573,/Wilson Ave
246,39.422666,-81.464242,W Sacra Via St/Front St/Sacra Via St
246,39.419735,-81.471124,Summit St
246,39.253552,-81.698761,Gantsville Rd/State Rte 124
276,39.279531,-81.579078,Pomeroy Pike
160,39.519122,-81.069154,Evans St/Park Ave
185,39.279100,-81.607922,Hutchinson St/West St
185,39.350113,-81.669457,State Rte 339
160,39.429627,-81.400405,Goose Run Rd
334,39.537897,-81.639784,Main St/High Ave
334,39.391874,-81.216016,Saint Marys Brg
246,39.284640,-81.645787,US Hwy 50/Davis Creek
160,39.441580,-81.445495,Mill Creek Rd/T342
246,39.452699,-81.459162,/Main St
390,39.411252,-81.457877,Fort St
160,39.414532,-81.484159,Prdr
160,39.297565,-81.595983,/C2
160,39.517938,-81.561816,Oil Well Rd
160,39.366995,-81.784931,/State Rte 555
472,39.422295,-81.424309,Alderman St/Broughton Ave
185,39.472046,-81.111826,State Rte 7
216,39.416284,-81.463427,Smith St/Wood St
160,39.436865,-81.516571,Lancaster St/Warren Chapel Rd
160,39.411242,-81.400321,Sherlock Dr
334,39.443137,-81.456013,Dale St/Colegate Dr
276,39.283889,-81.578603,Clement Ave/US Hwy 50
276,39.472557,-81.471664,Alden Ave
185,39.522385,-81.064516,3rd St/Broadway St/Grandview Ave
216,39.389008,-81.558234,Wentz Rd
579,39.270083,-81.571260,Walnut St/Blennerhassett Ave
160,39.534140,-81.394269,Dalzell Rd/Old Plank Rd
246,39.421644,-81.443764,Hadley Ln/Glendale Rd
160,39.548905,-81.627745,Rose Lane Dr
160,39.453068,-81.456218,Cambridge Rd
276,39.415255,-81.422402,Sheridan St/Frederick St
362,39.377255,-81.399176,/Byers Rd
160,39.464097,-81.121368,T598/Old Beavertown Rd
246,39.468500,-81.435750,I- 77/C375
185,39.364115,-81.535833,State Rte 7
305,39.277977,-81.603703,Middle St/Washington Blvd
390,39.446709,-81.437362,I- 77
160,39.433778,-81.508526,Lancaster St
246,39.389072,-81.228527,T1101
390,39.416238,-81.424955,Frederick St/Ingleside Ave
160,39.536741,-81.636366,High St
472,39.411341,-81.458022,Maple St
216,39.628592,-81.461376,/T301/Shearborn Rd
216,39.283597,-81.592646,Buckeye Ln
160,39.370362,-81.664800,/Lewis Powte Dr
185,39.343976,-81.671437,/State Rte 339
684,39.430196,-81.465494,Muskingum Ln
334,39.468712,-81.467144,Main St/Halstead Rd
216,39.414431,-81.467004,Vista St/Vernon St
418,39.542935,-81.641399,Main St/Milner Rd/State Rte 339
246,39.528139,-81.056476,Dunn Ln/Front St/2nd St
160,39.443034,-81.518397,T184
160,39.287101,-81.589073,Braun Rd
445,39.437319,-81.461074,Rathbone Rd/Lee Ave
185,39.290332,-81.568656,/Lockhart St
160,39.420005,-81.405934,County House Ln
185,39.282876,-81.591165,Belrock Ave
160,39.426165,-81.388289,T345A/State Rte 26
526,39.420590,-81.459984,Knox St/2nd St
418,39.414994,-81.428456,Acme St/Phillips St
160,39.258074,-81.700693,State Rte 124
185,39.533446,-81.511966,/Cats Creek Rd
160,39.386820,-81.268056,T19/State Rte 7
160,39.486988,-81.604777,Watertown Rd/Rainbow Rd
246,39.404614,-81.409758,/County House Ln
160,39.488660,-81.583056,Hendershot Rd
185,39.378416,-81.362329,C20
185,39.476451,-81.484967,Masonic Park Rd/Kentucky Ave
362,39.421897,-81.450751,N 7th St/Tupper St/Goebel Pl
160,39.552310,-81.396585,/Old Plank Rd
552,39.417702,-81.443016,/Orchard St
160,39.277295,-81.607571,Old Cemetery Dr/West St
246,39.281293,-81.657323,State Rte 339
160,39.421659,-81.465020,Allen St
334,39.395118,-81.550262,Warren Heights Dr
160,39.315822,-81.656768,C85/Tanglewood Pl
160,39.450231,-81.431534,Bittersweet Trl/Glen Edwards Dr
160,39.532955,-81.542466,State Rte 60
305,39.447797,-81.458633,Muskingum Dr
160,39.394393,-81.225598,Null/Mitchell Dr
246,39.282973,-81.608730,Hanvey Ave
160,39.468802,-81.589679,C453/Lancaster St/Klinger Rd
160,39.426860,-81.420924,Moore Ave
917,39.419253,-81.458672,Wooster St/2nd St
160,39.530482,-81.060130,Twp Rd 431/T451/Cemetery Rd
185,39.405194,-81.473148,/Race St
185,39.378938,-81.387522,Dunedin Dr/Summit Dr
362,39.547776,-81.634382,5th St/Mc Intosh St
499,39.280723,-81.590921,Belrock St/Belrock Ave/Boulevard Dr
246,39.277495,-81.602562,Washington Blvd
185,39.364596,-81.535940,T482
160,39.264699,-81.699322,US Hwy 50
160,39.528567,-81.507287,Walnut St/Main St
362,39.424620,-81.457711,Ellenwood Ave/5th St
160,39.377003,-81.581887,/T283
390,39.473422,-81.472876,Ellsworth Dr/Masonic Park Rd
160,39.283934,-81.589338,Hocking Rd/Braun Rd
216,39.440568,-81.446921,Colegate Dr
216,39.543067,-81.644741,Marquis Ave/Sunset Ln
185,39.286282,-81.676350,/School House Rd
160,39.374801,-81.670245,First St/T1124
334,39.356035,-81.667944,State Rte 339
526,39.280683,-81.589261,Boulevard Dr/Braun Rd
334,39.285012,-81.590931,US Hwy 50
160,39.419448,-81.438300,Emerald St
185,39.426367,-81.420153,Trl 638/Greene St
418,39.417188,-81.428315,Acme St/Kenwood St
418,39.406619,-81.467663,Fort Harmar Dr/Browns Aly/State Rte 7
216,39.280156,-81.606228,McTaggart St/Mary St
160,39.581752,-81.708851,Echo Valley Rd
305,39.394835,-81.223778,Julian St
160,39.283312,-81.580052,Hocking Rd/Franklin Ave
3475,39.410519,-81.431050,Jefferson St/S Durwood Hoas Dr
499,39.547846,-81.639393,/5th St
552,39.282014,-81.592808,Prairie Dr
160,39.406891,-81.503854,State Rte 550
185,39.544964,-81.547779,State Rte 60
160,39.342030,-81.677021,C3
246,39.421308,-81.433906,Colegate Dr
185,39.366118,-81.662551,Baker Trl/Lewis Pointe
160,39.277837,-81.566151,6th St
185,39.548649,-81.641267,6th St
185,39.490823,-81.443167,Cambridge Rd/C8
185,39.568657,-81.451094,State Rte 530/C8
246,39.429688,-81.435949,Colegate Dr
246,39.462291,-81.437581,I- 77
362,39.442208,-81.433142,/I- 77/Glendale Rd
1226,39.414246,-81.440910,S 8th St/Hart St
185,39.408379,-81.471422,Manchester Dr
418,39.417984,-81.463092,Gilman Ave/Stone St
160,39.581167,-81.667638,/State Rte 60
362,39.427705,-81.446321,The Hallow/Hillside Way
160,39.376909,-81.668334,Church St/T805/2nd St
160,39.381167,-81.286841,State Rte 7
216,39.276573,-81.592914,Washington Blvd/Putnam Howe Dr/Park Dr
160,39.520063,-81.324687,/Oliver Rd
160,39.409985,-81.404989,County House Ln
216,39.267651,-81.695877,US Hwy 50
246,39.421863,-81.441651,Channel Ln
246,39.547570,-81.397714,/Old Plank Rd
362,39.274292,-81.574503,Locust St
216,39.307157,-81.565723,C51/Twp Rd 51
334,39.473450,-81.473580,Masonic Park Rd
185,39.392630,-81.216445,Glenna St
160,39.433748,-81.406776,T605/Caywood Rd
216,39.401796,-81.683335,State Rte 550
160,39.497713,-81.664542,T107
160,39.426416,-81.221257,T90
276,39.389733,-81.225623,Gale Ave/Stanley Ave
160,39.394665,-81.614774,C2
216,39.279584,-81.607779,Washington Blvd/West St
552,39.276269,-81.577232,4th St/Stone Rd
185,39.428997,-81.446214,The Hallow
276,39.276672,-81.601635,Parker Aly/Gandee Ave
160,39.553694,-81.609882,Pinewood Ln
216,39.404546,-81.410921,/County House Ln
185,39.514668,-81.452137,Dunbarger Rd
390,39.284150,-81.610765,US Hwy 50/Farson St
1589,39.413400,-81.452722,Butler St/2nd St
160,39.452735,-81.435044,T342A
160,39.285029,-81.686407,Hickory Dr
185,39.424176,-81.479745,Sunnyhill Dr
605,39.277316,-81.687585,US Hwy 50/T295
246,39.359047,-81.666765,Timberline Dr
276,39.546329,-81.640357,3rd St/Mitchell Ave
160,39.440482,-81.519051,/Lancaster St
160,39.514557,-81.079533,Grandview Hill Rd
185,39.447993,-81.567622,Old School Ln/Christy Rd
185,39.530746,-81.508503,Market St
160,39.263654,-81.716151,/C26
185,39.294741,-81.662246,/State Rte 339
185,39.389063,-81.215476,Saint Marys Brg
185,39.313042,-81.684080,Moody Ridge Rd
160,39.285189,-81.595400,US Hwy 50
4962,39.418983,-81.448735,Short St/Putnam St
185,39.279913,-81.566441,Oneal St
160,39.420227,-81.485919,Pine Ln
185,39.532473,-81.647903,/C802
305,39.547076,-81.639393,4th St/
246,39.290103,-81.566828,Lockhart St/State Rte 7
4209,39.412817,-81.454266,Front St
362,39.516167,-81.451995,I- 77
526,39.420110,-81.428688,Holly St/Oakwood Ave
246,39.285620,-81.657754,US Hwy 50
216,39.381225,-81.664045,C805/State Rte 339
160,39.519084,-81.657750,State Rte 339
305,39.526087,-81.501519,East St/Main St
246,39.389733,-81.228526,Lee Dr/Dye St
276,39.432948,-81.456224,Saint Marys Ave
216,39.524112,-81.061479,/2nd St
246,39.274873,-81.577337,3rd St/Stone Rd
276,39.552950,-81.635566,Pennock Dr
1329,39.417399,-81.446180,Butler St/7th St
160,39.306647,-81.684375,T291
788,39.412738,-81.441436,S 7th St/Charles St
185,39.350206,-81.669426,State Rte 339
246,39.582909,-81.457764,I- 77
276,39.406523,-81.462554,Virginia St/Harmar St
216,39.277742,-81.577112,6th St/Stone Rd
472,39.274700,-81.573990,School Dr/3rd St
390,39.426000,-81.452982,Washington St/8th St
160,39.422153,-81.440496,Channel Ln/Becker Ln
305,39.468526,-81.478641,Robson Dr/Lawton Rd
276,39.400026,-81.408728,Pike St/Ellsworth Ave
160,39.423141,-81.431851,Chestnut St
472,39.421692,-81.451076,/Tupper St
334,39.268883,-81.571385,Walnut St/Scott St
160,39.400389,-81.665301,C804
246,39.465048,-81.464989,Brittigan Cir/McArthur Ave
305,39.283180,-81.578663,Clement Ave/Hocking Rd
305,39.419303,-81.429256,Greene St/Acme St
216,39.546524,-81.638949,3rd St
185,39.449932,-81.429064,Glendale Rd
160,39.421060,-81.816474,T1276/T209
185,39.417557,-81.385090,T345/T1331
216,39.417575,-81.430185,Warner St
994,39.411413,-81.459609,Gilman Ave/Maple St
276,39.551791,-81.628599,Applegate St/Pinecrest Dr
216,39.274299,-81.589762,Civitan Park
334,39.394087,-81.218185,Prdr
185,39.467047,-81.547303,Lancaster St/C183/Saint John Rd
160,39.639034,-81.468302,Marietta Rd
579,39.278034,-81.583392,Wyatt Ln/Roderick St
418,39.420415,-81.456781,/Wooster St
334,39.417346,-81.441542,Ridge St/Sycamore St
185,39.465475,-81.464179,McArthur Ave
185,39.310799,-81.622668,C2
160,39.429932,-81.456978,North St/Montgomery St/8th St
246,39.285062,-81.596549,US Hwy 50
334,39.419709,-81.465245,Walnut St/Gilman Ave
216,39.452737,-81.481572,/C4
160,39.301437,-81.624711,Cavalier Ct/Ridgewood Blvd
276,39.439534,-81.431927,I- 77
276,39.249498,-81.698998,Hill Summitt Vw/Summitview Rd/Hillcrest Ave
160,39.391874,-81.556510,Wentz Rd
160,39.470761,-81.490675,River Rd
216,39.400258,-81.224835,Woodland Dr
246,39.439485,-81.431660,I- 77
160,39.288201,-81.659973,T1306
216,39.532808,-81.645803,C802/McNeal Rd
216,39.387182,-81.386829,Hazelwood Rd/T541
334,39.421520,-81.426761,W Fay Ave
160,39.466761,-81.617615,Lancaster St
216,39.344765,-81.671199,/State Rte 339
334,39.278473,-81.588435,Putnam Pl
160,39.527863,-81.447084,C8
160,39.531592,-81.507898,/Market St
1563,39.410074,-81.428542,Pike St
216,39.280079,-81.599432,Covey Ct
160,39.388695,-81.227951,/T1254/Mulberry St
185,39.318616,-81.649086,St Andrews Blvd/C85
160,39.453822,-81.486835,/C4
160,39.615273,-81.473412,C76
160,39.290762,-81.568294,Lockhart St
160,39.465818,-81.634885,Lancaster St
216,39.452764,-81.466558,Schilling St/Bf Goodrich Rd
579,39.272493,-81.573576,Washington Blvd/Maple St
246,39.359074,-81.667328,Timberline Dr/State Rte 339
390,39.414752,-81.421500,/Miller Ave/Frederick St
216,39.279661,-81.622879,Washington Blvd/Circle Dr
185,39.389870,-81.399690,Starlite Dr
334,39.397294,-81.664964,/Warrior/C804
160,39.405702,-81.480414,State Rte 550
185,39.373230,-81.670387,Bracken Ridge Rd
2381,39.418156,-81.450081,Foster Ln/Putnam St
160,39.281021,-81.585010,Shell Cir
160,39.402865,-81.408320,Products Ln
160,39.467964,-81.471940,Alden Ave/Wilding Rd
216,39.431412,-81.438955,Brentwood St/Glendale Rd
276,39.282559,-81.589434,Patricia St/Braun Rd
185,39.315648,-81.562878,/Joe Skinner Rd
160,39.496020,-81.447050,/C8
246,39.276967,-81.590473,Putnam Howe Dr
276,39.271562,-81.573653,Ridge St/Maple St
160,39.436243,-81.390786,/Lynch Church Rd
445,39.547837,-81.638941,/5th St
276,39.448122,-81.438258,I- 77
445,39.377610,-81.398820,Pike St
160,39.345406,-81.668867,Blue Gill Ln
160,39.386374,-81.536018,Blue Knob Rd/Twp27
246,39.468499,-81.435526,I- 77/C375
185,39.528939,-81.507009,Walnut St
160,39.354167,-81.788590,Bank St/Mc Atee St
891,39.413368,-81.459065,Putnam Street Brg/Putnam Ave
160,39.420464,-81.816867,South St/State Rte 550
185,39.377056,-81.390403,Delray Dr/Sand Hill Rd
445,39.419997,-81.462603,Washington Street Brg
160,39.296743,-81.669616,Hannah Pl
160,39.346991,-81.665550,Lake Ln
276,39.517988,-81.070997,Aldeco St/Park Ave
362,39.283144,-81.577999,Hocking Rd
418,39.405781,-81.428497,I- 77
246,39.530603,-81.531469,/State Rte 60
216,39.512668,-81.076158,Grandview Hill Rd/1st Ave/Park Ave/T428
390,39.472904,-81.473618,T1182
160,39.279656,-81.609671,Washington Blvd/Norway Ave
160,39.374863,-81.391509,Holiday Dr/T1303
1929,39.415017,-81.443544,Pike St/S 7th St
160,39.291690,-81.592739,/C2
276,39.401536,-81.409714,Pike St
160,39.406629,-81.422456,Cogswell Ln
216,39.376303,-81.395452,Rua Ln
499,39.424735,-81.465509,/Montgomery St
1929,39.413047,-81.453321,Butler St/Tiber Way
390,39.281921,-81.582665,Poplar Ave/Grant Ave
160,39.286292,-81.567035,Main St
185,39.424089,-81.423063,Broughton Ave/Pattin St
160,39.554200,-81.612522,State Rte 60
445,39.276275,-81.599748,Washington Blvd
160,39.472727,-81.469307,Glen Eagle Dr
160,39.552434,-81.632178,Cemetery St/Mitchell Ave
185,39.291616,-81.662377,/Hollywood Dr
160,39.392824,-81.376478,Briargate Dr/T1422
185,39.274430,-81.594988,Bay Pointe Dr
305,39.440412,-81.446701,Woodcrest Dr/Colegate Dr
160,39.538341,-81.613064,Culver Run Rd
160,39.282715,-81.655934,Glencoe St/Railroad St/Railroad Ave
185,39.525862,-81.071072,Main St
305,39.390988,-81.226747,T1096/Greenwood St/Charles St
216,39.544463,-81.447902,C8
305,39.282447,-81.567383,9th St/Florence St
1982,39.412101,-81.435220,Lafayette Pl
246,39.552991,-81.634224,Lakeview Dr/Pennock Dr
185,39.635783,-81.463906,I- 77
185,39.337209,-81.645404,C3
160,39.517729,-81.485723,Muskingum River Rd
334,39.280311,-81.622844,Circle Dr
216,39.430843,-81.453200,Ray St/Jackson St/Ray Rd
943,39.410928,-81.447852,Ohio St
305,39.277659,-81.703530,Cherry Blossom Ln
276,39.284749,-81.594316,Boulevard Dr
216,39.283576,-81.606006,Ames St/Mary St
185,39.405005,-81.473407,Simpson St
185,39.278753,-81.619260,Beach Dr/Ohio St/Frame Dr
160,39.433706,-81.508019,/Lancaster St
185,39.478569,-81.485367,Masonic Park Rd
185,39.521295,-81.416566,T1077
246,39.479665,-81.442152,/Cambridge Rd
216,39.273105,-81.695302,State Rte 555
160,39.466961,-81.631521,Watertown Rd
216,39.535693,-81.642560,Main St
552,39.412224,-81.469414,Oakview Dr
160,39.429155,-81.492979,Lancaster St/Flintwood Dr
160,39.370456,-81.671432,Bracken Ridge Rd
276,39.260992,-81.702955,US Hwy 50/C26
246,39.277119,-81.603799,Middle St
216,39.620996,-81.461026,C8
276,39.417155,-81.427242,Woodland Ave/Kenwood St
1046,39.442877,-81.459573,Muskingum Dr/Colegate Dr
305,39.551262,-81.634273,Park St/Jenison St
185,39.284677,-81.578545,Clement Ave
305,39.409538,-81.461249,Franklin St/Market St
185,39.623850,-81.462242,C8
246,39.428869,-81.474391,Gilman Ave/Westview Ave
160,39.461033,-81.457132,Mill Gate Rd
185,39.284131,-81.579439,US Hwy 50
305,39.280093,-81.578901,Clement Ave/Oak St
185,39.533501,-81.510958,Adams St/5th St
216,39.411036,-81.442822,Meigs St/Pine Aly
185,39.370818,-81.664963,/State Rte 339
160,39.287368,-81.662561,School House Rd/Twp Rd 15
216,39.279630,-81.614593,Washington Blvd/Phillip St
552,39.439112,-81.463025,Waldo St
185,39.469009,-81.471887,Alden Ave/T1109
418,39.281174,-81.601490,School Dr/Rockland Ave
305,39.384975,-81.403024,Pike St
160,39.299016,-81.632754,Ridgewood Blvd
160,39.374727,-81.671523,Barrett South Rd/Spring St
418,39.405497,-81.428761,I- 77
246,39.279644,-81.621129,Washington Blvd//Frame Dr
160,39.230924,-81.708013,Twp Rd 299/State Rte 124
185,39.392809,-81.667279,T1410
276,39.557911,-81.586076,/State Rte 60
160,39.318306,-81.649330,/C85
185,39.386985,-81.386538,T541
185,39.544349,-81.642751,Leget Rd/Milner Rd
160,39.477756,-81.483026,Creston Ln
276,39.517871,-81.071151,Park Ave/Baker Rd
276,39.518547,-81.070160,/Park Ave
185,39.517011,-81.450707,Dunbarger Rd
160,39.620562,-81.460886,C8
160,39.286790,-81.684267,School House Rd/T295
362,39.423955,-81.461223,3rd St/Sacra Via St
185,39.525727,-81.500313,3rd St/Main St
216,39.285402,-81.657347,US Hwy 50/State Rte 339
216,39.405224,-81.228578,C244/C25
246,39.399418,-81.407452,T1413/Electra Ave
160,39.261665,-81.700538,Walnut St/Riverview Ave/E High St
160,39.379155,-81.382983,Sherman Dr/C348
160,39.517063,-81.073541,Williamson Ave/Cline St
472,39.417323,-81.443894,Orchard St/Walker St
160,39.427034,-81.416487,Greene St/Moore Ave
160,39.246206,-81.697917,Stanley Mills Rd
160,39.287426,-81.611627,Farson St/Parkview Dr
390,39.416155,-81.433813,Phillips St
160,39.412804,-81.472173,Prdr
246,39.277549,-81.596436,Gene St
160,39.474043,-81.485107,/Masonic Park Rd/Devols Dam Rd
472,39.409194,-81.424162,Pike St/
276,39.279032,-81.566501,7th St/Oneal St
334,39.427084,-81.470294,Front St
276,39.376296,-81.394778,Dayton Rd/Rua Ln
160,39.378769,-81.497978,T464
605,39.430185,-81.465149,Matthew St/Muskingum Ln
185,39.420367,-81.477569,Doris Ave
305,39.496018,-81.448349,I- 77/C8
185,39.434319,-81.473007,C4
362,39.422296,-81.426439,I- 77
305,39.526633,-81.501502,/East St
276,39.393011,-81.226670,Harrison St/Charles St
362,39.278514,-81.583607,Putnam Howe Dr/Roderick St
684,39.411365,-81.458585,Crawford St/Maple St
276,39.296452,-81.663068,State Rte 339
160,39.288437,-81.567295,Main St/State Rte 7
185,39.346052,-81.588887,/C3
246,39.315762,-81.564548,State Rte 7
185,39.486570,-81.484479,Weppler Ln
334,39.356056,-81.669093,Bracken Ridge Rd/Breckenridge
185,39.280722,-81.606186,Mary St
418,39.280594,-81.594176,Campbell Dr/Boulevard Dr
160,39.358423,-81.547082,T482
160,39.554812,-81.633111,Laughery Cir/Laughery Rd
160,39.525294,-81.060094,Ferry St/2nd St
1615,39.411443,-81.450745,Greene St/S 2nd St/2nd St
160,39.548619,-81.640054,Ferry St/6th St
1589,39.414550,-81.456019,W Putnam St/Front St/Putnam St
185,39.398472,-81.669791,State Rte 550
160,39.472744,-81.469459,Glen Eagle Dr
839,39.420765,-81.449562,N 7th St/Ephraim Cutler St
160,39.242548,-81.707411,Chloe Ln/Oakes Rd
216,39.440597,-81.446964,Mill Creek Rd/Colegate Dr
472,39.419398,-81.435297,E Spring St/Grove St/Spring St
185,39.530663,-81.536580,/State Rte 60
160,39.239529,-81.704736,/State Rte 124
305,39.273782,-81.566498,3rd St
160,39.529379,-81.506688,Walnut St/3rd St
160,39.279402,-81.588275,King St
216,39.286494,-81.689423,Wood Dr/Oak Dr
276,39.285106,-81.605326,US Hwy 50/Mary St
762,39.275528,-81.567986,4th St/Florence St
276,39.391202,-81.496261,Bender Rd/Trestle Hills Rd
160,39.548624,-81.639838,6th St
276,39.435363,-81.465451,Pennsylvania Ave
185,39.561880,-81.407131,School Dr/State Rte 821
185,39.388315,-81.227282,Morus St
418,39.426000,-81.438611,Colonial Dr/Cisler Ln
216,39.283299,-81.581324,Hocking Rd/Lee St
362,39.278619,-81.597903,Tuttle St/Tuttle Ave/Elizabeth St
160,39.399564,-81.676697,State Rte 550
160,39.388670,-81.537275,/Blue Knob Rd
185,39.286383,-81.686038,Hickory Dr/Suzanne St
658,39.421297,-81.455350,High School Ln/Wooster St
246,39.330737,-81.671882,State Rte 339
185,39.325685,-81.561967,Co Rd Twp Rd 51/State Rte 7
160,39.566405,-81.581757,State Rte 60
160,39.404415,-81.467566,/Virginia St/Browns Aly
246,39.282946,-81.576394,Leonard Ave/Edward St
185,39.452979,-81.430732,Belle Meadows Dr/Belle Meadow Dr
1563,39.420003,-81.449253,Short St
362,39.393723,-81.666950,T1411
160,39.524971,-81.059617,Ferry St/Front St
160,39.392323,-81.574115,State Rte 550
362,39.441681,-81.433053,I- 77
246,39.476418,-81.482852,Indiana Ave/Kentucky Ave
710,39.426065,-81.463366,Montgomery St/3rd St
605,39.409705,-81.426900,Pike St
246,39.281248,-81.683040,US Hwy 50
185,39.423401,-81.467661,W Montgomery St
185,39.428218,-81.414324,Greene St
305,39.285145,-81.594301,US Hwy 50
246,39.552014,-81.632467,Cemetery St/Mitchell Ave
246,39.412351,-81.471852,Prdr
526,39.468216,-81.467154,Wyandotte Rd/Main St
305,39.403868,-81.471475,State Rte 7
390,39.372302,-81.395810,T1165/Newport Pike
276,39.482819,-81.443391,Cambridge Rd/Arends-Ridge Rd
185,39.392921,-81.372674,Sandhill Rd
1226,39.420322,-81.453309,5th St/Tupper St
390,39.389825,-81.219154,/T135/Poinciana St
160,39.304475,-81.685889,T291
418,39.425451,-81.475035,Groves Ave
160,39.372052,-81.670749,Bracken Ridge Rd
472,39.550613,-81.636252,/Virginia St
246,39.283902,-81.578785,US Hwy 50
185,39.287866,-81.567509,Main St
276,39.411330,-81.472012,Alta St/Dye Cir
246,39.282141,-81.588512,Poplar Ave/Ruble Ave
762,39.423681,-81.456764,Washington St/5th St
216,39.408901,-81.463680,Fearing St
246,39.412475,-81.472418,Prdr
160,39.523645,-81.064358,4th St/Cougler St
160,39.356604,-81.664401,Linden Ct
276,39.388756,-81.228558,T135/T1101
160,39.543013,-81.643971,Sunset Ln
390,39.429332,-81.466337,3rd St/Muskingum Dr/Front St
185,39.378487,-81.566353,T458/Robinson Hill Rd
160,39.400438,-81.393900,Rauch Dr
160,39.350591,-81.670265,Bracken Ridge Rd/Breckenridge
216,39.535763,-81.642331,/Main St
185,39.283287,-81.583853,Winton Ave/Hocking Rd
276,39.405751,-81.463726,Fearing St
276,39.278683,-81.615276,Riverview Dr/Thomas St
710,39.283594,-81.568644,US Hwy 50/Main St
246,39.277496,-81.576360,Beauseaux St
334,39.285907,-81.591980,Wiley Ave/Hill St
160,39.318820,-81.564049,Ayers Blvd
185,39.549291,-81.635083,Park St/7th St/Mitchell Ave
160,39.521794,-81.066208,Stover Dr/Elm St
246,39.392984,-81.550911,T1490 Warren Heights Dr/State Rte 550
185,39.386856,-81.544092,/Brush Rd
185,39.285654,-81.664751,US Hwy 50
472,39.272272,-81.571067,Walnut St/Washington Blvd
418,39.281173,-81.601343,Seneca Dr/Rockland Ave
276,39.275161,-81.585491,Ohio Ave/4th St
160,39.354516,-81.788649,/Bank St
246,39.485191,-81.443884,/Cambridge Rd
185,39.544193,-81.639059,Elm St
472,39.449306,-81.458531,Muskingum Dr
185,39.505522,-81.454406,I- 77
216,39.440344,-81.468098,Bf Goodrich Rd/C4
160,39.241562,-81.706505,Chloe Ln
276,39.394006,-81.398105,Brandy Dr/Sunnyview Dr
246,39.280865,-81.657325,/State Rte 339
160,39.383257,-81.385905,Osage Ln
246,39.568707,-81.451441,I- 77/State Rte 530
362,39.416199,-81.464384,Fort Harmar Dr
472,39.527994,-81.506104,Main St/Lock St
246,39.440864,-81.434619,Glendale Rd
305,39.278800,-81.605648,Washington Blvd/Cross St
160,39.366131,-81.534415,Blue Knob Rd
185,39.522703,-81.413997,Palmer St/Railroad St
160,39.478983,-81.492352,T550/Garden City Rd
445,39.413422,-81.462155,/Harmar St/Putnam Ave
185,39.525117,-81.061094,3rd St
160,39.392325,-81.573851,Salster Rd/State Rte 550
160,39.429684,-81.494840,/Lancaster St
160,39.288691,-81.658851,/State Rte 339
185,39.607992,-81.413661,T1121/State Rte 821
305,39.376706,-81.501418,State Rte 7
185,39.315155,-81.565165,Twp Rd 1305/T1304
160,39.414120,-81.464231,Douglas Ave/Fort Harmar Dr
216,39.452725,-81.481472,T1409/C4
246,39.441949,-81.433824,Swaney Ct
526,39.441274,-81.460143,Muskingum Dr
710,39.413382,-81.461005,Franklin St/Putnam Ave
160,39.394756,-81.665128,C804
216,39.316124,-81.564223,State Rte 7
216,39.393057,-81.229054,T1127/Greene Rd
276,39.513655,-81.453501,I- 77
246,39.407609,-81.459898,Virginia St/Gilman Ave
390,39.356367,-81.667876,C806/State Rte 339
362,39.277015,-81.602562,Parker Aly
216,39.529988,-81.650254,Windy Point Dr/Maple Cir/Elm St
276,39.425545,-81.427290,I- 77
472,39.410241,-81.424228,/I- 77
216,39.276886,-81.603891,Middle St/Murray St
160,39.607879,-81.413165,T308/State Rte 821
160,39.425915,-81.565644,Warren Chapel Rd/Turkeyhen Rd
472,39.412499,-81.462267,Prospect St
216,39.429171,-81.458248,Montgomery St/N 7th St
418,39.426614,-81.426939,State St
246,39.492422,-81.445931,I- 77
334,39.284768,-81.589201,US Hwy 50/Braun Rd
185,39.279700,-81.606270,Albrey Ct/Mary St
362,39.413567,-81.423805,Sheridan St/Phillips St
305,39.282204,-81.679483,US Hwy 50
160,39.277973,-81.608262,West St
160,39.475046,-81.463041,/Main St
246,39.469821,-81.467984,T1387/Social Row
390,39.431150,-81.461371,Ferguson St
334,39.428289,-81.413863,Greene St
185,39.452972,-81.436011,T342A/T342/Timberline Dr
160,39.388785,-81.227862,T135
276,39.271416,-81.568333,Florence St
160,39.370654,-81.394876,/Newport Pike
216,39.283617,-81.575068,US Hwy 50/State Rte 7
943,39.418585,-81.454607,Scammel St/
185,39.527693,-81.517262,/Muskingum River Rd
246,39.426014,-81.485998,Lancaster St/Groves Ave
276,39.414092,-81.468308,Oakview Dr/Victory Pl
160,39.524316,-81.062612,/Main St
216,39.549742,-81.628991,5th St/Rose Lane Dr
390,39.277891,-81.567791,Florence St/6th St
499,39.421968,-81.461372,Saint Clair St/2nd St
1693,39.431245,-81.464827,Matthew St/Ferguson St
276,39.278293,-81.605991,Washington Blvd/Hutchinson St/Cross St
710,39.413809,-81.448775,4th St/Church St
631,39.467350,-81.467151,Main St/Chamberlin Dr
185,39.280775,-81.658288,/Washington Blvd
160,39.401271,-81.393705,Rauch Dr
276,39.276703,-81.602589,Gandee Ave
185,39.376986,-81.501084,State Rte 7
185,39.281064,-81.615166,Thomas St
160,39.308064,-81.565471,Twp Rd 51/Joe Skinner Rd
216,39.550776,-81.631419,Ullman St/Fairview Ave
1226,39.414064,-81.455533,Union St/Front St
160,39.426034,-81.565118,/Warren Chapel Rd/Turkeyhen Rd
160,39.577949,-81.610475,/State Rte 339
160,39.354177,-81.551119,State Rte 7
160,39.535848,-81.643423,State Rte 339
160,39.394171,-81.626221,State Rte 550
362,39.421615,-81.427006,W Fay Ave/Greene St
185,39.535542,-81.638132,T1066
185,39.473674,-81.480062,Masonic Park Rd/Marshall Rd
160,39.523861,-81.064075,4th St/Vine St
216,39.512086,-81.454066,I- 77/T509/Gunclub Rd
160,39.283243,-81.571732,US Hwy 50
216,39.319971,-81.644152,Cherry Hills Dr
216,39.426419,-81.418799,Greene St/Kuhn Dr
246,39.421653,-81.429645,Holly St
362,39.408901,-81.431766,Jefferson St/E 8th St
160,39.581432,-81.667786,State Rte 60
160,39.470539,-81.411372,Stanleyville Rd
276,39.271531,-81.567841,Parkersburg-Belpre Brg
160,39.542970,-81.642385,T1062/Milner Rd
305,39.546196,-81.632708,Cadet Way/3rd St/Ullman St
1407,39.438715,-81.454153,Davis Ave
185,39.555962,-81.638012,Spring St
762,39.537582,-81.638588,Center St/High Ave
526,39.461397,-81.465740,Main St
445,39.275440,-81.579459,Warren Ave/3rd St
160,39.468140,-81.469448,Happy Ln/T1109
160,39.300559,-81.646451,T289/Emmaus Rd
1046,39.275168,-81.581825,3rd St/Lee St
160,39.465766,-81.634930,Mill Ln
185,39.328891,-81.717671,Twp Rd 244/Sealy Ridge Rd
305,39.419517,-81.463327,Washington Street Brg
160,39.407356,-81.499123,/State Rte 550
160,39.515292,-81.074944,Null/Williamson Ave
160,39.418973,-81.430178,Greene St/Chestnut St
160,39.520699,-81.702311,Twp Rd 106
579,39.274726,-81.574559,3rd St
418,39.432679,-81.464299,Matthew St/Strecker Hill
160,39.328781,-81.717665,Twp Rd 244/Sealy Ridge Rd
160,39.523199,-81.064924,4th St/
160,39.473788,-81.483287,Masonic Park Rd/Woodrow St
160,39.520095,-81.324822,Oliver Rd
552,39.546265,-81.636787,3rd St/Center St
160,39.444647,-81.529844,Rummer Rd/Pineview Dr
160,39.319351,-81.587444,/T73
334,39.465831,-81.466160,Lincoln Rd/Brittigan Cir
1252,39.414356,-81.440156,Pike St/N Hart St
246,39.423675,-81.437727,Aurora St/Becker Ln
160,39.552875,-81.636215,Pennock Dr
762,39.421515,-81.462109,Saint Clair St/0Ld Brewery Ln
216,39.263016,-81.698675,State Rte 124
216,39.285590,-81.665903,US Hwy 50
216,39.297902,-81.663460,State Rte 339
246,39.282690,-81.616740,Underwood Dr
160,39.296858,-81.628498,Crestwood Ct
160,39.473282,-81.746534,T91
160,39.468779,-81.589672,C453
185,39.534240,-81.511241,6th St
216,39.279712,-81.604617,Albrey Ct
445,39.274560,-81.574001,School Dr
185,39.284386,-81.603549,Pride St
160,39.240502,-81.704688,State Rte 124
160,39.487682,-81.633951,Al Ln/T171
246,39.281395,-81.608845,Graham Ave/Rockland Ave
334,39.409865,-81.458799,Fort Sq/Market St/Crawford St
160,39.301958,-81.625664,Cavalier Ct
418,39.435844,-81.440796,Crestwood Cir/Colegate Dr
276,39.261835,-81.701583,E High St
305,39.281873,-81.581400,Poplar Ave/Lee St
185,39.328353,-81.671679,C30/State Rte 339
185,39.275669,-81.584226,4th St/3rd St
160,39.450322,-81.437234,T342
216,39.423578,-81.461841,Sacra Via St
160,39.424881,-81.426099,/Maine St
160,39.521353,-81.415141,High Ln
160,39.303342,-81.739405,T725
390,39.415687,-81.465993,Bellevue St/Maple St Exd/High St
216,39.486478,-81.443304,Cambridge Rd/I- 77
276,39.537655,-81.637198,Washington St
216,39.543755,-81.448722,I- 77/C8
418,39.411508,-81.462326,Maple St
185,39.329049,-81.671783,/State Rte 339
185,39.427902,-81.412010,/Greene St
305,39.409002,-81.423618,Pike St
185,39.606031,-81.463491,C8/T304
160,39.461133,-81.456112,Mill Gate Rd
216,39.535972,-81.643339,State Rte 339
1485,39.412280,-81.449380,3rd St/Greene St/S 3rd St
362,39.398434,-81.406785,Mitchells Ln/Mitchel Ln/T1413
160,39.399296,-81.475399,/T1322
418,39.281144,-81.600407,Brentwood Dr/Rockland Ave
305,39.285309,-81.590984,Belrock Ave
160,39.396842,-81.664997,Warrior/T1052/C804
216,39.422166,-81.465098,Allen St/W Sacra Via St
216,39.279630,-81.614541,Washington Blvd/Julies Ln
216,39.389711,-81.226831,Dye St/Charles St
160,39.486300,-81.472895,Ferncliff Rd
160,39.394629,-81.225582,Null/Mitchell Dr
160,39.531355,-81.526939,State Rte 60
160,39.530508,-81.061167,/Twp Rd 431/Cemetery Dr
160,39.423457,-81.462936,Sacra Via St/2nd St
185,39.543631,-81.449071,I- 77/C8
160,39.567540,-81.582181,Tick Hill Rd/Henderson Aly
216,39.419105,-81.269004,Twp Rd 19
276,39.391389,-81.215803,T135/Saint Marys Brg
390,39.274211,-81.570584,3rd St
362,39.426170,-81.424470,Greene St
305,39.282812,-81.592692,Belrock Ave
276,39.522320,-81.484424,Main St
445,39.418342,-81.437527,Euclid Pl
160,39.312111,-81.680972,T291/Moody Ridge Rd
305,39.547103,-81.640885,4th St/
1824,39.420630,-81.447553,Glendale Rd/Gross St
216,39.280755,-81.581302,Colonial Sq
160,39.264532,-81.697795,State Rte 124
305,39.427233,-81.456277,Warren St/N 7th St
276,39.403404,-81.228664,C25
160,39.394377,-81.480775,State Rte 7
305,39.472496,-81.475063,Keeler Dr/Milton Rd
362,39.260389,-81.699016,/Federal Rd
160,39.287417,-81.662703,School House Rd/Hollywood Dr/Twp Rd 15
160,39.262793,-81.708269,Bell Strip/C26
160,39.524210,-81.064678,Vine St
216,39.379815,-81.392841,Biehl Rd
736,39.422084,-81.454081,Wooster St
276,39.454808,-81.440506,T477
160,39.522839,-81.063942,3rd St
276,39.625825,-81.461478,/I- 77
1719,39.414863,-81.454198,Union St/2nd St
160,39.407213,-81.488231,State Rte 550
552,39.407393,-81.461383,Franklin St/Pearl St
246,39.377096,-81.392451,Bel Aire Dr/Sand Hill Rd
362,39.547091,-81.640123,4th St/Ferry St
185,39.447608,-81.473882,Twila Ct
246,39.284504,-81.605875,Mary St/Pride St
499,39.419932,-81.427989,Greene St
246,39.526657,-81.444600,Twp Rd 1335
160,39.547167,-81.642281,4th St/Ohio St
246,39.281327,-81.607400,Nelson St/Rockland Ave
160,39.427839,-81.408799,/Goose Run Rd
246,39.282706,-81.606066,Miller St/Mary St
305,39.518280,-81.071352,/Aldeco St/Dode Ave
684,39.418293,-81.434673,Vine St/Euclid Pl
160,39.285750,-81.568664,/State Rte 7
185,39.388079,-81.403695,Pike St/
390,39.439041,-81.461671,Rathbone Ln/Muskingum Dr
216,39.472126,-81.477940,Milton Rd/Walnut Dr
185,39.444126,-81.469891,Grayling Dr
160,39.459097,-81.438988,I- 77
185,39.536637,-81.643702,/Beebe Rd
362,39.276323,-81.579402,4th St/Warren Ave
185,39.429490,-81.458565,Adams St/6th St/N 7th St
185,39.452064,-81.457732,/Cambridge Rd
472,39.283537,-81.567290,/Florence St/Main St
276,39.377224,-81.663667,C27/2nd St/State Rte 339
160,39.457271,-81.126026,T135
185,39.542980,-81.642800,Leget Rd/Sunset Ln/T1062
246,39.280157,-81.603422,Middle St/McTaggart St
246,39.423124,-81.462598,Sacra Via St/2nd St
160,39.532449,-81.541824,/State Rte 60
160,39.275248,-81.593988,Access Park
526,39.424069,-81.456129,/Washington St
1956,39.417778,-81.450709,5th St/Putnam St
160,39.244566,-81.704403,T483/State Rte 124
160,39.272080,-81.693188,/State Rte 555
216,39.330992,-81.671895,State Rte 339
185,39.444374,-81.459043,Muskingum Dr
160,39.465779,-81.635125,State Rte 339/Franklin
276,39.359759,-81.544459,State Rte 7
160,39.414199,-81.465485,Bellevue St/Vista St
185,39.420865,-81.472105,Clark St/Fairview Ln
160,39.311070,-81.747442,State Rte 555/T397
185,39.289404,-81.566852,/State Rte 7
334,39.408681,-81.462414,Harmar St/Clinton St
305,39.278432,-81.600237,Elizabeth St
276,39.429930,-81.452457,Warren St
160,39.279008,-81.577227,Depot St
499,39.421034,-81.429266,E Spring St/Holly St
2542,39.410002,-81.429582,S Durwood Hoas Dr
362,39.278507,-81.589639,Society Manor
160,39.429829,-81.464454,4th St/Park St
185,39.340808,-81.672015,Walnut Ln/State Rte 339
160,39.434448,-81.458569,Eldridge St/City View Ave
526,39.428387,-81.466501,Eaton St/Front St
472,39.278918,-81.581704,Putnam Howe Dr/Lee St
246,39.626681,-81.462052,I- 77
216,39.309008,-81.661997,C85/State Rte 339
160,39.466169,-81.494240,C79/Muskingum River Rd/Twp Rd 32
160,39.525335,-81.059213,/Front St/Walnut Aly
943,39.431107,-81.465786,Muskingum Ln
185,39.523868,-81.067300,Miracle St/Duncan Dr
185,39.424714,-81.467343,W Montgomery St
246,39.423213,-81.478178,Lincoln Cir/Nelson Ave
160,39.391895,-81.377756,T1420/Cornerstone Dr
276,39.542713,-81.644784,Marquis Ave/T1180
160,39.448623,-81.470132,Westchester Dr
334,39.601148,-81.459177,I- 77
185,39.405967,-81.505794,State Rte 550
160,39.395335,-81.375801,C9/C20/Miller's Ln
160,39.463249,-81.495940,Co Rd 4/C4
362,39.527367,-81.504644,McClain St/Main St
276,39.417582,-81.437247,Grandview Ave/Aurora St
216,39.513908,-81.453010,I- 77
216,39.379293,-81.393466,Biehl Rd/T543
160,39.553559,-81.692342,Milner Rd
160,39.410012,-81.438671,S 7th St
185,39.544932,-81.640790,Mitchell Ave
160,39.526770,-81.506045,New Bridge St/McClain St
185,39.407367,-81.496117,State Rte 550
216,39.470221,-81.466377,Iroquois Dr
246,39.417802,-81.441528,Quarry St
160,39.378292,-81.668026,Layman Rd/C805/T805
276,39.378780,-81.360908,/C20
216,39.384960,-81.385990,Arborgate Rd/T541
160,39.604852,-81.458149,I- 77
160,39.230749,-81.708167,Twp Rd 299/Holdren Rd
160,39.636017,-81.464192,I- 77
305,39.372613,-81.395985,Newport Pike
185,39.413338,-81.204266,T135
216,39.358014,-81.575295,Twp Rd 282/Radabaugh Rd
362,39.414683,-81.460932,Franklin St/Lancaster St
390,39.277698,-81.587263,Putnam Howe Dr/Moody Ave
276,39.439591,-81.431714,I- 77
276,39.279098,-81.567684,Florence St/7th St
246,39.389643,-81.221867,Gale Ave/Adkins St
185,39.467024,-81.547314,C183
1097,39.416993,-81.451993,4th St/Putnam St
185,39.434031,-81.440762,Brentwood St/Merryhill St
736,39.436765,-81.463632,Muskingum Dr/Sunset Dr
160,39.566714,-81.449827,State Rte 530
185,39.438375,-81.435646,/Glendale Rd
276,39.278246,-81.600142,Elizabeth St
160,39.280417,-81.584038,Boulevard Dr
362,39.278502,-81.588295,Roselawn Ave
418,39.415143,-81.438452,Elmwood St/Buckeye Ave
185,39.279362,-81.573551,/Barclay St
216,39.481587,-81.442758,/Cambridge Rd
160,39.472901,-81.483119,Woodrow St/T1109
216,39.411354,-81.417138,Country Club Dr
710,39.283580,-81.568645,Main St
605,39.276218,-81.575922,4th St
305,39.416296,-81.464043,Wood St
216,39.512109,-81.454371,I- 77/T509
216,39.389705,-81.227346,Lauer Dr/Dye St
185,39.533816,-81.511383,Short St/5th St
334,39.281862,-81.581056,Poplar Ave
160,39.524620,-81.060011,Virgin Aly/Front St
418,39.469449,-81.468922,Lynn Ave/Maple Shade Dr/Social Row
762,39.421201,-81.462754,Allen St/Front St
499,39.466548,-81.466165,Seneca Dr/Lincoln Rd
246,39.390000,-81.229169,Greene St
631,39.418813,-81.432242,Colegate Dr/Oakwood Ave
160,39.410634,-81.472044,Riverview Dr/Alta St/Coventry Rd
216,39.280748,-81.573822,Heather Pl/8th St
160,39.350403,-81.670179,C805/Breckenridge
362,39.439795,-81.445838,Janet Rd/Colegate Dr
813,39.407197,-81.419011,Pike St/Captain D Seeley M I A Dr
246,39.359064,-81.667150,Timberline Dr
160,39.420856,-81.532207,Bethel Rd
305,39.416278,-81.461392,Gilman Ave/Wood St
160,39.452766,-81.435415,T342A
246,39.286568,-81.657732,/State Rte 339
445,39.269430,-81.571330,Walnut St
390,39.416492,-81.465279,Douglas Ave/Lancaster St
418,39.421124,-81.428241,Terrace Ave/Oakwood Ave
160,39.521493,-81.065873,Grandview Ave/Elm St
276,39.438508,-81.460567,Rathbone Ln/Lee Ave
362,39.416209,-81.424299,/Frederick St
160,39.509486,-81.524673,C79
185,39.458381,-81.405130,Hartline Rd
185,39.551988,-81.640031,Wilson St/Ferry St Exn/Ferry St
246,39.278196,-81.570569,Walnut St/6th St
334,39.279630,-81.615944,Washington Blvd/Thomas Ct
305,39.473493,-81.474980,Masonic Park Rd/Keeler Dr/C341
216,39.284473,-81.645583,US Hwy 50
160,39.287021,-81.577683,Clement Ave/Chris St
160,39.419310,-81.486759,Cole Coffman Rd/Pine Ln
216,39.284451,-81.604632,Ann St/Pride St
276,39.428236,-81.412893,Greene St/Caywood Rd
160,39.414615,-81.426858,/Phillips St
276,39.271485,-81.567869,Parkersburg-Belpre Brg
160,39.284001,-81.596657,George St/Pennsylvania Ave
246,39.372902,-81.396148,Newport Pike/Sterling Rd
276,39.285380,-81.604241,US Hwy 50/Ann St
160,39.405196,-81.712801,Hickman Rd
160,39.291939,-81.660595,/State Rte 339
526,39.378179,-81.399149,Pike St/
185,39.531367,-81.652749,State Rte 339
418,39.422927,-81.449347,Goebel Pl
160,39.280420,-81.567572,Florence St/8th St
305,39.378136,-81.383665,/C348
185,39.446766,-81.474377,Howard St
160,39.514389,-81.419290,Cambridge Rd
216,39.283021,-81.616708,US Hwy 50/Underwood Dr
246,39.390507,-81.540063,Blue Knob Rd
160,39.528428,-81.443240,C8
160,39.426240,-81.388186,Hadley Hollow Rd/State Rte 26
160,39.374744,-81.672138,Barrett South Rd/Hayes Ave
160,39.525702,-81.058802,/Taylor St/Front St
418,39.439335,-81.457155,Rathbone Ter/Davis Ave
185,39.387706,-81.226735,T1253
160,39.427598,-81.411586,Greene St/Goose Run Rd
305,39.430867,-81.440076,Cisler Dr
160,39.285919,-81.568711,/State Rte 7
160,39.429977,-81.455427,Emerson Ave/9th St
334,39.391010,-81.227297,Lauer Dr/Greenwood St
362,39.414715,-81.462107,Lancaster St/Harmar St
160,39.544435,-81.517814,C76
160,39.337342,-81.637697,/C3
160,39.391266,-81.245459,T135
276,39.635495,-81.463927,I- 77/State Rte 821
362,39.284048,-81.567239,Gibbens Ln/Florence St/Main St
216,39.545417,-81.640175,Ferry St
185,39.377028,-81.389013,el Dorado Dr/Sand Hill Rd
445,39.422729,-81.425393,E Fay Ave/Alderman St
160,39.278238,-81.635431,Washington Blvd
160,39.486901,-81.459798,T592
160,39.469785,-81.585315,T711
160,39.461485,-81.504186,T186/C4
813,39.547820,-81.638053,5th St
160,39.444592,-81.455960,Dale St
160,39.532177,-81.510500,/State Rte 60/Cats Creek Rd/Main St
160,39.515925,-81.073187,Park Ave/5th Ave
185,39.453091,-81.436202,Glenwood Ln/Timberline Dr
160,39.433377,-81.218391,Twp Rd 90/Kinderhook Rd/Kinderhook Ridge Rd
246,39.472437,-81.473650,T1182/Milton Rd/Lindsey Ave
246,39.437974,-81.464384,Floral Cir
160,39.483653,-81.501518,Alden Ln
160,39.532287,-81.507373,6th St
418,39.412297,-81.438928,S 8th St/Wayne St
185,39.462811,-81.478787,Ash Rd/
185,39.467074,-81.480664,River Rd/T457
1615,39.420718,-81.452666,Tupper St
276,39.390864,-81.222839,Greenwood St/Hendricks St
305,39.421873,-81.423235,Alderman St/Lower Sheldon Ave
160,39.396552,-81.223324,Null
160,39.563893,-81.447949,State Rte 530
160,39.365386,-81.534376,Blue Knob Rd
185,39.278458,-81.619114,Beach Dr
246,39.270361,-81.579381,Blenn Ave/Blennerhassett Ave
160,39.337303,-81.643905,C3/T322
305,39.529644,-81.650270,Maple Cir
246,39.488168,-81.456050,T337
305,39.432871,-81.456209,Saint Marys Ave/Cullen Rd
160,39.490401,-81.639436,State Rte 339
160,39.254516,-81.699263,State Rte 124
160,39.396018,-81.573611,/Salster Rd/Twp Rd 557
185,39.528986,-81.508438,State St
305,39.414624,-81.470459,Alta St/Vista St
160,39.553035,-81.609709,Fairway Dr/T1423
276,39.588372,-81.460920,I- 77/C8
246,39.315723,-81.564327,State Rte 7
160,39.451876,-81.470886,/Arrow Dr
185,39.263570,-81.698413,Allen St/State Rte 124
185,39.316191,-81.687350,T293/Twp Rd 291/Moody Ridge Rd
160,39.516807,-81.073146,Dode Ave/Cline St
160,39.344468,-81.555982,State Rte 7
185,39.511908,-81.601972,Watertown Rd/Hendershot Rd
968,39.410934,-81.448005,Ohio St/S 3rd St
216,39.399797,-81.349590,T395
160,39.520193,-81.702835,Twp Rd 106
160,39.353906,-81.668172,Lakeview Dr
160,39.431657,-81.492306,Pebble Dr/Mission Rd
710,39.420901,-81.455993,4th St/Wooster St
276,39.390926,-81.224992,Wilson St/Greenwood St
160,39.392890,-81.215719,Glenna St/Waugh Addition/Waugh St
216,39.388517,-81.558787,Twp Rd 28/Wentz Rd
185,39.263819,-81.718602,/C26
390,39.442523,-81.432769,Glendale Rd
216,39.281141,-81.603348,Middle St/Rockland Ave
160,39.370291,-81.665070,Lewis Powte Dr/State Rte 339
305,39.546217,-81.634366,3rd St/Mc Intosh St
891,39.422101,-81.459342,3rd St/Washington St
160,39.443611,-81.457571,Gregg St/Greg St
216,39.280446,-81.582553,Boulevard Dr
160,39.389142,-81.399056,Starlite Dr
160,39.348081,-81.779793,State Rte 555
1304,39.418155,-81.455324,Scammel St/3rd St
390,39.536400,-81.639099,Virginia Ave/Center St
246,39.284060,-81.578591,Clement Ave/US Hwy 50
1355,39.412395,-81.447338,State Rte 60/S 4th St
216,39.270536,-81.568988,Cunningham St
160,39.516342,-81.072820,Park Ave
246,39.419410,-81.425333,W Fay Ave/Buckeye Park
305,39.443199,-81.454669,Colegate Dr
305,39.439924,-81.459167,Davis Ave
216,39.526997,-81.505417,McClain St/Lock St
305,39.261725,-81.698161,/Franklin Dr
390,39.422063,-81.423743,Alderman St/Sheldon Ave
160,39.441138,-81.518826,/Lancaster St
499,39.280593,-81.590879,Belrock St/Belrock Ave/Boulevard Dr
160,39.432746,-81.454145,Dean St/Oak St
160,39.441408,-81.256664,C9/Milltown Rd
390,39.277918,-81.580011,Dana Rd
185,39.443404,-81.434092,I- 77
305,39.262736,-81.695420,Allen St/Old River Rd
160,39.442669,-81.621759,Anderson Rd
185,39.392428,-81.496744,/Bender Rd
362,39.393729,-81.400955,/Tennis Center Dr
216,39.608390,-81.412943,T308/Elba Hill Rd
185,39.299254,-81.627600,Crestwood Ct/Ridgewood Blvd
160,39.525586,-81.084320,Grandview Hill Rd/State Rte 260
160,39.489627,-81.653065,Camp Hervida Rd
160,39.417874,-81.466871,Bellevue St/Lancaster St
185,39.463761,-81.121169,State Rte 7/T568
305,39.418869,-81.464634,Stone St
968,39.412279,-81.435682,Pike St/Pioneer Ln
631,39.440464,-81.460900,Davis Ave/Muskingum Dr
160,39.390562,-81.238818,T135
160,39.272236,-81.691994,Tower Rd/State Rte 555
1485,39.411645,-81.447689,State Rte 60
160,39.446333,-81.479377,T1409
185,39.406715,-81.483897,State Rte 550
160,39.520362,-81.450687,C8
246,39.522296,-81.447884,I- 77
185,39.432628,-81.490051,Flintwood Dr/Pebble Dr
160,39.541254,-81.637910,/Mill St
334,39.393801,-81.405010,Pike St/Tennis Center Dr
246,39.276859,-81.569217,5th St/Main St
185,39.278227,-81.576248,Campus Dr
160,39.360816,-81.548672,/Twp Rd 281/Robinson Hill Rd
160,39.277356,-81.675662,Carson Ln
185,39.617725,-81.458913,I- 77
160,39.360803,-81.547640,Twp Rd 281
418,39.416985,-81.442112,Ridge St
160,39.351747,-81.383906,/Newport Pike
305,39.409050,-81.463707,Fearing St
216,39.473355,-81.470880,Masonic Park Rd/Alden Ave
216,39.279109,-81.587780,Moody Ave/Knotts Ct
160,39.376175,-81.567787,T458
305,39.417937,-81.444461,Walker St
216,39.322859,-81.664729,Cross Rd/State Rte 339
605,39.417513,-81.434204,Vine St/Greene St
185,39.391776,-81.742142,Twp Rd 233/Burnett Rd
276,39.421949,-81.429853,Holly St/Grove St
1149,39.408768,-81.427986,S Durwood Hoas Dr
160,39.329604,-81.717644,Twp Rd 244/Sealy Ridge Rd
160,39.273856,-81.697763,State Rte 555
