Estimated daily crossings,Latitude,Longitude,Name
216,34.851749,-85.514867,Mountain View Rd/Jones Trl
216,34.879337,-85.503725,Bond Ave/Jacoway St
276,34.946240,-85.463627,Leisure Ln
445,34.865370,-85.495598,Williams St
160,34.917815,-85.568492,State Rte 301/Gross Dr
246,34.868506,-85.508409,Railway Ln/Price St
160,34.819530,-85.541689,I- 59
160,34.749492,-85.512842,Bluebird Dr
160,34.878883,-85.510632,Myrtle Cir/Wren Ave/John St
185,34.825452,-85.574339,State Rte 301
160,34.948279,-85.466269,Slygo Rd/Hill and Dale Dr
160,34.758872,-85.538452,I- 59
160,34.942536,-85.469833,Slygo Rd/Canyon Hills Dr
276,34.983706,-85.599831,Old Stage Rd
160,34.831784,-85.450520,Scenic Hwy
216,34.967641,-85.372601,Lookout Mountain Scenic Hwy/Scenic Hwy
246,34.905271,-85.461055,Creek Rd/Fagan St
246,34.862830,-85.497914,/Gulch Rd
605,34.861854,-85.516862,S Main St/Edgewood St
185,34.801519,-85.549823,I- 59
160,34.899445,-85.534956,/Wells Rd/Cloud Rd
216,34.910302,-85.477687,Massachusetts Ave/Vermont Ave
160,34.892479,-85.503505,Memorial Ln
710,34.957956,-85.379851,S Campus Rd/Scenic Hwy
216,34.786136,-85.542753,I- 59
160,34.816843,-85.538129,Byrds Chapel Ln
185,34.975361,-85.444237,Burrell Rd
160,34.888523,-85.551900,State Rte 301
246,34.864068,-85.506568,Jeffery Town Rd/Lafayette St/Sunset Dr
390,34.870739,-85.508883,Bond Ave/Crabtree St
390,34.970905,-85.443275,I- 24/I- 59
160,34.977336,-85.440210,Old Hooker Rd/Wildwood Dr
160,34.860442,-85.499441,Kristy Way/Cherokee Trl
276,34.714118,-85.553732,I- 59
160,34.976111,-85.448243,Burrell Rd
185,34.888869,-85.499156,Scenic Dr/N Main St
305,34.971955,-85.451988,/I- 24
185,34.923250,-85.481869,I- 59
1020,34.976589,-85.434408,Pinecrest Dr
305,34.713840,-85.553673,I- 59
185,34.980806,-85.364284,Wood Hollow Rd
185,34.864510,-85.506476,Sunset Dr
246,34.942575,-85.478015,Slygo Rd
185,34.896237,-85.560904,State Rte 301/Poplar Springs Rd
185,34.981873,-85.396235,/Birmingham Pike
160,34.760048,-85.531194,Steele Rd/US Hwy 11
276,34.890601,-85.498001,Clark St/N Main St
185,34.854452,-85.554208,State Rte 301/District Line Rd
160,34.878638,-85.510623,Case Cir/John St
160,34.900393,-85.582986,/Kirkpatrick Rd
276,34.920570,-85.414300,Moore Rd/Franks Rd
246,34.889128,-85.504050,Memorial Ln
185,34.895630,-85.463480,Julene Ln/Creek Rd
160,34.906109,-85.488434,Hicks Hollow Rd/Connecticut Ave
160,34.798999,-85.454827,State Rte 136 E/Jodi Ln
160,34.860334,-85.502448,/W Creek Dr
658,34.982961,-85.409182,I- 24
736,34.975955,-85.435161,/Jonquil Ln
160,34.911298,-85.418308,Lingerfelt Rd/Varnell Rd
276,34.869209,-85.508554,Holland St/Montague St
246,34.870392,-85.507982,Crabtree St/Montague St
334,34.855775,-85.514187,Wally Cir
160,34.955641,-85.385858,Wayside Ln/Scenic Hwy
160,34.979467,-85.431451,/State Rte 299
185,34.914484,-85.418990,Lingerfelt Rd/Griffin Rd
160,34.979489,-85.431364,State Rte 299/Silk Ln
390,34.853772,-85.517905,Sells Ln
472,34.976513,-85.433211,Slygo Rd
160,34.884803,-85.504593,Oriole Cir/Oriole Ave/N Poplar St
305,34.880660,-85.503018,N Industrial Blvd/Bond Ave
185,34.838421,-85.551481,Castle Dr/Back Valley Rd
185,34.982971,-85.466509,I- 24
160,34.738175,-85.511737,Mason Rd
276,34.872084,-85.510089,Church St/Main St
185,34.878982,-85.540914,State Rte 301/Wrights Dr
160,34.759017,-85.531286,Crimson Ln/US Hwy 11
216,34.863630,-85.489734,Shannon Ln
305,34.869383,-85.487964,McDonald Rd/Catfish Dr
160,34.897411,-85.492643,/US Hwy 11/N Main St
216,34.862897,-85.508818,Tinker Ave
246,34.855135,-85.513274,Wally Cir
305,34.950957,-85.461781,Summer Ln/Autumn Dr
334,34.955866,-85.384410,Martin Ln/Carter Dr
1329,34.864549,-85.516174,Johnson Cir/Forrest St
246,34.856680,-85.519491,Cedar Ln/Belle Dr
246,34.889069,-85.504027,Lake Hills Dr
216,34.888766,-85.503568,Lake Hills Dr/I- 59
276,34.864245,-85.513733,Pine Ave/Walnut Ave
160,34.936269,-85.457975,Morganville Ridge Rd
216,34.872846,-85.509998,Case Ave/Court St
160,34.979403,-85.437159,Beaver Trl
160,34.883661,-85.502523,Oriole Ave/N Main St
472,34.872133,-85.508098,Bond Ave/Court St
246,34.849638,-85.545277,Back Valley Rd/Young Rd
276,34.875057,-85.508754,3rd St/Case Ave
246,34.881128,-85.506680,Poplar St/Canary Ave
185,34.863765,-85.570764,Springlake Dr
160,34.853771,-85.515430,Mountain View Rd/Sells Ln
216,34.967656,-85.372902,Apollo Rd/Lookout Mountain Scenic Hwy/Jupiter Rd
185,34.872798,-85.518618,Pace Dr
445,34.967827,-85.431692,I- 24
246,34.871101,-85.519101,Pace Dr
160,34.861113,-85.495290,State Rte 136 E/Piney Rd
216,34.978395,-85.411294,/State Rte 299
579,34.872504,-85.509070,Main St/S Main St/Court St/N Main St
185,34.929389,-85.483984,I- 59
185,34.900481,-85.481687,Candy Ln/Maine Ave
334,34.865270,-85.494436,James St
185,34.861324,-85.515699,Pine Ave/Edgewood St
185,34.778350,-85.541427,I- 59
185,34.863849,-85.549711,State Rte 136/State Rte 301
216,34.909693,-85.476736,Maple Dr/Massachusetts Ave/New England Rd
160,34.857622,-85.509426,Lookout Cir
185,34.889332,-85.500186,Scenic Dr/Valley Dr
305,34.977339,-85.408104,Cooley Rd/State Rte 299
246,34.808963,-85.475826,State Rte 136 E/Lookout Mountain Scenic Hwy/Fawn Dawn Rd
160,34.921940,-85.570045,Holland Rd/State Rte 301
185,34.954918,-85.430439,/Birmingham Pike
334,34.887909,-85.504317,Memorial Ln/I- 59
160,34.870222,-85.506824,Sunset Dr
418,34.965037,-85.376265,Jupiter Rd
305,34.978206,-85.404198,Lifestyle Ln/Lakeside Dr
216,34.881493,-85.503917,N Main St
185,34.850303,-85.576077,/Smokey Clark Rd
216,34.904083,-85.487041,US Hwy 11
160,34.835778,-85.487993,Cloudland Canyon Park Rd
276,34.772202,-85.540550,Deer Head Cove Rd/I- 59
605,34.867855,-85.514804,Lafayette St/Killian Ave
160,34.862858,-85.489282,Gulch Rd
185,34.975812,-85.367068,State Rte 157
334,34.965248,-85.373431,Scenic Hwy
185,34.913432,-85.429996,Scenic Hwy/Wooten Rd
160,34.864519,-85.489487,Trinity Rd
160,34.843091,-85.549567,Back Valley Rd
160,34.903282,-85.461613,Creek Rd
216,34.865224,-85.493260,Piney Rd
216,34.912320,-85.479470,US Hwy 11
390,34.865588,-85.495598,Williams St/Carrie Ln
160,34.863777,-85.546312,State Rte 136
160,34.818532,-85.542609,I- 59
160,34.950283,-85.465788,Dvwy/Slygo Rd
216,34.979908,-85.400941,Rv Park
160,34.975838,-85.432295,Pineway Cir
160,34.954248,-85.545504,Walls Cir
216,34.866365,-85.488169,Gulch Rd
552,34.974066,-85.419870,/I- 24
160,34.937959,-85.396664,/Scenic Hwy
216,34.892836,-85.496573,/N Main St
362,34.864244,-85.507166,Jeffery Town Rd/Tinker Ave
418,34.872743,-85.509732,Main St/Court St
185,34.865500,-85.548417,Carrell Rd
160,34.913742,-85.423871,/Phillips Ln
160,34.854602,-85.573178,/District Line Rd
160,34.884307,-85.503623,Oriole Ave/Barton Ave
160,34.974899,-85.403404,Belk Rd
216,34.979146,-85.432868,State Rte 299/Hooker Cemetery Rd
160,34.858923,-85.491415,Blackstock Ln
246,34.886475,-85.502000,Barton Ave
276,34.971754,-85.370943,Diana Ln/Scenic Hwy
216,34.936487,-85.474832,Harris Rd
418,34.965635,-85.376145,/Jupiter Rd
160,34.906827,-85.489534,Hicks Hollow Rd/I- 59
160,34.762384,-85.536422,School St/
216,34.915667,-85.418332,Griffin Rd
160,34.874158,-85.511075,/1st St
160,34.759126,-85.538100,I- 59
160,34.965910,-85.377647,Frontier Bluff Rd
246,34.865988,-85.487917,Gulch Rd/Bell Cir
579,34.977657,-85.416714,I- 24
246,34.883299,-85.508241,Canary Ave
276,34.892641,-85.498545,/Ferguson St
216,34.978792,-85.431192,Silk Ln
216,34.873634,-85.507270,Bond St/2nd St
216,34.894527,-85.495349,/N Main St
160,34.862764,-85.562874,State Rte 136/Gass Rd
160,34.772281,-85.536548,US Hwy 11
605,34.982928,-85.408271,Persimmon Dr
160,34.855735,-85.507001,Bernice Dr/Sells Ln
246,34.980130,-85.406997,Peach Ln
185,34.786112,-85.542409,I- 59
185,34.981560,-85.396560,Birmingham Pike
710,34.958056,-85.380474,Covenant Ln
185,34.918565,-85.490321,Mountain Shadows Dr
305,34.858904,-85.518886,/S Main St
160,34.950619,-85.438820,Dvwy//Birmingham Pike
185,34.905713,-85.485543,Stephens Dr/US Hwy 11
160,34.858962,-85.532934,Tanglewood
246,34.866907,-85.504690,Glenview Dr/Glenbrook Dr
160,34.881995,-85.472010,Burkhalter Gap Rd/Creek Rd/Piney Rd
160,34.913171,-85.418315,Lingerfelt Dr/Lingerfelt Rd
185,34.886374,-85.506231,I- 59
185,34.833537,-85.481236,/Cloudland Canyon Park Rd
1226,34.864571,-85.516853,Forrest St
185,34.877191,-85.509705,May Ave/5th St
160,34.869056,-85.492587,Vice Cir/Piney Rd
160,34.855772,-85.507106,Sells Ln
246,34.921656,-85.415030,Moore Rd/Kathy Ln
160,34.900522,-85.488605,Harris St
334,34.871902,-85.512629,/Wolverine Dr
160,34.838873,-85.529378,US Hwy 11
1381,34.869607,-85.519127,Pace Dr/White Oak Gap Rd
185,34.840035,-85.532442,I- 59
160,34.813237,-85.542621,Byrds Chapel Rd
246,34.903556,-85.486607,Morgan Rd
472,34.866618,-85.517176,I- 59
658,34.863985,-85.494409,James St/Laura Ln
334,34.882264,-85.505355,Dove Ave/Barton Ave
160,34.883760,-85.508424,I- 59
160,34.947206,-85.462687,/Leisure Ln
160,34.801018,-85.549290,Woodwind Way
216,34.978073,-85.405459,Dvwy
246,34.872496,-85.515128,I- 59
246,34.769713,-85.538081,/Castleberry Ln
185,34.867857,-85.530584,State Rte 136/Back Valley Rd/White Oak Gap Rd
185,34.926137,-85.466006,US Hwy 11
160,34.819492,-85.542145,I- 59
160,34.979147,-85.395823,Dora Dr
216,34.903509,-85.487432,/US Hwy 11
216,34.869529,-85.491634,Vice Cir/Piney Rd
216,34.712786,-85.552697,Joe St
276,34.965346,-85.454259,I- 59
839,34.981481,-85.411297,I- 24
160,34.938300,-85.474936,Tripp Ln/Harris Rd
185,34.777041,-85.541409,/I- 59
216,34.862820,-85.500093,State Rte 136 E/Lookout Creek Rd
216,34.864173,-85.506538,Sunset Dr
216,34.873362,-85.535154,White Oak Gap Rd
185,34.858624,-85.495513,Heritage Trl
216,34.859709,-85.494100,State Rte 136 E/Cherokee Trl
160,34.855754,-85.507054,Sells Ln
246,34.860814,-85.514596,Edgewood St/Oak Ave
334,34.951154,-85.462300,Harley-Davidson Rd
216,34.867971,-85.510191,Ingles Dr
185,34.865324,-85.487545,Gulch Rd
160,34.858305,-85.539253,Forrest Cove Ln
160,34.963995,-85.378545,/Frontier Bluff Rd
185,34.861437,-85.549662,State Rte 301/Adkins Ln
216,34.977787,-85.404937,Dvwy
418,34.871820,-85.509453,Church St/Main St/S Main St
160,34.911089,-85.418200,Lingerfelt Rd/Varnell Rd
160,34.979079,-85.436363,Forest Cir
160,34.818551,-85.542992,I- 59
160,34.853758,-85.511897,Sells Ln
160,34.850796,-85.555221,/State Rte 301
160,34.891136,-85.503569,Memorial Ln
185,34.877933,-85.511576,Crabapple Ln/Myrtle Cir
185,34.979896,-85.422438,State Rte 299
216,34.887249,-85.500217,Scenic Dr/N Main St
216,34.861828,-85.560347,/State Rte 136
160,34.856178,-85.508906,Sells Ln
216,34.858368,-85.497983,Devlin Ln
472,34.869742,-85.520490,/White Oak Gap Rd
185,34.877648,-85.503073,S Industrial Blvd
216,34.861687,-85.554985,/State Rte 136
160,34.760048,-85.532076,Steele Rd/
185,34.873206,-85.538343,State Rte 301/Lawson Rd
160,34.879135,-85.506534,N Case Ave/Wren Ave
185,34.980819,-85.400701,Rv Park/Iris Ln
185,34.921257,-85.414698,Moore Rd/Franks Rd
160,34.764571,-85.522054,Newsome Gap Rd
185,34.942336,-85.470356,Morganville Ridge Rd/Slygo Rd
334,34.867520,-85.519326,/McKaig Rd
160,34.845819,-85.454687,Scenic Hwy
216,34.909209,-85.477143,New England Rd
160,34.877343,-85.537729,State Rte 301/Phillips Dr
216,34.772133,-85.542464,Deer Head Cove Rd
160,34.870798,-85.506670,Church St
185,34.914768,-85.420230,Griffin Rd
185,34.811257,-85.548050,Chapel Dr
160,34.859120,-85.521358,I- 59
160,34.772781,-85.536930,Deer Head Cove Rd/US Hwy 11
472,34.873237,-85.508641,1st St/N Main St
160,34.888497,-85.500744,Valley Dr
160,34.737694,-85.511922,/Mason Rd
216,34.861535,-85.519149,I- 59
1355,34.869595,-85.517779,Crimson Dr/White Oak Gap Rd
185,34.954943,-85.430356,/Birmingham Pike
160,34.860349,-85.572886,Carnation Dr
160,34.937684,-85.396877,Barnes Rd/Scenic Hwy
160,34.871712,-85.510650,School St/Crabtree St/Case Ave
390,34.868546,-85.525263,White Oak Gap Rd
185,34.892069,-85.467973,/Creek Rd
216,34.968133,-85.451316,/I- 59
185,34.888308,-85.502803,Lake Hills Dr/Scenic Dr
160,34.914649,-85.422206,Griffin Rd/Candyland Corner
160,34.867593,-85.546784,Carrell Rd
185,34.895157,-85.494756,Clark Lumber Rd/N Main St
216,34.977619,-85.401928,Birmingham Pike
216,34.960313,-85.376275,Scenic Hwy/Jupiter Rd
246,34.854389,-85.561596,Patton Ln/District Line Rd
276,34.861027,-85.512989,Walnut Ave
160,34.858800,-85.515969,Oak Ave
276,34.869751,-85.520878,/White Oak Gap Rd
216,34.775032,-85.541639,/I- 59
216,34.877532,-85.510619,5th St/John St
185,34.856092,-85.517990,Rosewood Dr
658,34.976643,-85.435037,Pinecrest Dr
1174,34.868733,-85.518119,Crimson Dr
160,34.733897,-85.536225,Cloverdale Rd
160,34.835623,-85.531390,Number Bridge Rd/US Hwy 11
160,34.876752,-85.555037,Porter Rd/Ponderosa Dr
185,34.843529,-85.526304,US Hwy 11
160,34.868760,-85.576872,Porter Rd
185,34.976591,-85.406944,State Rte 299
216,34.788346,-85.543518,I- 59
1046,34.863886,-85.516583,Johnson Cir
185,34.922729,-85.482598,Slygo Rd/
160,34.753329,-85.498245,Holder Loop Rd
276,34.862433,-85.510625,Poplar Ave
185,34.878214,-85.509218,5th St/Case Cir
160,34.857121,-85.519377,Belle Dr
160,34.860652,-85.490382,Jordan Ln/Tony Rd
216,34.884750,-85.501818,Morrison Ridge Rd/N Main St
160,34.842430,-85.565264,Rock Creek Rd
185,34.889833,-85.503775,Memorial Ln
160,34.964808,-85.415440,Birmingham Pike
160,34.982466,-85.458650,State Rte 299
185,34.981648,-85.403376,Dvwy
160,34.785507,-85.540863,/US Hwy 11
334,34.971771,-85.443796,I- 24/I- 59
160,34.864503,-85.491084,Trinity Rd
160,34.891723,-85.503541,Memorial Ln
185,34.973813,-85.440716,Wildwood Dr
246,34.936933,-85.474842,March Ln/Harris Rd
160,34.910841,-85.423817,Phillips Ln
216,34.858980,-85.493891,State Rte 136 E/Blackstock Ln
160,34.969420,-85.405364,Old Birmingham Hwy
185,34.767008,-85.533333,/US Hwy 11
160,34.922890,-85.482979,Slygo Rd
185,34.914538,-85.419214,Valentine Dr/Griffin Rd
276,34.880718,-85.505637,N Case Ave/Canary Ave
185,34.863117,-85.563835,State Rte 136
276,34.862816,-85.495748,Gulch Rd/Williams St
160,34.876817,-85.511858,May Ave
216,34.876099,-85.509243,Poplar Ave/4th St
160,34.868668,-85.493009,Piney Rd
216,34.778115,-85.541744,I- 59
160,34.946962,-85.462730,/Leisure Ln/Pleasant Dr
185,34.735689,-85.538073,Cove Rd/I- 59
160,34.879684,-85.507893,Wren Ave
185,34.953571,-85.463664,I- 59/Co Hwy 144
631,34.982294,-85.408355,Persimmon Dr
160,34.967457,-85.410093,Birmingham Pike
185,34.857028,-85.533884,/Tanglewood/N Wood Ln
216,34.876664,-85.510621,May Ave/John St
658,34.869586,-85.516748,/White Oak Gap Rd
185,34.877294,-85.506303,N Main St
216,34.942578,-85.477708,/Slygo Rd
216,34.949080,-85.468702,I- 59
160,34.772567,-85.543025,/Hatfield Rd
305,34.772204,-85.540159,Deer Head Cove Rd/I- 59
185,34.836290,-85.534610,McKaig Rd
160,34.980545,-85.400121,Iris Ln
418,34.875071,-85.507600,N Main St
445,34.910314,-85.411924,Alexander Way
160,34.911685,-85.422912,Valentine Dr
160,34.942405,-85.474501,Slygo Rd/
160,34.927531,-85.587049,Reeves Rd
216,34.929224,-85.483592,I- 59
160,34.982929,-85.427101,Pope Trl
160,34.855819,-85.510012,Sells Ln
160,34.882693,-85.503150,N Main St
160,34.906692,-85.489297,Hicks Hollow Rd/I- 59
160,34.942339,-85.473691,Slygo Rd/Harris Rd
390,34.867016,-85.512937,Hwy 136/Lafayette St
216,34.882473,-85.505910,Poplar St/Dove Ave/N Poplar St
246,34.864611,-85.493260,Trinity Rd/Piney Rd
185,34.856543,-85.515064,Melissa Cir/Rosewood Dr
891,34.961481,-85.375933,Scenic Hwy
246,34.977043,-85.407611,State Rte 299
185,34.875837,-85.537742,/State Rte 301
216,34.869349,-85.492035,/Piney Rd
185,34.801601,-85.550118,I- 59
216,34.878545,-85.505605,S Industrial Blvd/N Main St
185,34.914115,-85.418363,/Lingerfelt Rd
216,34.872351,-85.512462,School St/Wolverine Dr
246,34.811660,-85.546925,I- 59
185,34.940701,-85.477546,I- 59
684,34.974393,-85.419206,/I- 24
216,34.923154,-85.482166,I- 59
246,34.886897,-85.505330,I- 59
160,34.757569,-85.531431,US Hwy 11
246,34.873979,-85.508229,2nd St/N Main St
246,34.856166,-85.519497,Cedar Ln/Rosewood Dr
246,34.863395,-85.505437,/Lafayette St
185,34.774625,-85.542054,Hatfield Rd
160,34.979105,-85.455171,/State Rte 299
160,34.871164,-85.507553,Church St/Montague St
246,34.916533,-85.418304,Mystery Way/Griffin Rd
160,34.972764,-85.444567,Burrell Rd
246,34.922725,-85.411822,Bailey Rd/Scenic Hwy
160,34.906935,-85.436765,Powell Rd/Scenic Hwy
160,34.870903,-85.506945,Railway Ln/Church St
185,34.878449,-85.509823,Case Cir
160,34.960237,-85.457351,Ramey Hedges Acc
160,34.853058,-85.523965,Brown Dr
418,34.977489,-85.415995,/State Rte 299
216,34.888579,-85.503749,I- 59
160,34.860792,-85.525802,Ashton Ln
160,34.911318,-85.479191,Massachusetts Ave
160,34.922302,-85.481589,Slygo Rd/I- 59
1174,34.868683,-85.514078,W Pace St/Killian Ave
684,34.979394,-85.415176,I- 24
839,34.869458,-85.511128,Price St/S Main St
160,34.851847,-85.554883,/State Rte 301
160,34.867465,-85.493232,/Piney Rd
185,34.869231,-85.537445,State Rte 136
865,34.981555,-85.411703,I- 24
160,34.913269,-85.414850,Lingerfelt Dr
160,34.787716,-85.520356,/Sunset Dr
185,34.872467,-85.512747,School St
185,34.912109,-85.568492,Hill Top Ln
499,34.894982,-85.498584,I- 59
246,34.889092,-85.504063,Lake Hills Dr/Memorial Ln
160,34.880276,-85.501710,N Industrial Blvd
185,34.975018,-85.403618,Belk Rd/Birmingham Pike
579,34.977782,-85.416994,I- 24
216,34.857949,-85.519474,Cedar Ln/S Main St/US Hwy 11
891,34.963185,-85.376583,Jupiter Rd
305,34.862803,-85.493338,Gulch Rd/Piney Rd
418,34.867645,-85.527917,Page Ave/White Oak Gap Rd
891,34.864571,-85.515046,S Main St/Forrest St
276,34.875204,-85.537866,State Rte 301/Pinoak Rd
216,34.856058,-85.517295,Malenda Dr/Rosewood Dr
246,34.887911,-85.504693,/I- 59
216,34.867943,-85.531356,Pinewood Dr/State Rte 136
185,34.945119,-85.394065,York Rd
216,34.887250,-85.501546,Scenic Dr/Barton Ave
160,34.942693,-85.483743,Slygo Rd/Hales Gap Rd
499,34.970282,-85.441055,Slygo Rd/I- 24
246,34.864580,-85.507862,Pullen Ave/Jeffery Town Rd
246,34.867203,-85.508377,Sunset Dr
160,34.872975,-85.479260,/Piney Rd
160,34.849352,-85.571564,Bible Camp Rd
216,34.979170,-85.432626,Oak Shadow Dr/State Rte 299
160,34.909056,-85.561306,/State Rte 301
160,34.864670,-85.529084,Page Ave
334,34.982973,-85.463470,I- 24
160,34.980446,-85.399853,Iris Ln
216,34.862826,-85.500550,State Rte 136 E
216,34.887240,-85.502672,/Scenic Dr
390,34.977511,-85.415826,State Rte 299
526,34.869105,-85.509788,Bond Ave/Price St
216,34.892089,-85.497068,Ferguson St/N Main St
216,34.978205,-85.418524,/State Rte 299
390,34.867551,-85.516844,I- 59
216,34.884848,-85.501752,/N Main St
185,34.777869,-85.542076,Hatfield Rd
160,34.834652,-85.553133,Back Valley Rd/Daniels Rd
160,34.858278,-85.539288,Meadowbrook Ln
160,34.964001,-85.416911,/Birmingham Pike
160,34.955191,-85.429453,Birmingham Pike
160,34.806454,-85.543985,US Hwy 11
216,34.862540,-85.549667,State Rte 301
362,34.965212,-85.410399,/Old Birmingham Hwy
185,34.953708,-85.463929,I- 59/Dugan Loop Rd/Co Hwy 144
185,34.735704,-85.537789,I- 59
160,34.853772,-85.512311,Beth Ln/Sells Ln
185,34.812724,-85.540596,Byrds Chapel Rd/Byrds Chapel Ln
160,34.951508,-85.432878,Primrose Dr
362,34.867137,-85.513216,S Main St/Lafayette St
160,34.950005,-85.463399,Dvwy
185,34.861944,-85.496499,State Rte 136 E
216,34.944235,-85.474509,I- 59
160,34.943032,-85.468011,Canyon Hills Dr
185,34.857866,-85.538650,Meadowbrook Ln
160,34.915160,-85.564274,/State Rte 301
390,34.863991,-85.495601,Laura Ln/Williams St
1329,34.868719,-85.511822,Ingles Dr/S Main St/White Oak Gap Rd
160,34.840480,-85.483345,/Cloudland Canyon Park Rd
305,34.952910,-85.462341,Slygo Rd
160,34.917747,-85.423986,Scenic Hwy/Hickory Ln
185,34.928948,-85.412422,Brow Lake Rd
631,34.864645,-85.514677,Walnut Ave
246,34.881700,-85.508186,Canary Ave
160,34.902118,-85.481617,Morgan Rd/Maine Ave
246,34.917030,-85.418311,Ollie Veal Rd/Griffin Rd
185,34.862829,-85.500819,State Rte 136 E
185,34.913240,-85.478801,/US Hwy 11
160,34.936078,-85.457585,Morganville Ridge Rd/Morganville Loop
418,34.871104,-85.509851,Crabtree St/S Main St
246,34.888831,-85.503892,I- 59
160,34.881972,-85.503617,Dove Ave/N Main St
160,34.758186,-85.530235,Lambert Ln
246,34.883198,-85.508500,/Canary Ave
418,34.895270,-85.498738,I- 59
246,34.836884,-85.530589,US Hwy 11
185,34.967596,-85.373151,Lookout Mountain Scenic Hwy/Frontier Bluff Rd/Jupiter Rd
185,34.860188,-85.516459,Pine Ave
160,34.801327,-85.550157,Byrds Chapel Dr/I- 59
160,34.858382,-85.539817,Back Valley Rd/Meadowbrook Ln
160,34.874030,-85.510751,1st St/John St
160,34.869305,-85.486140,Catfish Dr
276,34.970253,-85.449046,I- 59
160,34.757171,-85.531457,Lambert Ln/US Hwy 11
813,34.868114,-85.515414,Lafayette St
216,34.858669,-85.513115,Poplar Ave
943,34.962621,-85.374869,Scenic Hwy
418,34.981898,-85.407680,Lakeside Dr/Persimmon Dr
276,34.956097,-85.383715,Krupski Loop/Carter Dr
160,34.944786,-85.393978,Arvle York Cir/York Rd
160,34.803221,-85.545840,Evergreen Dr/US Hwy 11
185,34.876172,-85.506946,5th St/N Main St
216,34.957566,-85.454911,Slygo Rd/Ramey Hedges Acc
160,34.857577,-85.506202,Bernice Dr
185,34.892171,-85.568521,Poplar Springs Rd
160,34.927550,-85.586422,State Rte 301
160,34.876627,-85.508166,5th St
334,34.945420,-85.471936,/I- 59
160,34.834543,-85.553837,Woodmont Pl
216,34.856188,-85.512801,Poplar Ave/Wally Cir/Rosewood Dr
246,34.875479,-85.506211,Georgia Ave/Bond St
276,34.967825,-85.409193,/Birmingham Pike
305,34.955299,-85.384333,Martin Ln
472,34.895435,-85.498624,I- 59
160,34.890716,-85.542676,Wells Rd/Winding Ln
160,34.966416,-85.416780,Belree Rd/Wawona Dr
246,34.976617,-85.410521,Cooley Rd
185,34.855081,-85.530122,Whispering Pine/Ivey Ln
684,34.909876,-85.410878,Moore Rd
246,34.921674,-85.411789,Bailey Rd/
276,34.866541,-85.519657,/McKaig Rd
390,34.977653,-85.415139,State Rte 299
160,34.847838,-85.451344,Stewart Ln
160,34.915980,-85.425865,Griffin Rd/Scenic Hwy
216,34.921842,-85.413261,Franks Rd
390,34.870182,-85.513268,Wolverine Dr/Smith St
216,34.779436,-85.542180,Old Deer Head Cove Rd/Hatfield Rd
160,34.979940,-85.423128,/State Rte 299
185,34.979993,-85.406283,Peach Ln
891,34.976154,-85.435040,Jonquil Ln/Pinecrest Dr
160,34.900719,-85.582942,Kirkpatrick Rd/Worley Chapel Rd
160,34.863822,-85.491085,Vine Ln
362,34.860317,-85.513456,Edgewood St/Walnut Ave
160,34.825993,-85.534733,US Hwy 11
160,34.863224,-85.547541,Adkins Ln
246,34.863522,-85.508768,Pullen Ave
216,34.893908,-85.495838,N Main St
185,34.870153,-85.507397,Railway Ln/Crabtree St
160,34.786286,-85.543820,Hatfield Rd
276,34.879713,-85.504979,Jacoway St/N Main St
160,34.818038,-85.494875,State Rte 136 E/Daniel Creek Dr
185,34.869831,-85.537450,State Rte 136/White Oak Gap Rd
246,34.903807,-85.487096,Morgan Rd/Hogan Rd
305,34.882074,-85.504890,N Case Ave/Dove Ave
160,34.827230,-85.536516,I- 59
631,34.982955,-85.409565,I- 24
216,34.975594,-85.436274,Jonquil Ln
276,34.852246,-85.512774,Beth Ln
160,34.863982,-85.547200,State Rte 136
160,34.871616,-85.463787,Scenic Hwy
160,34.873380,-85.482271,Piney Rd
246,34.858551,-85.514662,Walnut Ave
160,34.980294,-85.436586,/Forest Cir
276,34.950735,-85.460595,Autumn Dr
216,34.847868,-85.524032,Freeman Park Rd/US Hwy 11
246,34.868976,-85.524283,White Oak Gap Rd
216,34.915529,-85.421854,Spearmint Trl
160,34.977501,-85.440216,State Rte 299/Wildwood Dr
185,34.867530,-85.505517,Cedar Breeze
160,34.823702,-85.576091,/State Rte 301
216,34.858268,-85.519288,S Main St
276,34.976689,-85.408152,/Cooley Rd
185,34.881527,-85.507707,Canary Ave/N Pine St
1329,34.869612,-85.519237,McKaig Rd/White Oak Gap Rd
160,34.980733,-85.399468,Iris Ln
160,34.691995,-85.541320,/Cloverdale Rd
160,34.979825,-85.436887,Forest Cir
1149,34.962073,-85.376654,Jupiter Rd
185,34.873589,-85.509597,1st St/Case Ave
276,34.920272,-85.414236,/Moore Rd/Dogwood Rd
185,34.927097,-85.484004,/Slygo Rd
305,34.892733,-85.498812,Ferguson St
160,34.857123,-85.519465,Cedar Ln/Belle Dr
216,34.852101,-85.530448,Lake Dr
362,34.880999,-85.504130,N Industrial Blvd
216,34.865464,-85.509377,Hwy 136
305,34.883391,-85.508785,I- 59
160,34.889570,-85.509993,Lake Hills Pl
160,34.856790,-85.517503,Malenda Dr
160,34.865354,-85.574732,State Rte 136
305,34.852972,-85.521893,Brown Dr/US Hwy 11
160,34.862846,-85.503740,Lafayette St
160,34.822708,-85.563496,Byrds Chapel Rd
246,34.860910,-85.517545,S Main St
185,34.938223,-85.452441,Birmingham Pike/US Hwy 11
185,34.945923,-85.395053,York Rd/Scenic Hwy
185,34.855468,-85.536810,Whispering Pine/Meadowbrook Ln
631,34.979281,-85.414846,I- 24
216,34.963287,-85.411302,Pope Creek Rd/Old Birmingham Hwy
160,34.971339,-85.405086,Birmingham Pike/Old Birmingham Hwy
334,34.880335,-85.504620,Canary Ave/N Main St
160,34.909290,-85.484167,Lee St
160,34.759877,-85.492852,Holder Loop Rd
216,34.886351,-85.547846,State Rte 301/Davis School Rd
160,34.977556,-85.366000,Scenic Hwy/Wood Hollow Rd
216,34.864897,-85.548311,/State Rte 301
362,34.863743,-85.512633,Oak Wood Ave/Walnut Ave/Oak Ave
216,34.865028,-85.506657,Glenview Dr/Sunset Dr
445,34.975537,-85.454497,I- 24/
216,34.904798,-85.486451,Hicks Hollow Rd/US Hwy 11
499,34.970337,-85.440924,Slygo Rd
736,34.869586,-85.515820,I- 59/White Oak Gap Rd
216,34.862846,-85.491088,Gulch Rd/Vine Ln
160,34.979588,-85.420133,Chambers Rd/State Rte 299
160,34.937674,-85.476252,March Ln
362,34.863785,-85.512605,Oak Wood Ave
160,34.979885,-85.436914,Forest Cir
160,34.870775,-85.506611,Church St
160,34.863216,-85.509525,Gentry Ave
160,34.758854,-85.531304,/US Hwy 11
246,34.871111,-85.512923,Wolverine Dr
216,34.888640,-85.509279,Lake Hills Trl
216,34.860525,-85.514793,Oak Ave
160,34.836680,-85.448662,Stone Creek Rd
246,34.889476,-85.504674,Lake Hills Dr/Lake Hills Ln
160,34.860407,-85.502239,/W Creek Dr
160,34.910303,-85.561480,Hartline Rd/State Rte 301/Saddle Club Rd
185,34.977495,-85.405313,Dvwy
305,34.921601,-85.414407,Franks Rd
160,34.959476,-85.378965,Covenant Ln
246,34.866352,-85.519750,McKaig Rd/Middleton Cir
185,34.866892,-85.493235,/Piney Rd
185,34.865407,-85.548516,Lyman Daniel Rd/Carrell Rd
216,34.811661,-85.547269,I- 59
917,34.963875,-85.376508,Jupiter Rd
185,34.836266,-85.533865,I- 59
813,34.864753,-85.514933,S Main St/Walnut Ave
160,34.863969,-85.529003,Page Ave
160,34.901861,-85.422804,Charlotte Dr
185,34.862834,-85.498602,State Rte 136 E/Gulch Rd
1459,34.869411,-85.513516,Hwy 136 W/Wolverine Dr/Killian Ave/White Oak Gap Rd
216,34.772232,-85.538946,/Deer Head Cove Rd
246,34.888109,-85.504489,Memorial Ln/I- 59
160,34.771811,-85.549008,Deer Head Cove Rd
526,34.895050,-85.498535,I- 59
216,34.904034,-85.487081,Pee Wee St/US Hwy 11
160,34.976771,-85.440175,Wildwood Dr/Pinecrest Dr
185,34.967218,-85.408912,Old Birmingham Hwy
160,34.885158,-85.501555,/N Main St
160,34.874954,-85.504768,Ga Ave/Georgia Ave
185,34.734964,-85.537812,I- 59
246,34.858331,-85.519248,S Main St
160,34.878083,-85.504360,Bond Ave/S Industrial Blvd
276,34.965434,-85.452955,I- 59
160,34.920769,-85.412163,Bailey Rd
418,34.970396,-85.443736,Haswell Ln
160,34.840688,-85.483504,Cloudland Canyon Park Rd
216,34.952980,-85.459985,Dvwy/Slygo Rd
160,34.785982,-85.540851,US Hwy 11
185,34.865647,-85.520277,McKaig Rd
160,34.979494,-85.405436,Persimmon Dr/Peach Ln
160,34.892655,-85.503506,Memorial Ln
160,34.964750,-85.415550,Birmingham Pike
499,34.971091,-85.445752,I- 24
185,34.866100,-85.511263,Oak Wood Ave
160,34.957029,-85.384131,Maggie Bluff
185,34.979801,-85.404831,Dvwy/Lakeside Dr
160,34.918732,-85.413739,Meadow Pond Run/Moore Rd
390,34.894863,-85.499019,I- 59
185,34.836217,-85.534222,I- 59
418,34.867614,-85.516473,/I- 59
710,34.869590,-85.516144,I- 59/White Oak Gap Rd
160,34.904785,-85.462859,Fagan St
185,34.871948,-85.511355,School St
445,34.867168,-85.515381,Killian Ave
216,34.861303,-85.511378,Poplar Ave
160,34.877249,-85.537559,State Rte 301/Brow Rd
185,34.956594,-85.456647,Slygo Rd/Ramey Hedges Acc
246,34.984584,-85.599708,Old Stage Rd
276,34.915332,-85.423908,Phillips Ln/Griffin Rd
185,34.968403,-85.418179,Belree Rd/Oak Ln
160,34.874316,-85.509174,Case Ave/2nd St
160,34.869370,-85.507266,/Sunset Dr
418,34.968990,-85.439040,I- 24
160,34.859438,-85.549482,Crisp Ln
216,34.942574,-85.476429,Slygo Rd/I- 59
185,34.735804,-85.537790,I- 59
160,34.786044,-85.540850,/US Hwy 11
390,34.861758,-85.516652,Edgewood St
216,34.837009,-85.533991,I- 59
305,34.863989,-85.493260,Laura Ln/Piney Rd
160,34.874892,-85.510685,John St/2nd St
445,34.870496,-85.510251,S Main St
216,34.864658,-85.508025,Jeffery Town Rd/Gentry Ave
160,34.866258,-85.511188,Oak Wood Ave/Hwy 136
160,34.903166,-85.487670,/US Hwy 11
185,34.976691,-85.401294,/Guinn Rd
185,34.875505,-85.513750,I- 59
216,34.978275,-85.406690,Peach Ln
736,34.977469,-85.416900,I- 24/State Rte 299
185,34.872341,-85.515188,/I- 59
246,34.864781,-85.507912,Gentry Ave/Lafayette St/Hwy 136
160,34.758504,-85.531324,Lambert Ln/US Hwy 11
185,34.896149,-85.561065,Poplar Springs Rd
160,34.856407,-85.523803,I- 59
418,34.970575,-85.440359,I- 24/Slygo Rd
185,34.878680,-85.540423,Pearl Ln/State Rte 301
362,34.862696,-85.518279,I- 59
334,34.922541,-85.415306,Moore Rd/Scenic Hwy
160,34.762372,-85.536351,School St
185,34.922472,-85.481987,Slygo Rd/I- 59
185,34.854336,-85.525384,I- 59
160,34.869886,-85.490937,Piney Rd
160,34.801283,-85.549855,Byrds Chapel Dr/I- 59
160,34.858735,-85.568956,Gass Rd/Denvil Dr
710,34.869614,-85.512007,Smith St
216,34.914829,-85.413059,Meadow Pond Run/Moore Rd
160,34.945476,-85.481645,Red Moore Rd/Co Hwy 144
160,34.734190,-85.536923,Cloverdale Rd/US Hwy 11
160,34.723398,-85.546474,I- 59
160,34.860554,-85.524148,Ashton Ln/McKaig Rd
160,34.977158,-85.441566,State Rte 299/Old Hooker
160,34.858562,-85.538039,N Wood Ln
185,34.929729,-85.591378,State Rte 301/Smith Rd
246,34.866217,-85.505344,/Glenview Dr
276,34.874826,-85.513154,1st St
762,34.863494,-85.515767,Johnson Cir/S Main St
160,34.753601,-85.498374,Holder Loop Rd/Cave Springs Rd
160,34.877908,-85.512279,Crabapple Ln
160,34.822244,-85.536055,US Hwy 11
216,34.879070,-85.503031,Jacoway St
160,34.984583,-85.597855,Nickajack Rd
185,34.967455,-85.374162,Frontier Bluff Rd
216,34.886372,-85.505858,I- 59
305,34.821293,-85.563379,Byrds Chapel Rd/Chapel Dr
160,34.970137,-85.404720,Dakota Dr/Old Birmingham Hwy
185,34.875395,-85.509625,Poplar Ave/3rd St
160,34.942084,-85.483737,Slygo Rd
185,34.887248,-85.501783,Scenic Dr/Valley Dr
160,34.838783,-85.565641,Rock Creek Rd/Michaels Rd
246,34.980023,-85.403396,Dvwy
362,34.870309,-85.510389,S Main St
160,34.936461,-85.483287,I- 59
160,34.979785,-85.398770,Birmingham Pike
160,34.977384,-85.440650,State Rte 299/Old Hooker Rd
160,34.862860,-85.489871,Gulch Rd/Shannon Ln
160,34.874658,-85.510048,Poplar Ave/2nd St
185,34.869370,-85.537754,State Rte 136
276,34.859866,-85.512376,Poplar Ave/Edgewood St
216,34.768996,-85.538975,/I- 59
160,34.886063,-85.546620,/State Rte 301
216,34.872092,-85.514926,/I- 59
160,34.964900,-85.420324,Wawona Dr/Lea Rd
736,34.977447,-85.417304,/I- 24
160,34.733864,-85.536149,/Cloverdale Rd
246,34.888515,-85.504839,/Memorial Ln
276,34.971879,-85.370898,Apollo Rd/Scenic Hwy
160,34.860449,-85.503891,W Creek Dr
334,34.971192,-85.447483,I- 24/I- 59
788,34.869332,-85.510649,Price St
160,34.967321,-85.416704,Belree Rd/Oak Ln
334,34.868713,-85.508836,Price St/Montague St
246,34.887752,-85.504474,/I- 59
160,34.869231,-85.485678,Catfish Dr
246,34.967282,-85.372853,/Lookout Mountain Scenic Hwy/Scenic Hwy
246,34.865152,-85.493261,Cawthon Rd/Piney Rd
160,34.879549,-85.507558,Poplar St/Wren Ave
160,34.865185,-85.527845,Page Ave
160,34.947937,-85.466277,Slygo Rd
185,34.859218,-85.498180,Acorn Dr
216,34.886808,-85.505795,I- 59
160,34.806712,-85.482009,Gray Rd/Zelpha Ln
813,34.869561,-85.515165,/Hwy 136 W/White Oak Gap Rd
736,34.977380,-85.416931,/I- 24
891,34.867936,-85.512506,S Main St/W Pace St
246,34.888920,-85.503800,Lake Hills Dr/I- 59
160,34.808828,-85.542037,US Hwy 11
160,34.855885,-85.506928,Bernice Dr
216,34.860564,-85.520037,I- 59
160,34.862838,-85.501567,State Rte 136 E/Sells Ln
160,34.974958,-85.417513,Dvwy
246,34.867413,-85.502455,Glenview Dr/Glenwood Dr
246,34.865800,-85.488466,Bell Cir
160,34.855630,-85.510174,Sells Ln/Lookout Cir
160,34.873710,-85.534863,/White Oak Gap Rd
276,34.865147,-85.508667,/Lafayette St/Hwy 136
631,34.976198,-85.433482,Slygo Rd/
160,34.908082,-85.483349,Lee St/US Hwy 11
185,34.899825,-85.487768,Swift Ln
160,34.759793,-85.530871,Kenimer Ln
445,34.874697,-85.507813,3rd St/N Main St
185,34.889672,-85.503852,Memorial Ln
160,34.969280,-85.443377,Slygo Rd/Haswell Ln
160,34.873926,-85.510479,Poplar Ave/1st St
185,34.946258,-85.394781,Arvle York Cir/Scenic Hwy
160,34.850697,-85.522845,US Hwy 11
160,34.868901,-85.503507,Glenview Dr
160,34.888802,-85.552122,State Rte 301
160,34.875816,-85.507172,Georgia Ave/N Main St
276,34.862826,-85.492118,Gulch Rd/Lynch Ln
160,34.983020,-85.599807,Old Stage Rd
160,34.978563,-85.445711,Hunt Ln
362,34.963994,-85.410927,Old Birmingham Hwy
1589,34.962473,-85.375191,Scenic Hwy
246,34.929733,-85.484083,I- 59
160,34.855664,-85.456109,Durham Rd/Scenic Hwy
216,34.861653,-85.496074,State Rte 136 E
160,34.964568,-85.415874,Wawona Dr/Birmingham Pike
160,34.883651,-85.541715,Frank Gass Rd/State Rte 301
185,34.906945,-85.487724,Stephens Dr
305,34.877570,-85.502841,/S Industrial Blvd
246,34.980762,-85.401042,Tranquil Ln/Lifestyle Ln/Iris Ln
216,34.772124,-85.543104,Hatfield Rd/Deer Head Cove Rd
246,34.942518,-85.475440,Slygo Rd/I- 59
216,34.788355,-85.543871,I- 59
160,34.906056,-85.460476,/Creek Rd
216,34.878731,-85.505490,Wren Ave/N Main St
305,34.978376,-85.432146,Oak Shadow Dr
185,34.864721,-85.549180,State Rte 301/Carrell Rd
185,34.863585,-85.492032,Lynch Ln
185,34.949543,-85.459922,Summer Ln
160,34.942341,-85.473420,Durham Rd/Slygo Rd
185,34.949628,-85.439921,Birmingham Pike
246,34.871503,-85.519094,/Pace Dr
216,34.840852,-85.528112,US Hwy 11
160,34.927717,-85.587043,Reeves Rd/State Rte 301/Holder Rd
216,34.956786,-85.461419,I- 59
246,34.859104,-85.498157,Heritage Trl/Acorn Dr
185,34.838021,-85.551592,Back Valley Rd
160,34.875887,-85.508693,4th St
160,34.854444,-85.526313,I- 59
658,34.979530,-85.415748,State Rte 299
160,34.951467,-85.437892,Birmingham Pike
216,34.875661,-85.536060,Pinoak Rd
216,34.872862,-85.507706,Bond Ave/1st St/Bond St
552,34.958168,-85.379187,Covenant Ln/Scenic Hwy
160,34.955800,-85.424283,Creek Rd
185,34.875124,-85.505306,Georgia Ave/Montague St
160,34.982999,-85.459194,State Rte 299
276,34.978249,-85.404901,Dvwy/Persimmon Dr
185,34.916135,-85.418312,/Griffin Rd
160,34.921470,-85.569753,State Rte 301
1719,34.962632,-85.375510,Jupiter Rd
160,34.884208,-85.503451,Oriole Ave/Barton Ave
276,34.860575,-85.514049,Edgewood St
216,34.954682,-85.459539,Slygo Rd
185,34.837799,-85.551663,Back Valley Rd/Daniels Rd
185,34.861549,-85.555407,State Rte 136
472,34.968158,-85.431347,I- 24
390,34.964754,-85.410593,Old Birmingham Hwy
160,34.951114,-85.464833,Slygo Rd/Autumn Dr
160,34.976965,-85.404939,Dvwy/Lakeside Dr/Persimmon Dr
216,34.877928,-85.510635,Crabapple Ln/John St
185,34.841795,-85.577240,Workman Rd/Workman Dr
276,34.864147,-85.506709,Hwy 136/Lafayette St
185,34.956268,-85.384639,Martin Ln/Scenic Hwy
185,34.952854,-85.462598,Slygo Rd/Co Hwy 144
160,34.827553,-85.536728,I- 59
160,34.885053,-85.544325,State Rte 301/Wells Rd
185,34.934947,-85.454401,Morganville Ridge Rd/US Hwy 11
276,34.975083,-85.455456,I- 24/
216,34.956560,-85.383872,Scenic Hwy/Maggie Bluff
160,34.979816,-85.436948,Beaver Trl
185,34.831508,-85.532515,Daniels Rd/US Hwy 11
160,34.876686,-85.508325,/5th St
160,34.903817,-85.438163,Scenic Hwy
418,34.952952,-85.460867,Slygo Rd/Harley-Davidson Rd
605,34.895430,-85.498261,I- 59
185,34.909125,-85.478721,New England Rd/Vermont Ave
276,34.887793,-85.502937,Scenic Dr
160,34.867568,-85.486778,McDonald Rd
160,34.880311,-85.501828,N Industrial Blvd
185,34.856445,-85.514085,Wally Cir/Rosewood Dr
160,34.855733,-85.529751,Ivey Ln
185,34.864401,-85.528418,Page Ave
160,34.978938,-85.433782,Slygo Rd/State Rte 299
160,34.872190,-85.510373,Church St/Case Ave
160,34.843564,-85.560687,Brown Gap Cemetery Rd/State Rte 301
185,34.838399,-85.550404,Castle Dr
160,34.692996,-85.540625,Miller Dr/Cloverdale Rd
160,34.759251,-85.531263,US Hwy 11
276,34.916701,-85.422379,Hickory Ln
216,34.874535,-85.512156,1st St/Wolverine Dr
185,34.856657,-85.518411,Belle Dr
216,34.918143,-85.491259,Mountain Shadows Dr
185,34.892017,-85.568700,/Poplar Springs Rd
185,34.871382,-85.539747,/State Rte 301
246,34.861027,-85.520188,I- 59
276,34.862074,-85.494110,Jackson St/Piney Rd
160,34.929840,-85.404498,Scenic Hwy/Pleasant Hill Rd
160,34.915449,-85.426469,Craig Rd/Scenic Hwy
185,34.867812,-85.504113,Glenview Dr/Glenwood Dr
160,34.967092,-85.444471,Winter Ln
160,34.909722,-85.431868,Stevens Rd
185,34.856987,-85.519473,Cedar Ln
246,34.858633,-85.519057,S Main St
246,34.866870,-85.508437,Sunset Dr
185,34.864499,-85.570520,State Rte 136/Springlake Dr
160,34.974790,-85.403728,State Rte 299/Birmingham Pike
276,34.853773,-85.519228,Sells Ln/Cedar Ln
216,34.861478,-85.485060,Canyon Park Dr/Canyon Park Trl
160,34.867341,-85.504395,Glenview Dr/Cedar Breeze
160,34.865141,-85.487494,Gulch Rd/Cawthon Rd
390,34.867634,-85.528332,White Oak Gap Rd
216,34.951512,-85.466420,/Ty Ln
216,34.860843,-85.511685,Poplar Ave/Hickory St
160,34.775596,-85.538806,/US Hwy 11
246,34.903862,-85.487200,Hogan Rd/US Hwy 11
160,34.900709,-85.582362,/Worley Chapel Rd
160,34.723304,-85.546233,I- 59
246,34.886182,-85.500900,N Main St
185,34.857105,-85.518572,Belle Dr
185,34.938023,-85.452555,/US Hwy 11
160,34.795062,-85.543622,US Hwy 11/Hollyhill Hollow
160,34.785962,-85.543810,/Hatfield Rd
160,34.775267,-85.538614,/US Hwy 11
160,34.922918,-85.449969,Sarah Chapel Rd/Creek Rd
276,34.772143,-85.541802,Deer Head Cove Rd
216,34.871495,-85.508463,Bond Ave/Church St
216,34.867014,-85.508639,Sunset Dr
160,34.905015,-85.489280,Connecticut Ave
160,34.863028,-85.551124,/State Rte 136
160,34.831067,-85.541427,Gass Ln
160,34.887993,-85.501798,Valley Dr
185,34.908536,-85.477759,New England Rd/Maine Ave
185,34.900094,-85.534528,Casey Rd/Wells Rd
160,34.862830,-85.499023,State Rte 136 E/Cherokee Trl
160,34.942437,-85.470030,Slygo Rd
160,34.759785,-85.531214,US Hwy 11
736,34.977531,-85.417227,I- 24/State Rte 299
185,34.877678,-85.503160,S Industrial Blvd
1329,34.868845,-85.512031,White Oak Gap Rd
160,34.759891,-85.530915,Crimson/Kenimer Ln
334,34.769497,-85.538863,/I- 59
160,34.908501,-85.484129,/Lee St
216,34.860996,-85.500099,Kristy Way/Lookout Creek Rd
160,34.970989,-85.539048,New Home Loop
160,34.834192,-85.553465,Woodmont Pl/Back Valley Rd
216,34.977988,-85.418258,/State Rte 299
216,34.928631,-85.484147,Slygo Rd/Old Hales Gap Rd
216,34.869036,-85.507951,Railway Ln/Holland St
276,34.922052,-85.415355,Moore Rd/Dogwood Rd
