Estimated daily crossings,Latitude,Longitude,Name
160,34.118328,-83.754571,Zion Church Rd
160,34.177817,-83.436064,Brown Rd/Y E Bolton Rd
216,34.100992,-83.582454,M L King Jr Dr
160,34.086322,-83.694517,Harmony Grove Ln
246,34.116168,-83.588262,Lynn Ave
185,34.212364,-83.461746,Pine Ave/Avery Ct/Homer Rd/Hwy 441
246,34.115385,-83.586960,Longview Dr
160,34.135998,-83.430536,Wilbanks Cir/US Hwy 441
160,34.205947,-83.635796,/Holly Springs Rd
160,34.159736,-83.671921,US Hwy 129
160,34.111162,-83.602604,Mergnser Dr
276,34.124372,-83.582430,Washington St/School Rd
160,34.141514,-83.605360,US Hwy 129
160,34.051436,-83.401067,State Rte 334
160,34.189418,-83.451466,Poplar Rd
160,34.201327,-83.624967,Bunt Ln
276,34.124472,-83.591782,Marty Way/Wildwood Pl
390,34.210855,-83.448852,Amber Pl
246,34.151303,-83.576304,Village Dr
160,34.154585,-83.664302,US Hwy 129
160,34.244953,-83.552483,Maysville Rd
160,34.089180,-83.765904,Dove Trl
216,34.157071,-83.762570,Remington Park Dr/Glenwood Trl/Kendall Ct
216,34.080353,-83.621527,Sandra Ct/Jason Pond Way
185,34.088809,-83.687984,Traditions Way/Barberry Ct
160,34.094676,-83.571101,Athens Hwy
499,34.116384,-83.761683,Zion Church Rd/Pinecrest St
185,34.120583,-83.573625,Martin St/Church St
185,34.118944,-83.693418,State Rte 332/Ward Rd
160,34.232942,-83.519822,Wheeler Cemetery Rd
160,34.232072,-83.459472,Mount Olive Rd
185,34.106925,-83.591557,Winder Hwy
216,34.158530,-83.670459,Jackson Concourse
160,34.148792,-83.566406,State Rte 82
160,34.134929,-83.773416,State Rte 53/Maverick Dr
160,34.251267,-83.560490,Maysville Rd/Newton St
160,34.088626,-83.693892,Old Forge Ln
216,34.200922,-83.454647,Cross Over St
185,34.136461,-83.780613,State Rte 53
160,34.220368,-83.608760,Hale Rd/Highland Way
276,34.101499,-83.792882,I- 85
185,34.082059,-83.627220,Hummingbird Ct/Wren Ave
216,34.114894,-83.781627,Braselton Pkwy
305,34.230609,-83.498799,Lam Hardman Rd
305,34.096553,-83.761821,City Square St/W Broad St
246,34.231048,-83.468463,Northwood Dr/Charleston Ave
276,34.204419,-83.458005,Line St
160,34.150440,-83.400432,State Rte 334/Sandy Creek Rd
216,34.198386,-83.465585,Lakeview Dr/Forest Hill Ct
334,34.218500,-83.469697,Medical Center Dr
246,34.205931,-83.477970,Westwood Dr
185,34.200765,-83.441365,Nunn St/Belmont Park Dr
160,34.096574,-83.682222,Buckthorn Dr
160,34.052410,-83.663297,Winder Hwy
185,34.137125,-83.789709,/State Rte 53
216,34.100382,-83.582656,M L King Jr Dr
160,34.121802,-83.578045,Washington St/Old Pendergrass Rd/Dickson Dr
276,34.193088,-83.447274,Harmony St/S Broad St
276,34.125929,-83.740039,I- 85
160,34.069263,-83.574616,Woodland Dr
246,34.202413,-83.456519,S Elm St/Pine St
216,34.136268,-83.779569,State Rte 53
160,34.007366,-83.463683,/Jefferson Rd
160,34.174517,-83.684269,Cedar Dr
185,34.123634,-83.575166,Brittany Ct
160,34.109589,-83.795973,Baker View Ln/Bakers Farm Cir
185,34.082971,-83.628581,Wren Ave/Sparrow Ln
185,34.236768,-83.454042,Homer Rd
160,34.192252,-83.554614,State Spur 82/Apple Valley Rd
216,34.188394,-83.443987,S Elm St/Stark St
305,34.130748,-83.588688,Washington St
160,34.210007,-83.470258,Orchard Cir/Orchard Dr
160,34.153648,-83.661910,US Hwy 129
185,34.158636,-83.670353,Jackson Concourse/US Hwy 129
160,34.179383,-83.724785,A J Irvin Rd
185,34.059426,-83.544706,B Whitfield Rd
160,34.061114,-83.424519,Shilo Rd
185,34.209246,-83.438836,Veterans Memorial Pkwy
334,34.123881,-83.750874,Brookstone Trl/Summerbrook Rd
216,34.144034,-83.791115,Beagle Ct
305,34.097995,-83.616332,Sandstone Trl
216,34.118432,-83.574841,Depot St/North Ave/Randolph St
160,34.081317,-83.666319,Summit Chase Dr
160,34.142271,-83.723504,State Rte 60
334,34.230459,-83.498478,I- 85
160,34.195192,-83.468242,Magnolia Pl
246,34.105777,-83.577626,Magnolia Ave
160,34.104603,-83.698340,Freedom Pkwy/Liberty Bell Run
185,34.095832,-83.699920,Links Blvd/Blacksmith Ln
160,34.233805,-83.522474,Lighthouse Ct/Beacon Dr
185,34.126427,-83.428581,US Hwy 441/Berea Rd/Memorial Dr
334,34.121283,-83.583535,Turner Dr/Hoschton St
185,34.111167,-83.592511,Weaver Dr
160,34.062453,-83.560655,Windy Hill Rd/Windy Hill Ct
160,34.101584,-83.574380,Athens St
334,34.230179,-83.498291,I- 85
160,34.191020,-83.719565,US Hwy 129
185,34.148855,-83.659147,S Holland Dr
246,34.205157,-83.459808,N Broad St/Hill St
246,34.106460,-83.574406,Magnolia Ave
160,34.244873,-83.551660,Maysville Rd
160,34.238143,-83.456237,W W Gary Rd
160,34.162721,-83.678122,Glenn Gee Rd
334,34.203921,-83.457851,State St/N Broad St/S Broad St
216,34.237986,-83.454831,Homer Rd
390,34.110735,-83.779152,I- 85
185,34.193319,-83.433161,Madison St/Ila Rd
216,34.204149,-83.698144,Pond Fork Church Rd
216,34.115855,-83.572348,Pine St/Gordon St
160,34.115639,-83.803604,Thompson Mill Rd
185,34.073025,-83.624528,Lake Vista Dr
445,34.208584,-83.475676,Maysville Hwy
160,34.223458,-83.594647,/Dixon Bridge Rd
185,34.098302,-83.431823,Old US Hwy 441
185,34.232756,-83.458023,Mount Olive Rd
185,34.221599,-83.472744,Kensington Ct
246,34.209071,-83.466921,Forest Ave/Sunnycrest Dr
160,34.125411,-83.688626,Plum Ct
160,34.198678,-83.541432,Johns Way/Woods Bridge Rd
160,34.075939,-83.577982,Arcade Park St
160,34.134802,-83.442767,/Wilson Cemetery Rd
160,34.075981,-83.680086,/Gum Springs Church Rd
185,34.193276,-83.453188,Creekdale Dr/Sam Brown Blvd/Piedmont St
305,34.191796,-83.584506,I- 85
185,34.253486,-83.564347,Maywood Ct/Factory St
246,34.133975,-83.677441,Kendall Creek Dr/I- 85
276,34.229026,-83.499304,Maysville Rd
160,34.093706,-83.614723,Andrew Ridge Dr
160,34.112690,-83.761223,Gordon St
362,34.195646,-83.454217,Clayton St/Green St
160,34.114364,-83.762989,Green St
160,34.115913,-83.695906,State Rte 332
160,34.127905,-83.765319,Lagree Duck Rd
362,34.214952,-83.460621,Bennett St
216,34.123357,-83.609719,Jasmine Dr/Cornish Way
160,34.097743,-83.431897,Dogwood Dr
418,34.217971,-83.473880,Chanticleer Dr/Ridgeway Rd
160,34.104060,-83.761736,State Rte 53
216,34.129657,-83.764089,Kings Rd
160,34.194403,-83.462381,Lakeview Dr/Dogwood Trl
216,34.121004,-83.608582,Birchmore Trl
216,34.146573,-83.613995,US Hwy 129
276,34.116936,-83.614739,Cherrywood Ct
160,34.131870,-83.590865,Washington St
334,34.230127,-83.499170,I- 85
160,34.224355,-83.495962,Maysville Rd
276,34.188894,-83.444357,S Elm St/Emory Bolton Rd
418,34.101044,-83.793123,I- 85
160,34.123425,-83.618926,Indian Springs Dr/Old Pendergrass Rd
276,34.121341,-83.610235,Jefferson Walk Cir/Primrose Ct
160,34.124563,-83.747866,Summerbrook Rd/Jasmine Trl
362,34.203845,-83.458150,N Elm St
160,34.097631,-83.699415,Anvil Ct
390,34.194336,-83.579158,I- 85/Plainview Rd
185,34.210495,-83.456088,Brandy Dr
160,34.127956,-83.765494,State Rte 53
160,34.180459,-83.567018,State Rte 82/Barber Rd
185,34.119632,-83.596214,Melvin Dr/Courtland Dr
246,34.242519,-83.457510,Homer Rd
276,34.180622,-83.603457,Bill Wright Rd
216,34.215772,-83.459082,Crestwood Cir/Winte Creek Way
216,34.112880,-83.797013,Charlie Smith Rd
160,34.106670,-83.645040,Terrell Ln
160,34.127692,-83.597150,Field Stone Cir/Fieldstone Ci/Monte Ln
160,34.165574,-83.582572,Jett Roberts Rd
185,34.092451,-83.693777,High Falls Ct/Brassie Falls Ln/Low Falls Ct
160,34.040166,-83.450055,Jefferson River Rd
216,34.125106,-83.744634,Summerglen Trl/Glenwyck Dr
160,34.089886,-83.656167,Jackson Trail Rd
185,34.115171,-83.703206,Caldwell Ln
160,34.110201,-83.549925,Hawk Ridge Rd/Redtail Rd
160,34.045018,-83.528472,Holiday Cemetery Rd
160,34.103188,-83.628703,Eugene Ct/Albert Ln
160,34.199891,-83.449901,Williford St/McArthur St
160,34.108283,-83.571892,Elrod Ave
160,34.121769,-83.567458,Commerce Rd/Kissam St
160,34.095059,-83.571342,Athens Hwy
160,34.100789,-83.676010,Shamus Way/Clover Mill Dr
276,34.122400,-83.588251,Dragon Dr/Old Pendergrass Rd
160,34.164096,-83.462060,/Old Hoods Mill Rd
246,34.068817,-83.696874,Maple Leaf Ct/Jackson Meadows Dr
185,34.102306,-83.433344,Old US Hwy 441/Old Kings Bridge Rd
160,34.122196,-83.442483,Cabin Creek Dr
216,34.149234,-83.572483,Vandiver Rd
216,34.151097,-83.635754,US Hwy 129
276,34.116427,-83.575670,Oak St/Lee St/Hill St
160,34.124869,-83.580429,Crestview Dr
216,34.187895,-83.443619,S Elm St
160,34.122705,-83.432204,Cabin Creek Dr/Memorial Dr
418,34.217154,-83.468763,Hospital Rd/Tara Pl
185,34.212616,-83.443965,State St/
305,34.216446,-83.531993,Edwin Reynolds Rd
160,34.261592,-83.623482,Unity Church Rd/Myrtle Dr
185,34.210407,-83.447408,State St
305,34.205963,-83.552451,Hwy 82 Spr/I- 85
216,34.043885,-83.497277,Jefferson Rd
246,34.129363,-83.590289,Holders Siding Rd
185,34.196096,-83.449873,S Elm St/New St
185,34.179092,-83.697394,N Jackson Loop
160,34.136438,-83.624249,Holders Siding Rd
185,34.204471,-83.453715,State St
160,34.114512,-83.572867,Pine St
334,34.126443,-83.737150,I- 85
160,34.178376,-83.725586,/A J Irvin Rd
160,34.210751,-83.480668,King Rd
762,34.205929,-83.462299,N Broad St/Homer Rd
160,34.120110,-83.613727,Azalea Way
160,34.021142,-83.495275,/Brock Rd
305,34.081492,-83.696355,Pear Grove Ct/Saddle Creek Dr
185,34.158500,-83.608984,Storey Ln
160,34.223713,-83.594865,Dixon Bridge Rd
160,34.121809,-83.444033,Cabin Creek Dr
305,34.115446,-83.581985,Cobb St/Lee St
160,34.133922,-83.790490,Jackson Ave/Madison Ave
216,34.069702,-83.698025,Maple Leaf Ct
185,34.175304,-83.604729,Hog Mountain Rd
160,34.111816,-83.793555,New Liberty Way
185,34.115579,-83.613841,Jefferson Walk Cir/Cypress Dr
216,34.070379,-83.424747,Old Hwy 441/US Hwy 441
216,34.100951,-83.582468,M L King Jr Dr
684,34.248463,-83.475778,Steven B Tanger Blvd
362,34.131985,-83.684831,State Rte 332/I- 85
185,34.159223,-83.671201,Perdue Ln/US Hwy 129
160,34.115730,-83.803113,Thompson Mill Rd
185,34.218293,-83.538116,Wheeler Cemetery Rd/Edwin Reynolds Rd
160,34.223242,-83.494887,Maysville Rd
160,34.186857,-83.590409,Horace Head Rd
160,34.108296,-83.791644,New Liberty Way/Bell Ln
160,34.107293,-83.567982,Hampton Dr
160,34.087430,-83.657993,Will Clark
276,34.157438,-83.671563,Jackson Concourse
160,34.074743,-83.565029,State Hwy 82 S/Seagars St
276,34.233779,-83.458494,Mount Olive Way/Richmond Way
185,34.163400,-83.462236,Old Hoods Mill Rd
305,34.127883,-83.592017,Cheatham Bluff/Monte Ln
160,34.204688,-83.453271,/State St
160,34.074685,-83.695260,Golf View Ct/Fairway Park Ln
216,34.099109,-83.599044,Winder Hwy
185,34.141090,-83.586509,Jett Roberts Rd/Hickory Hills Dr
185,34.059232,-83.544685,B Whitfield Rd
160,34.184983,-83.717174,US Hwy 129
160,34.212498,-83.480938,King Rd/Old Maysville Rd
160,34.214455,-83.463883,Cedar Dr/Woodbine St
185,34.097571,-83.671710,State Rte 124 W
160,34.197620,-83.459254,Waterworks Rd
684,34.248158,-83.475427,I- 85
216,34.202950,-83.448029,Shankle Rd/Shankle Hts
216,34.133364,-83.589427,Jett Roberts Rd
185,34.072172,-83.475798,Ansley Ln
216,34.074453,-83.617568,Ryans Run
160,34.092065,-83.615048,Winder Hwy
160,34.184224,-83.438860,Veterans Memorial Pkwy
390,34.251832,-83.468277,I- 85
185,34.118193,-83.774020,Braselton Pkwy
499,34.122490,-83.596124,Brittany Ln/Courtland Dr/Old Pendergrass Rd
185,34.104088,-83.653896,Austin Way
160,34.226058,-83.465790,Northview Dr/Vista Dr
160,34.130142,-83.796264,Prospectors Ct
246,34.227764,-83.442223,W E King Rd/Millstone Dr
160,34.161443,-83.675199,Old Gainesville Hwy
185,34.089130,-83.720268,Kingston Pl
160,34.211066,-83.467440,Carson St/Brookwood Ave
185,34.120859,-83.575183,Institute St/College St
185,34.125867,-83.428793,US Hwy 441 S/US Hwy 441
160,34.256197,-83.533712,Sears Dr
334,34.124881,-83.745216,Summerglen Trl/Glenwyck Dr
305,34.203312,-83.465581,Clayton St/Jefferson St
160,34.181950,-83.647717,Wayne Poultry Rd
246,34.087678,-83.686906,Traditions Way/Harmony Grove Ln/Alderberry Ct
246,34.071197,-83.551554,Rock Forge Rd/Stoner Rd
216,34.049537,-83.536069,Redstone Rd/Redstone Ln
216,34.137516,-83.431746,Herman Dr
216,34.081998,-83.564916,Athens Hwy
160,34.210273,-83.467798,Brookwood Ave
216,34.205510,-83.459601,Hill St/Homer St
185,34.131277,-83.611161,Holders Siding Rd
185,34.060881,-83.690906,Old Collins Rd/Moons Bridge Rd
185,34.198577,-83.443526,Shankle Rd/Nunn St
185,34.072634,-83.708508,Jackson Trail Rd/Beccas Dr
160,34.168514,-83.620637,I- 85
160,34.212342,-83.643649,Pond Fork Church Rd
160,34.067070,-83.549572,Athens Hwy
185,34.076663,-83.560482,Peppers St/Parr St
185,34.124025,-83.429501,US Hwy 441 S
305,34.204108,-83.459365,Little St
334,34.203390,-83.455532,Wilhard St/Cherry St
276,34.125648,-83.584383,Hoschton St/Brockton Nixon Rd/Holders Siding Rd
160,34.047550,-83.474237,Crooked Creek Rd
160,34.246987,-83.666587,/Holly Springs Rd
160,34.158244,-83.446818,Roy Howington Rd
185,34.164681,-83.575592,Legg Rd
185,34.107032,-83.595256,US Hwy 129
216,34.108411,-83.573454,Jefferson Ter/Athens St
216,34.197764,-83.441916,Hillcrest St
160,34.097479,-83.572858,Athens Hwy
160,34.192811,-83.719470,US Hwy 129
160,34.151112,-83.661410,John B Brooks Rd
305,34.204238,-83.458590,N Elm St/Atlanta Ave
160,34.111097,-83.603071,Roddy Duck Dr/Mergnser Dr
185,34.112901,-83.608644,Oconee Pt
185,34.200797,-83.441269,Belm Ont Park Dr/Belmont Park Dr
160,34.211692,-83.445759,State St/W E King Rd
216,34.103213,-83.653873,Austin Way/Savannah Ln
418,34.111945,-83.593915,Weaver Dr
160,34.128693,-83.794722,New Liberty Church Rd/Gold Crest Rd
185,34.166116,-83.503045,Jefferson Rd
216,34.215769,-83.483141,Old Maysville Rd
160,34.209395,-83.471515,Orchard Cir/Orchard Dr
160,34.127535,-83.556695,Lakeview Bend Cir
305,34.100756,-83.673533,Clover Ridge Rd
160,34.083690,-83.743544,State Rte 53/Pearl Industrial Ave
216,34.209367,-83.479582,Maysville Hwy
160,34.069095,-83.568626,State Hwy 82 S
185,34.128841,-83.765107,Lagree Duck Rd
216,34.108680,-83.450874,Brockton Rd
216,34.233919,-83.457946,Pine Cone Trl
418,34.151696,-83.647144,I- 85
160,34.149484,-83.553295,County Farm Rd/Samples Rd
305,34.106885,-83.575279,Maria Ct
185,34.209898,-83.645154,Trillium Trl
160,34.187187,-83.448431,Smallwood Dr
185,34.076826,-83.627801,Finch Way/Thrasher Ln
276,34.207952,-83.471673,/Maysville Rd
185,34.208796,-83.551531,Hwy 82 Spr/George Doss Rd
160,34.115728,-83.590481,Lynn Ave
160,34.029826,-83.505170,Harris Hills Dr
160,34.206734,-83.448973,Williford St/Wood St
160,34.086388,-83.593852,Galilee Church Rd
305,34.145661,-83.655665,I- 85
216,34.127629,-83.428099,US Hwy 441
160,33.983614,-83.525629,Savage Rd
216,34.097866,-83.750870,Rocky Ct
160,34.170763,-83.445397,White Hill School Rd
390,34.113997,-83.590615,Memorial Dr
216,34.222189,-83.516184,I- 85
305,34.198879,-83.459249,Waterworks Rd
160,34.185794,-83.441657,S Broad St Exn
185,34.179882,-83.437487,Y E Bolton Rd
185,34.056043,-83.558022,Double Bridges Rd/Sandy Lane Ct/Birch Ct
246,34.243742,-83.480238,/Ridgeway Church Rd
246,34.215303,-83.458487,Crestwood Cir/Old Colony Pl
160,34.192666,-83.459864,Waterworks Dr
185,34.213786,-83.464169,Cedar Dr/Pine Ave
160,34.136186,-83.761313,Kurk Roberts Rd/New Cut Rd/Allison Way
160,34.202205,-83.470396,Hazel St
160,34.040863,-83.498646,Jefferson Rd/Caitlin Dr
276,34.205083,-83.460286,N Elm St/Over St
185,34.257008,-83.489696,Ridgeway Church Rd
246,34.124581,-83.593186,Marty Way
305,34.215595,-83.469903,Ridgeway Rd/Ridgeway Dr
445,34.127676,-83.717785,State Rte 60/I- 85
216,34.127274,-83.612160,Iris Ct
160,34.125329,-83.463118,Threatt Rd/Cabin Creek Rd
160,34.054517,-83.500364,Jefferson Rd/Wits End
216,34.211685,-83.461289,Duncan St/M L King Jr Dr
305,34.198933,-83.447736,Ashford Ln
160,34.103036,-83.573783,Athens St
160,34.180017,-83.465844,Waterworks Rd
216,34.182011,-83.710373,/US Hwy 129 N
160,34.143997,-83.674164,State Rte 332
160,34.133895,-83.627374,Benton Rd
160,34.232264,-83.686753,Silverwood Dr
160,34.065673,-83.568647,State Rte 82
160,34.123283,-83.757555,Chardonnay Ct
216,34.203750,-83.469378,Hazel St
160,34.174674,-83.684351,US Hwy 129 N
276,34.201807,-83.561746,I- 85
160,34.129808,-83.427485,US Hwy 441
160,34.214827,-83.436103,Old Carnesville Rd
526,34.210902,-83.453183,Highland Est
334,34.223229,-83.473632,Bishop Ct/Arlington Ln
160,34.081559,-83.566712,Fowler Ln
246,34.128163,-83.584830,Washington St
185,34.120976,-83.603642,US Hwy 129
185,34.134833,-83.791580,Hancock Pl
160,34.077289,-83.624787,Cardinal Ridge
160,34.125766,-83.563546,Commerce Rd
185,34.107269,-83.762462,State Rte 53
216,34.138139,-83.615451,US Hwy 129
552,34.152181,-83.646119,I- 85
246,34.236019,-83.453581,Mount Olive Rd/Homer Rd
160,34.210488,-83.480568,King Rd
160,34.200347,-83.631137,Forest Lake Rd
185,34.192733,-83.457836,Sam Brown Blvd
216,34.260167,-83.482681,Grove Level Rd/Beck Farm Rd/E Ridgeway Rd
160,34.229098,-83.514894,Bana Industrial Blvd
185,34.062849,-83.473492,Marie Ct
160,34.083901,-83.628542,Jackson Trail Rd
160,34.238637,-83.455248,Homer Rd/W W Gary Rd
185,34.196849,-83.447921,Willow St/Spring St
160,34.055514,-83.501127,Jefferson Rd/New Kings Bridge Rd/Athens Hwy
472,34.208628,-83.476046,Maysville Hwy
305,34.134932,-83.788721,Hancock Ave
276,34.209183,-83.462488,Carson St/Homer Rd
246,34.114001,-83.583771,Park Dr/Lee St
276,34.070975,-83.551732,Rock Forge Rd/Athens Hwy
185,34.197189,-83.471980,Jefferson Rd
160,34.150498,-83.466035,Old Hoods Mill Rd
216,34.141901,-83.618903,US Hwy 129
276,34.111914,-83.589506,Spinner Dr/Memorial Dr
216,34.244366,-83.480918,I- 85/Ridgeway Church Rd
185,34.093051,-83.759855,State Rte 53/Towne Center Pkwy
185,34.119648,-83.582888,Lawrenceville St
160,34.250797,-83.559753,N Main St
305,34.214423,-83.461064,Bennett St/Homer Rd
305,34.215484,-83.469744,Hospital Rd/Ridgeway Dr
185,34.095045,-83.607578,Winder Hwy
216,34.192617,-83.449408,Walnut St/King St
276,34.071080,-83.551625,Rock Forge Rd
160,34.121905,-83.457588,Tall Timber Trl
390,34.111978,-83.777867,I- 85
185,34.160048,-83.672035,Perdue Ln/US Hwy 129
160,34.055767,-83.539003,Watson Rd
160,34.135647,-83.597276,/Washington St
246,34.202546,-83.456383,Pine St
160,34.221632,-83.492954,Maysville Rd
160,34.069252,-83.568591,State Hwy 82 S
305,34.190539,-83.586198,I- 85
185,34.114109,-83.431700,Broad St/Sanford Dr
160,34.118827,-83.619670,Old Swimming Pool Rd
185,34.197102,-83.450732,S Elm St/
185,34.138203,-83.450071,Hoods Academy Rd/Cabin Creek Rd
185,34.217365,-83.460213,Crestwood Cir/Homer Rd
160,34.173434,-83.682339,US Hwy 129 N
185,34.209272,-83.438855,Veterans Memorial Pkwy
185,34.164887,-83.576583,Legg Rd
216,34.108000,-83.576434,Michelle Dr
185,34.174961,-83.443846,US Hwy 441
216,34.184140,-83.440366,Y E Bolton Rd/S Broad St Exn
472,34.217013,-83.466635,Victoria Way
216,34.124662,-83.746156,Glenwyck Dr/Walnut Woods Dr
246,34.260656,-83.482982,Grove Level Rd
216,34.188067,-83.445052,Stark St
185,34.190629,-83.455664,Millwood Dr/Carriage Ct
185,34.184449,-83.438565,Veterans Memorial Pkwy
418,34.203775,-83.456909,S Broad St/Central Ave
216,34.123978,-83.747539,Walnut Woods Dr/Jasmine Trl
185,34.128371,-83.765630,State Rte 53
362,34.120494,-83.754105,I- 85
216,34.103373,-83.570208,Dixie Red Ave
185,34.119746,-83.611517,Laurel Oaks Ln/Jefferson Walk Dr
160,34.107762,-83.579580,M L King Jr Dr
160,34.133103,-83.579615,Hickory Hollow Pl/Dogwood Ln
185,34.103464,-83.570780,Dixie Red Ave
160,34.184187,-83.410031,Queen Ct
185,34.128065,-83.765289,Lagree Duck Rd
185,34.121870,-83.689753,State Rte 332
276,34.214346,-83.459124,Bennett St/M L King Jr St
185,34.095921,-83.606123,Winder Hwy
160,34.148841,-83.552748,Samples Rd
160,34.150596,-83.578645,Carriage Ln
160,34.232236,-83.694263,Pond Fork Way
216,34.209705,-83.480254,Maysville Hwy
160,34.101393,-83.679220,Wexford Ct
160,34.224793,-83.470791,Mount Olive Rd/
185,34.078005,-83.562468,State Rte 82/Athens Hwy
160,34.231058,-83.500445,/Maysville Rd
526,34.218129,-83.466888,Lindsey Ct/Victoria Way
160,34.111111,-83.769164,Jesse Cronic Rd
390,34.204573,-83.464742,Andy St/Hood St
813,34.121155,-83.582279,Morton St/Old Pendergrass Rd
185,34.133003,-83.627431,/Benton Rd
216,34.130428,-83.763556,Johnson Dr/Duck Rd
185,34.092660,-83.691413,Traditions Way/Brassie Falls Ln
185,34.076873,-83.560272,Parr St
334,34.207700,-83.546341,H D R Dr
160,34.073883,-83.589173,Ethridge Rd
185,34.210739,-83.462412,Ridgeway St/Homer Rd/M L King Jr Dr
445,34.206917,-83.461961,Homer Rd/Homer St
160,34.113505,-83.608171,Old Swimming Pool Rd
246,34.160238,-83.443850,US Hwy 441
216,34.130050,-83.763356,Kings Rd/Johnson Dr
160,34.131553,-83.618459,Long Farm Rd/Holders Siding Rd
276,34.220197,-83.473147,Manor Ct/Oliver Ridge Rd
160,34.150813,-83.583080,Jett Roberts Rd
160,34.074613,-83.544694,White Oak Trl
276,34.121340,-83.591919,Vantage Dr/Melvin Dr
472,34.208608,-83.475882,Maysville Hwy
552,34.120289,-83.763026,State Rte 53/Chardonnay Trce
246,34.126090,-83.742334,Trailridge Way
246,34.148509,-83.651323,I- 85
216,34.202292,-83.455950,Sycamore Rd/S Broad St
472,34.130109,-83.587536,Washington St
160,33.975435,-83.528969,Bob Wages Rd
362,34.125569,-83.740209,I- 85
185,34.236496,-83.453877,/Homer Rd
160,34.126446,-83.554388,Crooked Bend Trl/Lakeview Bend Cir
390,34.130343,-83.695230,I- 85
216,34.205158,-83.465925,Washington St/Hood St
418,34.117861,-83.574413,South Ave/Randolph St/Elm St
216,34.126269,-83.764945,State Rte 53/Johnson Dr
160,34.228092,-83.682851,Martin Rd
552,34.152329,-83.644858,/US Hwy 129
160,33.974801,-83.539946,Savage Rd
160,34.058123,-83.685535,Rivermist Dr/Riverbend Dr
216,34.107924,-83.567392,Hampton Dr/Fairfield Dr
160,34.111184,-83.576173,Curry Xing
185,34.076623,-83.560550,Parr St
216,34.202555,-83.459759,Ivey St/Atlanta Ave
160,34.236645,-83.466740,Steve Reynolds Industrial Pkwy
305,34.196547,-83.574452,I- 85
160,34.093535,-83.610518,Winder Hwy
160,34.219458,-83.472368,Chantilee St/Chanticleer Dr/Chanticler St
305,34.125199,-83.741265,I- 85
160,34.078811,-83.544400,Rock Forge Rd/White Oak
276,34.118228,-83.582252,Mahaffey Cir/Railroad St/Mahaffey St
160,34.065558,-83.545423,/Athens Hwy
276,34.109982,-83.569052,Peachtree Rd/Gordon St
216,34.073873,-83.559315,Windy Hill Rd/Jefferson Byp
185,34.056624,-83.421461,New Kings Bridge Rd
160,34.111157,-83.682975,Briarwood Ct
160,34.096622,-83.682269,State Rte 124 W/Buckthorn Dr
185,34.106166,-83.634491,State Rte 124 W
334,34.087001,-83.688373,Harmony Grove Ln/Baker Pond Ct
305,34.206218,-83.464117,Andy St/N Elm St
526,34.192288,-83.451107,Walnut St/Poplar Rd
160,34.147097,-83.416797,Swain Rd/Harris Lord Cemetery Rd
160,34.217452,-83.460944,Cole Court Dr/Cedar Rd
160,34.185019,-83.410557,Queen Ct/Tuxedo Dr
160,34.102272,-83.625387,Tysor Ct/Dillon Dr
160,34.108356,-83.572045,Wilson Ln/Elrod Ave
185,34.114809,-83.431410,Lakeview Dr/Broad St
160,34.077996,-83.691729,Traditions Way/Roller Mill Dr
185,34.179833,-83.598672,Hog Mountain Rd
160,34.034415,-83.506025,/Harris Hills Dr
160,34.086973,-83.423716,Old Athens Dr
160,34.140883,-83.574422,Cypress Pl
160,34.148998,-83.450047,Ridge Mill Ln/Hoods Mill Rd
185,34.140088,-83.570514,State Rte 82
160,34.114306,-83.573035,Pine St
276,34.212937,-83.460186,M L King Jr Dr/Duncan Cir/E Cordes Pl
160,34.237718,-83.511161,Maysville Rd
216,34.248051,-83.467355,/Pottery Rd
246,34.201831,-83.450957,Victoria St/Elizabeth St
185,34.193582,-83.465661,Dogwood Trl
160,34.127670,-83.765365,Lagree Duck Rd
472,34.101188,-83.793461,I- 85
305,34.116370,-83.587462,Lynn Ave/Longview Dr
216,34.202349,-83.719690,US Hwy 129
160,34.081256,-83.628027,Hummingbird Ct
160,34.172258,-83.681105,US Hwy 129 N
160,34.122820,-83.409047,Jim David Rd/Hunters Ridge Ln
185,34.208844,-83.479045,Westview Rd
160,34.106220,-83.762759,Henry St
160,34.232816,-83.460006,Mount Olive Rd
216,34.085933,-83.779196,Doe Ct/Doe Ridge
185,34.168225,-83.620638,I- 85
658,34.117994,-83.572363,Commerce Rd/Dell St
160,34.126974,-83.555037,Crooked Bend Trl
160,34.170617,-83.689541,/Old Gainesville Hwy
185,34.199669,-83.551450,Hwy 82 Spr
160,34.185555,-83.591627,Dry Pond Rd
160,34.128752,-83.568793,State Rte 82
334,34.229838,-83.499803,/Maysville Rd/I- 85
246,34.110101,-83.587973,Winder Hwy/Memorial Dr/Lee St
160,34.076025,-83.577522,Arcade Park St
216,34.100692,-83.582554,M L King Jr Dr
276,34.118714,-83.570813,Commerce Rd/Storey St
185,34.063026,-83.425522,US Hwy 441
185,34.114712,-83.593420,Lynn Ave/Old Swimming Pool Rd/Bryanwood Dr
185,34.118509,-83.609151,Jefferson Walk Cir/Cypress Dr
390,34.146446,-83.580913,Silver Bell Rd/Persimmon Dr
362,34.112041,-83.776894,Jesse Cronic Rd
276,34.118212,-83.582286,Mahaffey St
160,34.125127,-83.717934,State Rte 60
246,34.195634,-83.455165,Coleman Dr
160,34.134489,-83.429571,US Hwy 441
160,34.192418,-83.438755,Harris St/Madison St
216,34.219990,-83.458540,Homer Rd
185,34.157704,-83.608615,Roy Garrett Rd/Storey Ln
160,34.184756,-83.478859,Jefferson Rd/Traynham Rd
160,34.155427,-83.597148,Katherine Dr
160,34.072133,-83.551256,Rock Forge Rd/Rock Forge Ct
160,34.084124,-83.629041,Jackson Trail Rd/Jacksons Walk
334,34.230072,-83.498469,I- 85/Lam Hardman Rd
185,34.066006,-83.453782,New Kings Bridge Rd
160,33.974231,-83.525733,Eric Way
246,34.116388,-83.580114,Railroad St/Railroad Ave
246,34.186466,-83.442568,/S Elm St
246,34.097776,-83.762425,City Square St/Bell Ave
160,34.062088,-83.517085,Burley Pl
185,34.236926,-83.454137,Homer Rd
334,34.193835,-83.450967,Poplar St/Piedmont St
334,34.230064,-83.498489,I- 85
160,34.123744,-83.431503,Memorial Dr
185,34.189799,-83.411309,Prime Dr/Trace Ln
185,34.136167,-83.628126,Benton Rd
185,34.207427,-83.476816,Westwood Rd
216,34.086320,-83.779885,Doe Ct
216,34.131550,-83.689642,I- 85
185,34.159853,-83.599218,Grandville Ct/Bailey Dr
246,34.119299,-83.431631,Memorial Dr
276,34.192984,-83.582292,I- 85
160,34.074914,-83.709572,/Jackson Trail Rd
216,34.189181,-83.588712,I- 85
160,34.129734,-83.669047,Old Pendergrass Rd/Citation Way
216,34.200725,-83.454186,Cherry St/S Broad St
246,34.041288,-83.498447,Jefferson Rd/Crooked Creek Rd
246,34.194859,-83.431778,Veterans Memorial Pkwy
160,34.218191,-83.546213,Hwy 82 Spr
472,34.121726,-83.751054,I- 85
185,34.083581,-83.627966,Jackson Trail Rd/Sparrow Ln
185,34.160358,-83.601313,Roy Garrett Rd/Bailey Dr
160,34.106099,-83.763916,Henry St
160,34.179150,-83.442572,US Hwy 441
160,34.055446,-83.565245,State Rte 82
185,34.203758,-83.459889,Georgia Ave/Bill Anderson Blvd
246,34.226287,-83.506912,I- 85
160,34.089744,-83.662035,/Lewis Roberts Rd
160,34.093900,-83.564849,Lakeridge Ct/Sterling Lake Dr
160,34.120830,-83.410584,Jim David Rd
362,34.088913,-83.692156,Old Forge Ln/Highlander Ct
160,34.098252,-83.670525,State Rte 124 W
160,34.191183,-83.574849,Dry Pond Rd/Lee St
160,34.132926,-83.729231,Walnut River Trl
216,34.126139,-83.612433,Fire Side Ct
216,34.080351,-83.621072,Sandra Ct
160,34.126314,-83.652646,Old Pendergrass Rd
160,34.210755,-83.639645,Pond Fork Church Rd/Holly Springs Rd
160,34.194644,-83.448753,S Elm St/Piedmont St
246,34.221332,-83.471227,Oliver Ridge Rd/Bishop Ct
160,34.136622,-83.624478,/Holders Siding Rd
160,34.105108,-83.777588,Broadway Ave
334,34.204405,-83.478810,Lathan Rd
305,34.127301,-83.725968,I- 85
185,34.207604,-83.467556,N Broad St/Forest Ave
160,34.091746,-83.584371,Galilee Church Rd/US Hwy 129/Jefferson Byp
216,34.087537,-83.765678,Quail Run
160,34.192271,-83.444661,Madison St/Spring St
216,34.112575,-83.797021,Charlie Smith Rd/Bakers Farm Cir
246,34.205277,-83.460176,Over St
216,34.193974,-83.427151,Chrystal Gail Dr/Ila Rd
185,34.207598,-83.475674,Westwood Rd
185,34.125554,-83.429799,Howington Loop/Memorial Dr
160,34.247169,-83.667044,Buffington Dr/Holly Springs Rd
160,34.096741,-83.604001,Winder Hwy/River Walk Ln
362,34.214948,-83.467122,Woodbine St
160,34.127455,-83.587142,Holders Siding Rd
185,34.167369,-83.713619,Mountain Creek Church Rd
160,34.103585,-83.697585,Freedom Pkwy/Founders Hope Way
160,34.146441,-83.604467,Storey Porter Rd/Blackstock Rd/Storey Ln
185,34.219991,-83.467165,Hospital Rd/Cardiology Pl/Hillcrest Ct
216,34.120313,-83.729278,State Rte 124 W
160,34.114959,-83.807846,Thompson Mill Rd
160,34.189311,-83.573288,Barber Rd
160,34.166085,-83.582407,Jett Roberts Rd/Legg Rd
160,34.123942,-83.736759,Tom White Rd
418,34.218606,-83.467931,Hospital Rd/Victoria Way/Bolton Dr
418,34.252045,-83.468438,I- 85
160,34.044983,-83.537951,Feldspar Dr/Slate Ave
246,34.106320,-83.575097,Magnolia Ave/Maria Ct
160,34.065819,-83.453377,New Kings Bridge Rd
305,34.186758,-83.442783,S Elm St
160,34.111969,-83.791758,/Jesse Cronic Rd
160,34.115130,-83.487096,McRee Rd
246,34.155288,-83.766689,Benson Ln
160,34.197680,-83.456470,Clayton St/Minish Dr
160,34.203428,-83.452245,Shankle Hts/N Bowden St/Bowden St
160,34.137973,-83.711859,Sweetwater Ridge
216,34.214129,-83.459519,M L King Jr St/Cross St
160,34.078381,-83.422535,Jennings Ln
362,34.121733,-83.409698,Jim David Rd
160,34.097729,-83.431951,Dogwood Dr
185,34.163355,-83.754301,Kinney Creek Ln
160,34.126693,-83.567986,State Rte 82
160,34.113670,-83.569997,Curry Dr/Gordon St
160,34.097362,-83.759079,Broad St/New St
246,34.221381,-83.471135,Bishop Ct
160,34.058913,-83.544651,B Whitfield Rd
216,34.050206,-83.498495,Jefferson Rd
160,34.194441,-83.686328,Cedar Winds Rd/Old State Rd
246,34.196611,-83.548692,Edgar Dr/Woods Bridge Rd
160,34.206402,-83.477912,Westwood Dr
160,34.233179,-83.486180,Steve Reynolds Industrial Pkwy
185,34.132116,-83.605157,Holders Siding Rd
185,34.235366,-83.454346,Mount Olive Rd
185,34.113312,-83.605189,Wood Duck Pointe/Jeffco Dr
216,34.221429,-83.457802,/Homer Rd
216,34.199090,-83.453828,Church St/College Ave
216,34.195866,-83.459484,Minish Dr
334,34.125634,-83.741140,I- 85
160,34.119871,-83.493089,Brockton Rd
185,34.257632,-83.491082,Jim Holland Rd/Ridgeway Church Rd
160,34.002196,-83.463062,/John Collier Rd
160,34.144138,-83.584475,Helene Way
160,34.116818,-83.744203,State Rte 124 W
160,34.199739,-83.465051,Lakeview Dr
185,34.208724,-83.456005,Wesley Way
160,34.152719,-83.711500,Lanier Rd
160,34.168119,-83.685930,Park St
160,34.137871,-83.469643,Waterworks Rd/Smokey Hollow Rd
160,34.104703,-83.647949,State Rte 124 W
160,34.231032,-83.521536,Wheeler Cemetery Rd
160,34.104846,-83.702604,/State Rte 332
305,34.131692,-83.684983,State Rte 332
216,34.094401,-83.608635,Winder Hwy
160,34.091794,-83.684354,Pinoak Cir
160,34.090731,-83.699988,River Birch Ct/Mulberry Greens Ln
160,34.135686,-83.749056,Meagan Pl/Robert Dr
160,34.148167,-83.431770,Harris Lord Cemetery Rd
160,34.085217,-83.627651,Jacksons Walk
185,34.180507,-83.442120,US Hwy 441
160,34.179090,-83.705140,Old Gainesville Hwy
334,34.203910,-83.457371,State St/High St
185,34.126885,-83.576102,Camille Ct
276,34.146540,-83.654084,I- 85
246,34.201718,-83.449804,Victoria St/Williford St
305,34.126923,-83.613008,Lantern Dr
160,34.234330,-83.480100,Old Harden Orchard Rd/Ridgeway Church Rd
160,34.168137,-83.685616,Old Gainesville Hwy
185,34.145767,-83.622235,Academy Church Rd/US Hwy 129
216,34.060734,-83.420429,Old US Hwy 441
185,34.151107,-83.637530,US Hwy 129
160,34.107579,-83.579674,M L King Jr Dr
246,34.212750,-83.461463,Homer Rd/Hwy 441/Holden Ct
216,34.202580,-83.719571,/US Hwy 129
160,34.117313,-83.529949,Brockton Rd
185,34.226639,-83.466172,Mount Olive Rd/Vista Dr
160,34.056197,-83.419754,Commerce Rd/Old US Hwy 441/New Kings Bridge Rd
160,34.010979,-83.478077,US Hwy 129/Belle Springs Rd
185,34.195471,-83.455510,Coleman Dr
216,34.240673,-83.456536,Homer Rd/Steve Reynolds Industrial Pkwy
216,34.096257,-83.605507,Winder Hwy
185,34.179911,-83.694802,US Hwy 129 N
160,34.207398,-83.469101,Maysville Rd/N Elm St/Hood St/Brookwood Ave
305,34.127106,-83.619798,Plantation Dr/Rosewood Cir
160,34.170643,-83.689566,Old Gainesville Hwy
160,34.194247,-83.458290,Scott St
160,34.214492,-83.485005,Maysville Rd
216,34.191994,-83.559317,Hawks Nest Rd
160,34.198433,-83.551321,Hwy 82 Spr
334,34.218458,-83.469129,Bolton Dr
305,34.222384,-83.474148,Arlington Ln/Kensington Ct
160,34.165788,-83.486712,Sheep Pasture Rd
216,34.128617,-83.718122,State Rte 60/McNeal Rd
418,34.120820,-83.763195,State Rte 53
216,34.126351,-83.764971,State Rte 53
160,34.134312,-83.771505,State Rte 53/Hoyt Holder Rd
216,34.105143,-83.572789,Harris Ln
276,34.205585,-83.464323,Andy St
276,34.076562,-83.626450,Thrasher Ln
160,34.127901,-83.587847,Mill Rd/Holders Siding Rd
276,34.114282,-83.576622,Oak St
246,34.131019,-83.589176,/Washington St
160,34.208937,-83.448701,State St/Baxter Rd
276,34.182415,-83.441602,US Hwy 441
160,34.161320,-83.675333,Appleby Ln
160,34.007413,-83.463799,Jefferson Rd/Keri Ln
362,34.154577,-83.643154,I- 85
185,34.072804,-83.575024,Lakeview Ct
160,34.083824,-83.591680,Worley Rd
160,34.009715,-83.472762,Jefferson Rd/US Hwy 129/Fuller Rd
160,34.153812,-83.601951,Shade Storey Rd
160,34.078963,-83.432428,Antioch Church Rd
276,34.209706,-83.464484,Park St/Carson St
160,34.146968,-83.615278,US Hwy 129
418,34.203032,-83.455983,Sycamore Rd/S Broad St
160,34.240646,-83.478961,Ridgeway Church Rd
160,34.054405,-83.540765,Watson Rd
185,34.145505,-83.580495,Holly Ct/Silver Bell Rd
216,34.240353,-83.456350,Homer Rd
185,34.077186,-83.696181,Traditions Way/Lively Oak Dr
160,34.066309,-83.721689,State Rte 53/Indian Creek Way
216,34.120656,-83.612474,Azalea Way/Jefferson Walk Dr
160,34.048589,-83.534735,Redstone Rd/Flintstone Rd/Flagstone Ave
160,34.118087,-83.594291,Bryanwood Dr
185,34.253647,-83.562317,W Main St/Brevard St
185,34.052851,-83.408622,Wages Bridge Rd/US Hwy 441
160,34.192410,-83.442539,Shankle Rd/Madison St
160,34.066322,-83.488812,Lindsay Ln
160,34.235042,-83.479957,Ridgeway Church Rd
160,34.125178,-83.755730,Reisling Dr
160,34.052273,-83.663240,Winder Hwy
216,34.199086,-83.551382,Hwy 82 Spr
526,34.174394,-83.612477,I- 85
160,34.059473,-83.433226,New Kings Bridge Rd
160,34.079534,-83.675288,Dunson Ln
305,34.135055,-83.789672,Hancock Ave/Monroe Ct
160,34.004872,-83.453862,Jefferson Rd
160,34.190394,-83.471631,Country Club Dr
160,34.114209,-83.433323,Old US Hwy 441/Ivy Creek Dr
185,34.233317,-83.457816,Mount Olive Way/Pine Forest Way
160,34.104316,-83.581342,M L King Jr Dr
160,34.202177,-83.468198,Roosevelt Blvd/Jefferson Rd
160,34.194521,-83.475892,Delia Dr
418,34.110401,-83.573978,Athens St
160,34.096473,-83.681371,State Rte 124 W/Skelton Rd/Buckthorn Dr
185,34.161935,-83.683552,Pine St
185,34.211734,-83.482480,Wofford Dr
418,34.116945,-83.574567,Athens St/Lee St
160,34.152835,-83.762222,Lamar Cooper Rd
160,34.151807,-83.499198,Edgefield Dr/S Apple Valley Rd/Hampton Creek
216,34.121878,-83.568548,Kissam St
185,34.238978,-83.686351,Harmony Church Rd
185,34.118924,-83.582895,Hoschton St/Skyline Dr
362,34.122535,-83.597483,Old Pendergrass Rd
160,34.207065,-83.472598,Roosevelt Blvd/Wilson Dr
216,34.131385,-83.427706,US Hwy 441
160,34.098611,-83.764284,Walnut St/W Jefferson St
185,34.100293,-83.666718,Ellington Dr/State Rte 124 W
160,34.214766,-83.585869,Horseshoe Bend
160,34.094351,-83.559233,Lakeside Ct/Lake Crest Dr
160,34.107854,-83.763739,Frances St/Harrison St/Broadway Ave
185,34.163258,-83.754276,Kinney Creek Ln
276,34.107535,-83.784141,I- 85
160,34.111607,-83.687947,Braselton Farms Trl
246,34.108712,-83.762733,State Rte 53/Wall St
160,34.092262,-83.685663,Sawtooth Oak Dr
631,34.122173,-83.583706,Hoschton St/Old Pendergrass Rd
362,34.126238,-83.736992,I- 85
185,34.207447,-83.476742,Westwood Rd
246,34.154894,-83.768956,Waterbury Ln/Chartwell Ct/Remington Park Dr
276,34.151525,-83.576716,Market Way/Village Dr
160,34.063915,-83.669263,Stephanie Ln/Gum Springs Church Rd
185,34.056824,-83.407841,Rec Dept
185,34.004060,-83.465142,Ryan Rd/Keri Ln
276,34.115733,-83.574459,Athens St
185,34.102536,-83.785949,Josh Pirkle Rd/Broadway Ave
216,34.156203,-83.759186,Edgewater Ct/Rochester Ct
334,34.121801,-83.597581,Vantage Dr/Douglas Dr
160,34.223568,-83.594742,Dixon Bridge Rd
334,34.118191,-83.579090,Mahaffey Cir/Mahaffey St
276,34.115450,-83.612148,Jefferson Walk Cir
160,34.060354,-83.544809,B Whitfield Rd
246,34.150380,-83.463053,Waterwheel Dr
160,34.046513,-83.386495,Wages Bridge Rd
246,34.129059,-83.584304,Elder Dr
160,34.077837,-83.701339,Creekside Way
216,34.195840,-83.459410,Minish Dr
160,34.149241,-83.666838,John B Brooks Rd
160,34.078983,-83.545118,Hickory Trl
185,34.184033,-83.441509,US Hwy 441
160,34.131517,-83.765033,Lagree Duck Rd
362,34.127400,-83.611004,Jasmine Dr
160,34.171924,-83.467461,Waterworks Rd
445,34.252419,-83.468871,Steven B Tanger Blvd
160,34.145279,-83.436379,US Hwy 441/Cabin Creek Rd
216,34.170561,-83.617427,I- 85
185,34.115515,-83.577708,Railroad St/Lee St
160,34.223944,-83.595063,/Dixon Bridge Rd
185,34.062845,-83.574851,Carruth Rd
160,34.106307,-83.572905,Fairlane Dr/Athens St
160,34.081073,-83.622490,Jason Pond Way
216,34.237886,-83.454767,Homer Rd
185,34.138142,-83.792342,/State Rte 53
160,34.059929,-83.544760,B Whitfield Rd
160,34.166997,-83.565983,State Rte 82
160,34.073469,-83.718906,Poplar Spring Rd
160,34.099774,-83.763932,Industrial Blvd
185,34.199371,-83.450497,S Victoria St/Williford St
160,34.107679,-83.570629,Elrod Ave/Elberta Ln
418,34.218537,-83.468592,Bolton Dr
185,34.061641,-83.509922,Potter House Rd
185,34.199411,-83.461213,Heritage Hills Dr
160,34.127674,-83.594775,Monte Ln
418,34.183346,-83.440015,Veterans Memorial Pkwy
185,34.211718,-83.482614,Maysville Rd/Wofford Dr
246,34.151060,-83.636541,US Hwy 129
160,34.035172,-83.507330,Spencer Way
160,34.171111,-83.447557,White Hill School Rd
160,34.162485,-83.607909,Story Ln
185,34.111413,-83.592239,Weaver Dr
160,34.100271,-83.676439,Clover Mill Dr
160,34.084022,-83.670877,/Whipoorwhil Cir
160,34.162183,-83.607090,Roosevelt Ct
185,34.115362,-83.432914,Old US Hwy 441/Lakeview Dr
160,34.100522,-83.663214,/State Rte 124 W
185,34.098889,-83.577598,M L K Ave
276,34.204171,-83.478594,Lathan Rd
160,34.134895,-83.794246,Thornhill Dr
216,34.036332,-83.368154,Nowhere Rd
160,34.108063,-83.566194,Peachtree Rd/Mayberry Ln
160,34.077890,-83.562033,Peppers St/Wyatt St
185,34.219991,-83.467662,Cardiology Pl
160,34.222549,-83.479893,Olive Ct/Ridgeway Church Rd
185,34.132497,-83.797773,Ivey Ct/Liberty Park Dr
160,34.207531,-83.469820,Maysville Rd/Andrew Jackson St
160,34.201050,-83.630946,Forest Lake Rd
160,34.139451,-83.537717,/Commerce Rd
160,34.173632,-83.692259,Old Gainesville Hwy
185,34.090151,-83.774233,Deer Creek Trl
160,34.103197,-83.624793,Dillon Dr/State Rte 124 W
246,34.095192,-83.612505,Jameston Dr/Colonial Ct
334,34.126954,-83.611642,Jefferson Station Rd/Lantern Dr
160,34.147939,-83.551978,Samples Rd
418,34.220935,-83.444830,W E King Rd
334,34.131886,-83.801054,Venture Ct/Gold Crest Rd
185,34.126342,-83.595841,Garner Dr/Monte Ln
185,34.193303,-83.452260,Piedmont Rd
362,34.212457,-83.532253,I- 85
216,34.100541,-83.574056,Athens St
418,34.117658,-83.762284,State Rte 53/I- 85
185,34.062197,-83.574310,Carlton Way
362,34.194078,-83.579650,I- 85
185,34.108007,-83.796583,/Baker View Ln
185,34.198714,-83.457605,/Clayton St
160,34.192902,-83.719459,US Hwy 129
1693,34.152208,-83.643473,US Hwy 129
276,34.205619,-83.478008,Westwood Dr
305,34.200491,-83.447762,Neal St/McArthur St
160,34.199585,-83.454412,College St/College Ave
185,34.255839,-83.564474,Park St/W Main St
160,34.132620,-83.796528,Ivey Ct
185,34.159100,-83.671024,US Hwy 129
276,34.200389,-83.566929,Donahoo Rd/Chandler Cemetery Rd
305,34.115941,-83.580990,Railroad St/Railroad Ave
362,34.209056,-83.541506,H D R Dr
160,34.098119,-83.573224,Athens Hwy/Center Way
445,34.129878,-83.699716,I- 85
160,34.127619,-83.594193,Elizabeth Way
185,34.032754,-83.402066,Commerce Rd
185,34.151060,-83.637028,US Hwy 129
185,34.139998,-83.579210,Oak Ridge Dr
276,34.188613,-83.590314,I- 85
160,34.111266,-83.769492,Jesse Cronic Rd
216,34.104586,-83.695680,Founders Hope Way/State Rte 124 W
334,34.205039,-83.464549,Andy St/Andy Ct
305,34.206037,-83.483293,/Wilson Garage Rd
246,34.224570,-83.511309,I- 85
160,34.217105,-83.530023,Edwin Reynolds Rd
246,34.148293,-83.651133,I- 85
185,34.183932,-83.463236,Smallwood Dr
552,34.122694,-83.763810,State Rte 53
185,34.110168,-83.799415,Charlie Smith Rd
276,34.134637,-83.596011,Washington St
246,34.123651,-83.751762,Brookstone Trl
160,34.156224,-83.671412,Jackson Concourse
185,34.019052,-83.515337,Lebanon Church Rd
185,34.119435,-83.575145,Washington St/Church St
305,34.121763,-83.579697,School Rd/Old Pendergrass Rd
160,34.207437,-83.469083,Brookwood Ave
216,34.209579,-83.455913,Baugh St
160,34.037092,-83.506598,/Brock Rd
185,34.128008,-83.427940,US Hwy 441
160,34.152459,-83.582415,Jett Roberts Rd/Village Dr
185,34.086327,-83.745481,State Rte 53/Jackson Trail Rd
160,34.127680,-83.587497,Holders Siding Rd
418,34.208406,-83.464094,Park St/Troy St
185,34.134212,-83.760000,Kelly Ct
160,34.238466,-83.512983,Maysville Rd
160,34.113742,-83.433511,Old US Hwy 441
185,34.091203,-83.713602,Hunter Dr
160,34.146806,-83.464390,Hoods Mill Rd
185,34.186763,-83.590695,Horace Head Rd
246,34.191153,-83.454020,Cobblestone Ct
185,34.066990,-83.721259,Cherokee Trl/Indian Creek Way
276,34.080764,-83.564299,Martin Ln
160,34.061823,-83.518917,Burley Pl/Athens Hwy
160,34.172977,-83.574118,Woodland Ter
334,34.123107,-83.605056,US Hwy 129/Old Pendergrass Rd
160,34.111429,-83.687122,Braselton Farms Dr/Braselton Farms Trl
160,34.242639,-83.557802,Hwy 82 Spr
160,34.185083,-83.441492,S Elm St
631,34.227812,-83.498550,Maysville Rd
160,34.203790,-83.475599,Lathan Rd/Due North Ct
185,34.198389,-83.453605,New St/Scott St
160,34.116668,-83.796506,Jessie Cornic Rd/Cronic Cir
185,34.150785,-83.631121,US Hwy 129
499,34.203380,-83.456127,Wilhard St
160,34.117474,-83.795890,New Liberty Church Rd
276,34.203937,-83.464193,Jefferson St/Hood St
276,34.214965,-83.461029,Bennett St/Homer Rd
160,34.126078,-83.467158,Waterworks Rd/Courtland Rd
185,34.112751,-83.605115,Wood Duck Pointe
160,34.073245,-83.386381,State Rte 334
305,34.167427,-83.570445,Lake Ct
160,34.134338,-83.796626,New Liberty Church Rd
160,34.053464,-83.417620,Commerce Rd
185,34.211895,-83.445358,/State St
160,34.065218,-83.568616,State Rte 82
160,34.184947,-83.589817,Hog Mountain Rd/Dry Pond Rd
160,34.144413,-83.603044,Storey Ln
160,34.193540,-83.466326,Dogwood Trl
246,34.096709,-83.761157,E Broad St/1st Ave
334,34.132686,-83.682384,I- 85
160,34.244997,-83.552927,Maysville Rd
276,34.096667,-83.761401,E Broad St/Railroad Ave
185,34.217459,-83.460135,Homer Rd
160,34.125117,-83.689422,Plum Ct/Stone Creek Dr
160,34.178859,-83.485917,Jefferson Rd
418,34.119075,-83.756983,I- 85
160,34.052370,-83.470664,Jefferson River Rd
216,34.201035,-83.454520,Cross Over St/S Broad St
160,34.165529,-83.611601,Hog Mountain Rd/Storey Ln
185,34.092220,-83.691373,Traditions Way
160,34.176655,-83.586739,Jett Roberts Rd
160,34.214959,-83.435606,Old Carnesville Rd
362,34.129165,-83.585833,Washington St
390,34.121084,-83.763279,State Rte 53
160,34.073553,-83.448818,/Old Kings Bridge Rd
185,34.128535,-83.765189,Lagree Duck Rd
216,34.130458,-83.610122,US Hwy 129
216,34.210046,-83.447760,State St/Thomas Dr
185,34.103807,-83.695159,Julia Ln/State Rte 124 W
185,34.112108,-83.686996,Skelton Rd
276,34.123869,-83.750288,Summerbrook Rd
246,34.077199,-83.629660,Robin Way/Thrasher Ln
160,34.235563,-83.507075,Maysville Rd
185,34.110845,-83.711460,Boone Rd/State Rte 124 W
334,34.229646,-83.500232,I- 85
160,34.235707,-83.507371,Maysville Rd
276,34.116428,-83.766109,I- 85
160,34.091509,-83.702369,Fairways Ln
160,34.148742,-83.438598,Hoods Mill Rd/Harris Lord Cemetery Rd/US Hwy 441
185,34.118284,-83.754924,Zion Church Rd
160,34.115641,-83.590989,Lynn Ave/Ol D Swimming Pool Rd/Longview Dr/Memorial Dr
185,34.209685,-83.448092,State St/Highland Est
246,34.119821,-83.583130,Hoschton St/Dragon Dr
246,34.115382,-83.586401,Park Dr
160,34.133321,-83.428522,Smith Overhead Bridge Rd
185,34.078752,-83.702748,Creekside Way/Sanctuary Way
216,34.219841,-83.467248,Hospital Rd/Preston Ct
276,34.047262,-83.497154,J T Elrod Rd/Jefferson Rd
185,34.175465,-83.604562,/Hog Mountain Rd
160,34.083429,-83.689563,Cleveland Ct/Mill Pond Rd
185,34.198538,-83.442086,Wildcat Ln/Hillcrest St
276,34.199113,-83.452849,S Elm St/Scott St
185,34.111242,-83.795528,Bakers Farm Cir
276,34.198524,-83.446179,Ash St/Willow St
418,34.207833,-83.546003,H D R Dr
216,34.192113,-83.458119,Millwood Dr
160,34.108313,-83.796365,Baker View Ln
160,34.053609,-83.682510,Old Collins Rd
526,34.111341,-83.586132,Lee St/Oak Ave
160,34.121260,-83.432219,Memorial Dr
160,34.112204,-83.614327,Suwannee Way
160,34.165875,-83.588737,Shoreline Dr
185,34.187659,-83.614523,Wayne Poultry Rd
185,34.123852,-83.755588,Blanc Ct/Blanc Way
246,34.124932,-83.684004,Creek Nation Rd
160,34.214803,-83.463654,Cedar Dr
185,34.095970,-83.673122,/Doster Rd
710,34.248489,-83.475689,Steven B Tanger Blvd
362,34.121158,-83.410260,Steeplechase Rd/Jim David Rd
185,34.151119,-83.637598,US Hwy 129
216,34.081091,-83.566640,Holders Dr
160,34.172732,-83.681562,US Hwy 129 N
216,34.105631,-83.762030,State Rte 53
216,34.154741,-83.785628,Davenport Rd
246,34.186644,-83.475590,Commerce Middle School
160,34.098087,-83.753416,Legacy Dr/Penny Ln
160,34.240136,-83.520557,/Maysville Rd
185,34.088230,-83.754112,State Rte 53/Jopena Blvd
160,34.098643,-83.573619,M L K Ave
160,34.105172,-83.475304,Standridge Rd
185,34.239897,-83.456055,Homer Rd
160,34.115056,-83.588491,Park Dr
276,34.122464,-83.591790,Wildwood Pl/Old Pendergrass Rd
160,34.165345,-83.613183,Hog Mountain Rd
185,34.097010,-83.760320,E Broad St/Broad St/Oak St
216,34.120400,-83.431935,Memorial Dr/Crest St
160,34.146096,-83.506671,Elliot Smith Rd
185,34.088778,-83.581969,Jefferson Byp
276,34.153242,-83.658728,US Hwy 129
246,34.137592,-83.431537,Herman Dr/US Hwy 441
185,34.123240,-83.610655,Cornish Way/Jefferson Station Rd
185,34.182151,-83.385570,Wilson Cemetery Rd
185,34.207000,-83.450507,State St/Wood St
526,34.119409,-83.600510,Fountainhead Dr/Melvin Dr
185,34.133265,-83.594263,Washington St
418,34.206522,-83.465310,/Washington St/N Elm St
160,34.044063,-83.533884,Riley Rd
390,34.121694,-83.596236,Vantage Dr/Courtland Dr
216,34.106360,-83.572008,Fairlane Dr
305,34.218407,-83.469691,Bolton Dr
185,34.217131,-83.460383,Homer Rd/Cedar Rd
160,34.130990,-83.726671,Scenic Falls Blvd/Meadow Lake Ter
160,34.208173,-83.638794,Holly Springs Rd
160,34.060715,-83.420846,US Hwy 441
305,34.112926,-83.584690,Hill Top Dr/Lee St
216,34.130343,-83.799225,Gold Crest Rd
246,34.243701,-83.480202,Ridgeway Church Rd
246,33.982946,-83.508738,Marko Dr
185,34.128101,-83.772712,Ednaville Cir/Ednaville Pl
185,34.196161,-83.472379,Jefferson Rd/Jefferson St
246,34.165779,-83.449608,Fayte Baxter Rd
160,34.104636,-83.581215,M L King Jr Dr
185,34.142157,-83.694052,Reece Dr
216,34.189411,-83.588857,I- 85
305,34.115283,-83.600027,US Hwy 129
160,34.085586,-83.548497,Davis Rd
276,34.202121,-83.561741,I- 85
246,34.126932,-83.586315,Holders Siding Rd
160,34.225509,-83.496825,Maysville Rd/Gordon Farm Rd
362,34.132672,-83.788113,Jackson Ave
160,34.221593,-83.443431,W E King Rd
390,34.206920,-83.465176,/N Broad St
160,34.128633,-83.764142,Kings Ln
185,34.213012,-83.483719,Maysville Rd
185,34.182192,-83.712179,Main St/US Hwy 129/US Hwy 129 N
216,34.147349,-83.426292,Richard Bridges Rd/Harris Lord Cemetery Rd/Bolton Gordon Rd
160,34.086896,-83.660877,Jackson Trail Rd/Lewis Roberts Rd
160,34.058093,-83.551769,Melvin Phillips Rd
160,34.194746,-83.549180,Old Woods Bridge Rd/Harrison Ln
445,34.203250,-83.456264,S Broad St
160,34.187036,-83.595611,Bill Wright Rd/Holly Springs Rd
160,34.060524,-83.689879,Old Collins Rd
160,34.113408,-83.544072,Brockton Rd/Brockton Oaks Dr
160,34.120762,-83.789689,Whitney Trce/Ednaville Rd
246,34.234558,-83.458185,Richmond Way
185,34.065603,-83.542448,Athens Hwy
160,34.119053,-83.741869,Zion Church Rd
160,34.151516,-83.766023,Lamar Cooper Rd/Davenport Rd
185,34.222378,-83.536211,Wheeler Cemetery Rd
160,34.127228,-83.695269,Stoneview Dr
276,34.207974,-83.471777,Maysville Rd
305,34.134970,-83.789061,Hancock Ave
160,34.185434,-83.464683,Waterworks Rd
160,34.062294,-83.560690,Windy Hill Rd
185,34.118044,-83.686357,Summerhill Dr
445,34.169506,-83.619318,I- 85
246,34.074830,-83.686216,Saddle Trl
160,34.093845,-83.611516,Manchester Ln
160,34.093531,-83.610530,Winder Hwy
185,34.199351,-83.442857,Nunn St/Hillcrest St
160,34.186513,-83.718997,Talmo Trl
185,34.118686,-83.751347,Zion Church Rd
160,34.091623,-83.585094,Galilee Church Rd
185,34.116712,-83.796849,New Cut Rd/Thompson Mill Rd/Jessie Cornic Rd
246,34.252984,-83.561738,Short St/W Main St
160,34.066315,-83.550221,Jefferson Byp
185,34.056746,-83.421841,New Kings Bridge Rd
160,34.119398,-83.569444,Commerce Rd
305,34.208753,-83.477113,Maysville Hwy
160,34.126570,-83.589664,Mill Rd
185,34.169528,-83.678604,US Hwy 129
185,34.227373,-83.505267,I- 85
390,34.154576,-83.643645,/I- 85
160,34.194392,-83.475236,Delia Dr
160,34.128031,-83.765518,State Rte 53/
305,34.101205,-83.792833,I- 85
185,34.108632,-83.432934,Daisy Ln
160,34.089407,-83.757979,State Rte 53/Peachtree Rd
216,34.196949,-83.447628,Willow St
390,34.116147,-83.579285,Railroad St/Elm St
185,34.127758,-83.763554,Kings Dr
185,34.207166,-83.454928,Laura Ln
246,34.202607,-83.456321,Pine St/S Broad St
160,34.104780,-83.581157,M L King Jr Dr
160,34.171810,-83.724159,Mountain Creek Church Rd
160,34.128512,-83.588814,Holders Siding Rd
185,34.194045,-83.426457,Ila Rd
526,34.217152,-83.467234,Lindsey Ct
160,34.238655,-83.513488,Maysville Rd
246,34.145859,-83.655308,I- 85
160,34.164606,-83.444570,Rob Belue Rd/US Hwy 441
334,34.118543,-83.585464,Skyline Dr/Belmont St
160,34.110471,-83.614118,Soque Cir/Savannah Dr
160,34.113451,-83.604452,Jeffco Dr
246,34.203134,-83.466246,Jefferson St/University Dr
160,34.121536,-83.430490,Old US Hwy 441/Cedar Dr
185,34.112640,-83.432271,Mulberry St
160,34.215044,-83.486864,Fleet Industrial Pkwy
185,34.116256,-83.720910,State Rte 60/State Rte 124 W
185,34.185121,-83.721056,Kinney Ave/A J Irvin Rd/Main St
185,34.200435,-83.441707,Nunn St
185,34.069793,-83.551036,Athens Hwy
160,34.141916,-83.698193,Emerald Allie
160,34.129998,-83.595680,Holders Siding Rd
216,34.116949,-83.583179,Cobb St/McKensie Ave
160,34.066137,-83.549426,Tyler Way/Jefferson Byp
185,34.112117,-83.687118,Braselton Farms Dr/Skelton Rd
362,34.211340,-83.448514,Amber Pl/Katie Ln
160,34.172020,-83.467463,Waterworks Rd/Sheep Pasture Rd/White Hill School Rd
185,34.126554,-83.764100,Johnson Dr
216,34.153363,-83.779848,/Cooper Bridge Rd/Davenport Rd
160,34.141499,-83.712986,River Chase/Settlers Pointe
216,34.202078,-83.461061,Clayton St/Georgia Ave
334,34.204204,-83.459536,Georgia Ave/Little St
160,34.207164,-83.472929,Roosevelt Blvd
160,34.128119,-83.588192,Holders Siding Rd
185,34.179562,-83.442435,US Hwy 441
185,34.076557,-83.560662,Parr St/Athens Hwy
185,34.210819,-83.466835,Carson St
185,34.117687,-83.587989,Skyline Dr
160,34.146506,-83.550736,Samples Rd
160,34.137164,-83.370409,Erastus Church Rd
160,34.220907,-83.466615,Hospital Rd
246,34.084340,-83.741402,Pearl Industrial Ave
185,34.193067,-83.459350,Waterworks Rd/Scott St/Sam Brown Blvd
160,34.098729,-83.635074,Amberstone Ct/Meadowcreek Dr/Birch Field Dr
160,34.002343,-83.474830,Fuller Rd/Griffeth Rd
334,34.138780,-83.723640,State Rte 60/River Chase
246,34.202973,-83.457868,Central Ave/Little St
160,34.120864,-83.430757,Old US Hwy 441/Crest St
160,34.141067,-83.573745,Sugar Leaf Ln/Cypress Pl
276,34.142413,-83.661355,I- 85
185,34.091686,-83.685421,Pinoak Cir/Sawtooth Oak Dr
160,34.208305,-83.473328,Roosevelt Blvd/Maysville Rd/Maysville Hwy
160,34.065132,-83.451908,New Kings Bridge Rd
216,34.229679,-83.454354,Homer Rd
362,34.198856,-83.460389,Willoughby Homes
185,34.103288,-83.698726,Old Glory Ct
1020,34.117488,-83.573405,Commerce Rd/Washington St/Gordon St/Lee St
334,34.120862,-83.610140,Jefferson Walk Cir/Birchmore Trl
276,34.069355,-83.697610,Maple Leaf Ct
185,34.248940,-83.468841,Haggard Rd
160,34.240180,-83.520817,Maysville Rd
185,34.197131,-83.472003,Jefferson Rd/Jefferson St
216,34.128945,-83.765079,Lagree Duck Rd
246,34.146648,-83.461580,Hoods Mill Rd
160,34.242592,-83.478996,Haggard Rd
305,34.248300,-83.567479,Freeman Dr
185,34.166805,-83.684297,Davis Ln
160,34.178139,-83.606183,I- 85
160,34.083958,-83.694589,Duncans Mill Ln
160,34.221445,-83.469585,Hillcrest Dr
362,34.218981,-83.467724,Hospital Rd
160,34.144279,-83.602950,Storey Ln
160,34.139102,-83.488936,/S Apple Valley Rd
160,34.094935,-83.571264,/Athens Hwy
185,34.185386,-83.409726,Tuxedo Dr
246,34.047404,-83.496551,J T Elrod Rd
185,34.233670,-83.457329,Pine Forest Way/Pine Cone Trl
185,33.987485,-83.540307,Providence Rd
160,34.141734,-83.712719,River Chase
246,34.115373,-83.586954,Park Dr/Longview Dr
160,34.096418,-83.600379,Adella Ln/Adella Dr
185,34.196442,-83.455928,Scott St
216,34.105148,-83.572700,Harris Ln/Athens St
276,34.202139,-83.456877,Pine St/Little St
160,34.070434,-83.575341,Woodland Dr/Woodland Hills Dr
246,34.098801,-83.432117,Old US Hwy 441
160,34.076833,-83.574685,Arcade Park St
185,34.133437,-83.594485,Washington St
160,34.145911,-83.537969,Daves Farm Rd/County Farm Rd
160,34.210857,-83.446402,Thomas Dr
185,34.238042,-83.511939,Maysville Rd
305,34.187474,-83.443310,S Elm St
362,34.203087,-83.449620,Shankle Hts/Williford St
472,34.119045,-83.763798,Exchange Way
185,34.107517,-83.433533,Old US Hwy 441/Daisy Ln
246,34.109972,-83.588309,Winder Hwy
185,34.037881,-83.402183,Commerce Rd/Jarret Rd/Richmar Rd
185,34.113774,-83.429375,Willard Pittman Dr/Sanford Dr
160,34.197077,-83.432178,Veterans Memorial Pkwy
160,34.091512,-83.698622,Shady Creek Ct/Mulberry Greens Ln
160,34.216216,-83.458630,Winter Creek Way/Winte Creek Way
216,34.201134,-83.624474,Bunt Ln/Emily Forest Way
160,34.072091,-83.386432,State Rte 334
246,34.085224,-83.579062,Jefferson Byp
160,34.151030,-83.631794,US Hwy 129
160,34.270741,-83.624210,/Diamond Hill Church Rd
160,34.198224,-83.540241,Crystal Ln
160,34.162566,-83.678217,Railroad St/Glenn Gee Rd/Smith Bridge St
160,34.219150,-83.444719,W E King Rd
160,34.116445,-83.745741,State Rte 124 W
185,34.072772,-83.470115,Kings Ridge Dr/Woods Edge Dr
160,34.059010,-83.544661,B Whitfield Rd
160,34.077134,-83.681165,Saddle Trl/Gum Springs Church Rd
216,34.048105,-83.497586,Jefferson Rd
160,34.079257,-83.717281,Elmwood Rd
185,34.071236,-83.564994,/Jefferson Byp
160,34.103700,-83.591669,Crows Lake Cir
185,34.107113,-83.566047,Kelly Ln/Fairfield Dr
160,34.142443,-83.625619,Academy Woods Dr
160,34.105688,-83.704486,/Prestwick Dr
160,34.213957,-83.458154,/M L King Jr Dr
160,34.112142,-83.428291,Willard Pittman Dr
362,34.194534,-83.579323,I- 85/Plainview Rd
160,34.127401,-83.677380,Kendall Creek Dr/Old Pendergrass Rd
305,34.109338,-83.573701,Jefferson Ter/Athens St
160,34.248582,-83.483809,Ridgeway Church Rd
305,34.203252,-83.455312,Bowden St
526,34.152396,-83.645860,I- 85/US Hwy 129
160,34.098635,-83.573409,Jack Little Rd/Athens Hwy/Athens St/M L K Ave
160,34.141470,-83.621379,Academy Woods Dr
216,34.196242,-83.464826,Lakeview Dr/Glenloch Way
160,34.254299,-83.568587,College St
160,34.115643,-83.429820,Old Athens Rd/Lakeviewdrive/Mulberry St
160,34.122952,-83.783701,Nick Duck Rd/Ednaville Rd
216,34.079812,-83.690365,Traditions Way/Saddle Creek Dr
160,34.083737,-83.690228,Cleveland Ct
160,34.161077,-83.674416,Old Gainesville Hwy/Perdue Ln/US Hwy 129
276,34.208542,-83.462402,Homer Rd/Troy St
246,34.200048,-83.453853,S Elm St/College Ave
276,34.208019,-83.471643,Old Maysville Rd
160,34.136250,-83.667457,Seattle Slew Walk
160,34.177931,-83.605888,Otis Holman Rd
216,34.127261,-83.596408,Garner Dr
160,34.175284,-83.685972,US Hwy 129 N
185,34.125945,-83.764846,State Rte 53
160,34.108197,-83.579351,M L King Jr Dr
334,34.230353,-83.498676,I- 85
276,34.096643,-83.761536,E Broad St/State Rte 53/Lloyd Lott Ave/W Broad St
216,34.110051,-83.453393,Brockton Rd/Waterford Cove
185,34.114505,-83.431536,Broad St
160,34.202401,-83.470667,Hazel St
631,34.052242,-83.564642,State Rte 82/McCreery Rd
185,34.166261,-83.502869,Jefferson Rd/Hawkins Shed Rd
362,34.119835,-83.598784,Melvin Dr/Thornhill Ct
216,34.249092,-83.567438,Freeman Ct/Freeman Dr
472,34.208132,-83.546118,I- 85
160,34.061692,-83.511123,Athens Hwy
305,34.115984,-83.769452,I- 85
160,34.168179,-83.569597,Hidden Lakes Trl/Lake Ct
160,34.063709,-83.481942,Ashley Ln
160,34.108637,-83.603331,Roddy Duck Dr
160,34.079074,-83.569632,Arcade Park St
334,34.203491,-83.457313,S Broad St/Central Ave
185,34.096566,-83.604686,Winder Hwy
160,34.186608,-83.532492,/Apple Valley Rd
185,34.221642,-83.466175,Hospital Rd
216,34.182563,-83.439334,Y E Bolton Rd
185,34.060065,-83.428775,Shilo Rd/New Kings Bridge Rd
160,34.200580,-83.631063,Forest Lake Rd
160,34.068464,-83.568756,State Hwy 82 S
160,33.973792,-83.525380,Eric Way/Annes Ct/Robbie Run
160,34.108226,-83.553039,Redtail Rd
160,34.105958,-83.706035,/Southampton Cir/Kali Ct
160,34.124199,-83.693198,Creek View Dr/Boulder Crst
160,34.233039,-83.457569,Mount Olive Rd/Mount Olive Way
185,34.107486,-83.433227,Daisy Ln
160,34.196219,-83.449663,New St/S Broad St
160,34.129552,-83.796445,Prospectors Ct/Miners Way
160,34.118754,-83.448723,Hawks Ct/J S Williamson Ct
160,34.084620,-83.762770,Peachtree Rd/Pheasant Run
160,34.091252,-83.427610,Old US Hwy 441
390,34.212694,-83.532416,I- 85
334,34.111064,-83.778679,I- 85
334,34.230364,-83.498651,I- 85/Lam Hardman Rd
160,34.094051,-83.692430,Old Hickory Ct/Traditions Way
160,34.092322,-83.562203,Sterling Lake Dr
185,34.236441,-83.453844,Homer Rd
216,34.151227,-83.638114,US Hwy 129
839,34.118110,-83.573890,Washington St/South Ave
160,34.179412,-83.639034,Bonnie Valentine Way/Possum Creek Rd
185,34.221392,-83.474866,Brentwood Dr/Arlington Ln/Huntington Ln
216,34.099961,-83.597707,Winder Hwy
216,34.131093,-83.766517,State Rte 53
160,34.072493,-83.567449,Old 82 Rd
658,34.116579,-83.762280,State Rte 53/Green St
160,34.118774,-83.750247,Zion Church Rd
160,34.064628,-83.669661,Gum Springs Church Rd
246,34.073747,-83.557543,Athens Hwy/Jefferson Byp
216,34.214796,-83.468619,Ridgeway Dr
334,34.155722,-83.641783,I- 85
334,34.218391,-83.470035,Bolton Dr
185,34.108228,-83.762671,State Rte 53/Frances St/Lakeshore Dr
160,34.106316,-83.635357,/State Rte 124 W
246,34.105817,-83.577444,Magnolia Ave
160,34.184906,-83.478757,Jefferson Rd
160,34.077464,-83.710927,Jackson Trail Rd
160,34.248529,-83.560235,Sims St/Hoke St
185,34.097712,-83.601311,Winder Hwy/Adella Dr
160,34.099789,-83.573297,Carriage Ave
216,34.212120,-83.483032,Maysville Rd/Woods Bridge Rd
276,34.136755,-83.666335,Secretariat Ln/Citation Way
160,34.178948,-83.709156,Lois Ln
445,34.121434,-83.750976,I- 85
160,34.007644,-83.464370,/Jefferson Rd
160,33.999339,-83.470132,Fuller Rd/John Collier Rd
276,34.125658,-83.584266,Brockton Nixon Rd
160,34.026653,-83.453480,Westminster Dr/Bexley Heath Dr
276,34.118676,-83.574352,Washington St/North Ave
185,34.091471,-83.585982,Galilee Church Rd
216,34.108591,-83.567067,Oak Ln/Peachtree Rd
160,34.122628,-83.404777,G W Wilson Rd
305,34.113099,-83.589636,Duke St/Johnson St
160,34.093916,-83.612096,Haddington Ct/Manchester Ln
185,34.252602,-83.560937,Beaver Swamp Rd/N Main St
185,34.128442,-83.765654,State Rte 53/
362,34.214861,-83.460488,Bennett St/Cross St
216,34.214945,-83.468876,Carson St/Ridgeway Dr
160,34.146340,-83.395064,State Rte 334/Berea Church Rd/Groaning Rock Rd
160,34.231101,-83.521476,Wheeler Cemetery Rd
160,34.237711,-83.511145,Maysville Rd
185,34.099097,-83.762708,Main St/W Jefferson St
160,34.119546,-83.491717,Brockton Rd
246,34.119622,-83.583075,Lawrenceville St/Hoschton St
160,34.077621,-83.607157,W H Hayes Rd/Galilee Church Rd
305,34.216217,-83.471351,Lewis Cir/Louise Dr
185,34.200442,-83.441769,Nunn St
246,34.213127,-83.442525,State St/Old Carnesville Rd
160,34.090691,-83.762087,White St
160,34.084693,-83.684154,Old Traditions Pl/Gum Springs Church Rd
160,34.054276,-83.571996,Hunter Rd
305,34.099447,-83.598495,Winder Hwy
276,34.110687,-83.706127,Emma Cir
216,34.106744,-83.573017,Magnolia Ave/Athens St
160,34.249299,-83.549453,Meadow Lark Way
305,34.081237,-83.696397,Pear Grove Ct
185,34.088751,-83.426097,Old US Hwy 441
216,34.199520,-83.441239,Wildcat Ln
160,34.066653,-83.455207,New Kings Bridge Rd
185,34.096773,-83.615020,Myles Cir/Sandstone Trl
160,34.206063,-83.444732,Wood St
160,34.181463,-83.589746,Jett Roberts Rd
160,34.215000,-83.456816,Crestwood Cir/Kerryann Way
185,34.141959,-83.795422,State Rte 53/New Liberty Church Rd/Old Winder Hwy
334,34.138793,-83.723507,River Chase
160,34.160868,-83.568759,Ivey Ln/Spratlin Dr
160,34.053370,-83.415899,Old Commerce Exd
160,34.062145,-83.560833,Windy Hill Rd
160,34.234758,-83.551977,Hwy 82 Spr/Wheeler Creek Rd
160,34.146912,-83.494866,/S Apple Valley Rd
362,34.212606,-83.532599,I- 85
185,34.122758,-83.615486,Old Swimming Pool Rd/Old Pendergrass Rd
185,34.160469,-83.594741,Pottersville Ct/Bailey Dr
160,34.209158,-83.479012,Maysville Hwy/Westview Rd
276,34.205143,-83.552395,Hwy 82 Spr/H D R Dr
276,34.122786,-83.750727,Brookstone Trl/Woodvale Cir
160,34.048809,-83.407363,State Rte 334/Commerce Rd
160,34.192432,-83.459995,Waterworks Rd
160,34.205567,-83.451126,Harber St/N Bowden St/Elizabeth St
276,34.137966,-83.431772,US Hwy 441
160,34.149857,-83.593668,Storey Porter Rd/Storey Meadows Dr
185,34.125289,-83.453210,Cabin Creek Dr/Staghorn Trl
160,34.206275,-83.456719,View St
216,34.212938,-83.587096,Silver Spur Way/Silver Dollar Rd
160,34.196547,-83.447682,Spring St
160,34.116731,-83.564631,Danielsville St
160,34.117262,-83.437589,Pine Ridge Pl/Ivy Creek Dr
160,34.146433,-83.395205,State Rte 334/Swain Rd
185,34.088155,-83.423154,Watkins Farm Rd/Old Athens Dr
160,34.075453,-83.571786,Jefferson Byp
160,34.135980,-83.430634,/Wilbanks Cir
472,34.151637,-83.646773,I- 85
305,34.188419,-83.590102,I- 85
246,34.121793,-83.591253,Melvin Dr
160,34.153977,-83.678566,State Rte 332/Brooks Loop
788,34.151389,-83.641248,New Salem Church Rd
216,34.209579,-83.480545,B Wilson Rd
160,34.077743,-83.562150,Athens Hwy/Wyatt St
185,34.150372,-83.595249,Jameson Ct
160,34.120827,-83.573767,Martin St/Cooley Ave
362,34.126489,-83.734212,I- 85
185,34.204897,-83.462649,Jefferson St/Little St Exd
185,34.132801,-83.569858,Jimmy Reynolds Dr/Tyler Cir
160,34.080013,-83.565880,Arcade Park St/Holders Dr
276,34.135891,-83.588567,Jett Roberts Rd
305,34.195755,-83.548651,Edgar Dr
160,34.104376,-83.581318,M L King Jr Dr
216,34.197904,-83.448737,Spring St/Rice St
185,34.154514,-83.442311,Richey Rd/US Hwy 441
185,34.069923,-83.698258,Maple Leaf Ct
276,34.082342,-83.696085,Pear Grove Ct
160,34.101530,-83.761830,State Rte 53
246,34.116688,-83.766438,/I- 85
160,34.174770,-83.684556,US Hwy 129 N
185,34.083177,-83.647705,Hope Meadows Dr
160,34.229044,-83.497814,Lam Hardman Rd
160,34.151748,-83.766244,Wildflower Rd/Davenport Rd
185,34.154168,-83.784546,Davenport Rd
160,34.219649,-83.490469,Maysville Rd
185,34.117698,-83.583563,Lynn Ave/Cobb St
216,34.093714,-83.671299,Populat Springs
246,34.194373,-83.449609,King St/Piedmont St
362,34.204581,-83.459289,Georgia Ave/N Elm St
160,34.189863,-83.406081,Ila Rd
246,34.211939,-83.461052,Avery Ct/M L King Jr Dr
246,34.208946,-83.466971,Forest Ave/Troy St
160,34.060584,-83.420079,US Hwy 441
160,34.182863,-83.485564,B Wilson Rd
160,34.143128,-83.674984,State Rte 332
246,34.140297,-83.664510,Lewis Sailors Rd
160,34.215455,-83.457404,Kerryann Way
185,34.219130,-83.537734,Wheeler Cemetery Rd/Bana Industrial Blvd
160,34.125630,-83.564274,Commerce Rd
160,34.153255,-83.780558,Lingerfelt Ln/Davenport Rd
160,34.208903,-83.454608,Baugh St
216,34.046260,-83.496786,Jefferson Rd
362,34.126723,-83.734297,I- 85
160,34.061365,-83.423498,Shilo Rd/US Hwy 441
185,34.165982,-83.575571,Hidden Lake Rd
185,34.127172,-83.586695,Holders Siding Rd
185,34.209833,-83.480490,King Rd/Maysville Rd/B Wilson Rd
160,34.155066,-83.665059,US Hwy 129
334,34.229110,-83.500694,I- 85
160,34.107214,-83.760042,E Lake Dr/Lakeshore Cir
160,34.089332,-83.762049,Quail Run
160,34.104334,-83.761751,State Rte 53
246,34.197949,-83.445746,Ash St/Nunn St
185,34.213680,-83.458946,Cross St/M L King Jr Dr
185,34.119659,-83.596133,Melvin Dr
160,34.101600,-83.677792,Tipperary Ct/Shamus Way
246,34.231827,-83.451231,Veterans Memorial Pkwy/Purcell Rd
185,34.170234,-83.679235,Village Pkwy/Wayne Poultry Rd/US Hwy 129/US Hwy 129 N
160,34.130272,-83.719797,State Rte 60
305,34.090058,-83.718607,Downing St/Addenbrooke Way
216,34.257992,-83.493753,Ridgeway Church Rd
305,34.122862,-83.607985,Old Pendergrass Rd
216,34.202923,-83.460475,Ivey St/Georgia Ave
185,34.129148,-83.589899,Holders Siding Rd/Monte Ln
160,34.255181,-83.563585,Bacon St/W Main St
216,34.114886,-83.581539,/Cobb St
246,34.240629,-83.456511,Homer Rd/Beck Rd
185,34.116988,-83.593675,Bryanwood Dr
160,34.105640,-83.764402,Henry St
160,34.095189,-83.766279,Cabin Dr/W Broad St
246,34.125685,-83.583944,Washington St/Brockton Nixon Rd
160,34.120558,-83.438090,Daffodil Ct
216,34.203759,-83.469370,Roosevelt Blvd/Hazel St
246,34.198226,-83.459250,Waterworks Rd
185,34.098883,-83.763446,White St/W Jefferson St/Industrial Blvd
185,34.224973,-83.534971,Wheeler Cemetery Rd
246,34.084426,-83.578470,Jefferson Byp
160,34.203773,-83.446290,Shankle Hts/Belmont St
185,34.097795,-83.528434,Valley Dr
160,34.209125,-83.639134,/Holly Springs Rd
185,34.159134,-83.672605,Railroad St
185,34.019385,-83.516207,Lebanon Church Rd
362,34.215099,-83.459719,Bennett St
216,34.217580,-83.545831,Hwy 82 Spr/Hurricane Shoals Rd
160,34.097365,-83.603140,River Walk Ln
160,34.098922,-83.599347,Winder Hwy
305,34.127073,-83.725935,I- 85
160,34.113760,-83.815203,Thompson Mill Rd
160,34.055621,-83.500945,New Kings Bridge Rd
185,34.201438,-83.459796,Clayton St/Central Ave
160,34.127219,-83.776517,Etsel Ln
185,34.260693,-83.478790,State Rte 184/E Edgway Rd
246,34.214220,-83.459355,M L King Jr St
160,34.050115,-83.408808,Commerce Rd/Old Hwy 441/Old Commerce Exd
276,34.120427,-83.753545,I- 85
185,34.109927,-83.593446,Loom Ct/Spinner Dr
276,34.120651,-83.764318,Exchange Way
246,34.209022,-83.480666,B Wilson Rd
185,34.099743,-83.582903,M L King Jr Dr
160,34.128120,-83.762018,Johnson Dr/Kings Dr
185,34.128252,-83.776436,Etsel Ln/Clarks Pl
276,34.118544,-83.758331,I- 85
185,34.097102,-83.759996,Broad St
185,34.087932,-83.567382,Athens Hwy
160,34.073981,-83.716342,Poplar Spring Rd
362,34.204187,-83.458182,Unnammed St/N Broad St
736,34.205770,-83.462362,Jefferson St/N Elm St
160,34.232407,-83.458753,Mount Olive Rd
185,34.116079,-83.720609,Sam Freeman Rd/State Rte 124 W
305,34.114788,-83.574375,Park Ave/Athens St
246,34.128756,-83.585274,Washington St/Elder Dr
160,34.127029,-83.617911,Summerfall Trl
185,34.122867,-83.616011,Old Pendergrass Rd
216,34.148423,-83.650940,I- 85
334,34.180052,-83.603255,I- 85
160,34.212409,-83.643818,Pond Fork Church Rd
185,34.120201,-83.571694,Clay Dr/Storey St
362,34.112126,-83.777678,I- 85/Jesse Cronic Rd
160,34.134255,-83.627376,Benton Rd
160,34.109778,-83.571534,Fairfield Dr/Gordon St
160,34.158223,-83.765604,Berkley Ln
185,34.096146,-83.676494,Clover Mill Dr/State Rte 124 W
185,34.144748,-83.576702,Silver Bell Rd
160,34.194447,-83.459309,Waterworks Rd
305,34.203287,-83.457525,S Elm St/N Elm St/Central Ave
160,34.100185,-83.580652,Ivey St
160,34.187355,-83.447846,Smallwood Dr
160,34.208958,-83.639085,/Holly Springs Rd
160,34.125139,-83.429070,US Hwy 441 S/US Hwy 441
246,34.112743,-83.598487,US Hwy 129/Old Swimming Pool Rd
160,34.178826,-83.588121,Jett Roberts Rd
276,34.081813,-83.564873,Athens Hwy
362,34.212409,-83.532352,I- 85
160,34.135911,-83.431041,Wilbanks Cir
160,33.981689,-83.534574,Kodiak Ln/Bear Cub Way
160,34.260667,-83.479981,E Ridgeway Rd/E Edgway Rd
216,34.202448,-83.719640,US Hwy 129
160,34.117319,-83.755270,Keys Dr
216,34.154515,-83.638589,Hog Mountain Rd
552,34.113113,-83.590251,Duke St/Memorial Dr
216,34.112565,-83.576228,Borders St
160,34.247147,-83.557294,Maysville Rd/Smith St
185,34.193279,-83.452358,Piedmont Rd/Piedmont St
276,34.228534,-83.499053,/Maysville Rd
160,34.211646,-83.468959,Orchard Dr
160,34.213941,-83.547059,Hwy 82 Spr
185,34.207761,-83.455515,Wesley Way
160,34.245861,-83.482658,Steven B Tanger Blvd/Ridgeway Church Rd
185,34.196134,-83.449809,New St
185,34.175242,-83.604794,Hog Mountain Rd
362,34.112943,-83.574230,Pine St/Borders St/Athens St
160,34.129562,-83.716337,McNeal Rd
160,34.231063,-83.453183,Homer Rd
160,34.069070,-83.550686,Athens Hwy
185,34.199332,-83.432595,Veterans Memorial Pkwy
160,34.086691,-83.566845,Athens Hwy
305,34.214248,-83.481519,Old Maysville Rd
160,34.206239,-83.470704,Roosevelt Blvd/Andrew Jackson St
185,34.122322,-83.756128,Chardonnay Trce/Blanc Way/Reisling Dr
390,34.205788,-83.464872,Andy St
160,34.219124,-83.444718,W E King Rd
185,34.202556,-83.467485,Lakeview Dr/Jefferson Rd/Jefferson St
445,34.109658,-83.573784,Athens St/Gordon St
334,34.150378,-83.630024,US Hwy 129/Wj Dills Rd
160,34.236545,-83.687254,Silverwood Dr/Fountain Dr
160,34.196662,-83.475059,Stark Rd/Delia Dr
185,34.119378,-83.693035,State Rte 332
160,34.134207,-83.789604,Monroe Ct
305,34.197974,-83.446611,Willow St/Nunn St
246,34.122808,-83.608501,Loggins Dr/Old Pendergrass Rd
160,34.109430,-83.607178,Gadwall Cir
160,34.113527,-83.427579,Old Athens Rd/Sanford Dr
160,34.212311,-83.707211,Banyon Creek Dr
185,34.104006,-83.571425,Dixie Red Ave
185,34.229080,-83.454906,Hospital Rd/Homer Rd
160,34.227022,-83.497985,Maysville Rd
185,34.112625,-83.432187,Church St/Mulberry St
216,34.118349,-83.687801,Summerhill Dr
185,34.114291,-83.797631,Charlie Smith Rd
185,34.221584,-83.447881,Veterans Memorial Pkwy
160,34.177346,-83.435776,Y E Bolton Rd
216,34.186307,-83.593657,I- 85/Dry Pond Rd
788,34.117181,-83.574032,Randolph St/Lee St
160,34.234785,-83.484973,Steve Reynolds Industrial Pkwy
185,34.222227,-83.448335,Veterans Memorial Pkwy
246,34.149634,-83.649683,I- 85
216,34.082211,-83.564993,Athens Hwy
305,34.203240,-83.455515,Cherry St/Bowden St
160,34.292451,-83.623549,Diamond Hill Rd
160,34.195797,-83.580479,Plainview Rd
362,34.212649,-83.532510,I- 85
160,34.130518,-83.764838,Duck Rd/Lagree Duck Rd
160,34.083834,-83.689445,Mill Pond Rd
160,34.108345,-83.761569,E Lake Dr/Lakeshore Dr
185,34.140805,-83.570124,State Rte 82/Darnell Rd
160,34.133672,-83.770954,Hoyt Holder Rd
160,34.059165,-83.414020,US Hwy 441
160,34.199638,-83.636835,Stockton Farm Rd
160,34.182491,-83.595202,Hog Mountain Rd
246,34.227680,-83.503842,/I- 85
246,34.146772,-83.654295,I- 85
160,34.247086,-83.483491,Ridgeway Church Rd
160,34.021301,-83.494774,/Jefferson Rd
418,34.127213,-83.609603,Red Bud Rd/Lantern Dr
160,34.183336,-83.701019,Sweetgum St
160,34.132963,-83.798166,Woodley Ct/Liberty Park Dr
160,34.125947,-83.743191,Glenwyck Dr/Trailridge Way
160,34.173030,-83.683061,Danny Allen St
160,34.186312,-83.400961,Hopie Ln/Sandy Creek Rd
185,34.114904,-83.590034,Park Dr
160,34.183113,-83.705399,Manor Glen Way/Summerson Pl
160,34.261811,-83.623779,Owens Rd/Unity Church Rd
276,34.219822,-83.470579,Chanticleer Dr/Hillcrest Dr
246,34.110765,-83.433648,Old US Hwy 441/Broad St/Birch St
185,34.085166,-83.630868,Jackson Trail Rd/Winder Hwy
216,34.081953,-83.564900,Fowler Ln/Athens Hwy
160,34.163670,-83.606909,James Madison Ct
160,34.185902,-83.592610,Dry Pond Rd
216,34.081796,-83.565320,Fowler Ln
276,34.233900,-83.459117,Mount Olive Way
185,34.218636,-83.445691,Veterans Memorial Pkwy
160,34.184840,-83.441302,S Elm St/US Hwy 441/Allen Rd
160,34.171139,-83.379073,Ingram Hancock Rd
160,34.127492,-83.771816,Ednaville Rd
160,34.248463,-83.483791,Ridgeway Church Rd
246,34.094526,-83.586623,US Hwy 129
160,34.222234,-83.536582,Wheeler Ln
160,34.154952,-83.599598,McCain Ct
160,34.101464,-83.677217,Shamus Way
160,34.069375,-83.696276,Jackson Meadows Dr
160,34.234711,-83.480028,Ridgeway Church Rd
160,34.110293,-83.550010,Coopers Hawk Ln/Hawk Ridge Rd
246,34.208555,-83.471287,Old Maysville Rd/Orchard Dr/Olds Maysville Rd
185,34.125466,-83.428946,US Hwy 441 S/US Hwy 441
160,34.210895,-83.467021,Carson St
160,34.118907,-83.411788,Jim David Rd
185,34.255975,-83.564744,W Main St
185,34.211911,-83.468591,Orchard Dr/Carson St
276,34.219780,-83.470596,/Hillcrest Dr
160,34.246782,-83.483347,Ridgeway Church Rd
216,34.136665,-83.664625,Secretariat Ln
276,34.188957,-83.444165,S Broad St Exn/Emory Bolton Rd
526,34.115385,-83.579641,Borders St/Lee St
160,34.110936,-83.604234,Hawkins Creek Dr/Mergnser Dr
246,34.111684,-83.593448,Weaver Dr/Bobbin Ct
160,34.095831,-83.616092,Rachel View Ct/Andrew Ridge Dr/Millstone Trl
160,34.162541,-83.744634,State Rte 60/Station Dr
216,34.196332,-83.459277,Waterworks Rd
246,34.187083,-83.412177,Trace Ln
276,34.218290,-83.470579,Bolton Dr/Hillcrest Dr
160,34.252048,-83.560163,Crane St
160,34.066039,-83.568672,State Rte 82
276,34.156109,-83.641753,I- 85
216,34.148633,-83.651141,I- 85
185,34.134666,-83.583861,Lakeshore Dr
185,34.226128,-83.465100,Northview Dr
160,34.197557,-83.450800,Rice St/S Broad St
185,34.064638,-83.568576,State Rte 82
185,34.201529,-83.456096,Oak St/Little St
160,34.095662,-83.682621,Chickasaw Trl
499,34.192211,-83.451117,Poplar Rd
185,34.224260,-83.511369,I- 85
472,34.100957,-83.793259,I- 85
185,34.090046,-83.720281,/Kingston Pl
185,34.146940,-83.600648,Storey Porter Rd
160,34.115278,-83.576109,Oak St
160,34.106206,-83.763605,Harrison St/Henry St
185,34.134780,-83.589008,Jett Roberts Rd
160,34.148516,-83.497271,W O Smith Rd/S Apple Valley Rd
185,34.137019,-83.590317,Lakeview Dr
160,34.061176,-83.422665,Shilo Rd
216,34.136187,-83.779184,State Rte 53
445,34.205874,-83.465607,Washington St/Peach St
185,34.226874,-83.465735,Mount Olive Rd
160,34.196613,-83.444710,Ash St/Cotton St
160,34.083919,-83.670917,Whipoorwhil Cir
160,34.114387,-83.594267,Alexander Ln/Old Swimming Pool Rd
160,34.211568,-83.481011,King Rd/Wofford Dr
185,34.155934,-83.763072,Glenwood Trl
160,34.134503,-83.747394,Mandy Ln
160,34.041060,-83.451705,Jefferson River Rd
160,34.161939,-83.462246,/Old Hoods Mill Rd
185,34.105105,-83.573517,Harris Ln
160,34.218676,-83.479503,Mount Olive Rd/Mt Olive Rd/Mount Olive Church Rd
160,34.145086,-83.797005,Old Winder Hwy
160,34.123798,-83.620378,Long Farm Rd/Old Pendergrass Rd
160,34.232550,-83.468969,Remington Dr
445,34.115439,-83.580709,Lee St
216,34.218132,-83.523633,I- 85
185,34.112836,-83.606580,Pintail Ln/Jeffco Dr
216,34.204377,-83.456736,Line St/View St
160,34.136740,-83.401661,Humphries Lake Dr
216,34.126557,-83.765038,State Rte 53
305,34.217019,-83.526052,I- 85
160,34.097783,-83.431515,Old US Hwy 441/Dogwood Dr/Old Athens Dr
390,34.112061,-83.777250,I- 85/Jesse Cronic Rd
216,34.237585,-83.457904,W W Gary Rd
160,33.998210,-83.470694,John Collier Rd
185,34.038004,-83.402625,Richmar Rd
160,34.094083,-83.609196,Winder Hwy
276,34.119377,-83.738042,Maddox Rd/State Rte 124 W
160,34.230879,-83.500352,/Maysville Rd
185,34.119777,-83.581961,Morton St/Lawrenceville St
160,34.059668,-83.397282,Adams Hill Rd
160,34.124951,-83.430429,Howington Loop/Memorial Dr
216,34.176688,-83.603149,Hog Mountain Rd/Otis Holman Rd
160,34.190280,-83.453601,Creekdale Dr
160,34.202385,-83.470908,Hazel St
160,34.218344,-83.482879,Mt Olive Church Rd
216,34.166561,-83.683718,Old Gainesville Hwy
160,34.095611,-83.617100,Millstone Trl/State Rte 124 W
160,34.114051,-83.619439,Altamaha Ln
185,34.192695,-83.458088,Millwood Dr/Sam Brown Blvd
390,34.205169,-83.462562,Andy St/Jefferson St
160,34.121828,-83.567938,Kissam St
185,34.057779,-83.504290,Harrison Johnson Way/Athens Hwy
160,34.155196,-83.442703,Leechman Rd/US Hwy 441
216,34.204400,-83.457389,Line St/High St
216,34.136231,-83.779391,State Rte 53
160,34.005258,-83.457455,Jefferson Rd
160,34.104880,-83.581117,M L King Jr Dr
160,33.982763,-83.535800,Bear Paw Ct
216,34.232861,-83.451718,Veterans Memorial Pkwy
160,34.184738,-83.464846,Waterworks Rd
160,34.127799,-83.618962,Long Farm Rd
246,34.252712,-83.561521,Maysville Rd/W Main St
160,34.225645,-83.534741,Wheeler Cemetery Rd/Wheeler Creek Rd
160,34.071550,-83.648808,/Ebenezer Church Rd
305,34.248642,-83.477875,Steven B Tanger Blvd
160,34.218607,-83.459289,/Homer Rd
185,34.109994,-83.795440,Butterfly Ln/Bakers Farm Cir
185,34.152318,-83.581564,Village Dr
276,34.096387,-83.762349,White St/W Broad St
160,34.165217,-83.614291,Hog Mountain Rd
216,34.134032,-83.595242,Washington St
185,34.204926,-83.472659,Wilson Dr/Andrew Jackson St
246,34.122655,-83.599373,Fountainhead Dr/Old Pendergrass Rd
305,34.242555,-83.457525,Homer Rd
160,34.232337,-83.458904,Mount Olive Rd
160,34.091677,-83.697297,River Birch Ct/Mulberry Greens Ln
185,34.119487,-83.611216,Jefferson Walk Dr
216,34.149473,-83.649375,I- 85
246,34.227885,-83.504164,/I- 85
216,34.118071,-83.587161,Skyline Dr/Anderson St
246,34.122436,-83.590323,Old Pendergrass Rd
185,34.119286,-83.693116,State Rte 332/Summerhill Dr
185,34.083489,-83.627816,Jackson Trail Rd
185,34.138639,-83.601010,/US Hwy 129
216,34.136497,-83.451401,Stoney Brook Ln/Cabin Creek Rd
216,34.096318,-83.605383,Winder Hwy
216,34.110512,-83.587091,Lee St
216,34.199767,-83.453166,S Broad St/Elizabeth St
334,34.231496,-83.470264,Charleston Ave/Grandview Ln
160,34.113705,-83.795994,Tatum Ct/Liberty Dr
185,34.166590,-83.461703,Old Hoods Mill Rd
160,34.123161,-83.611288,Cornish Way
185,34.237047,-83.454219,Homer Rd
185,34.096381,-83.683169,Chickasaw Trl
418,34.203830,-83.455580,State St/Cherry St
185,34.112664,-83.432411,Broad St/Mulberry St
185,34.114500,-83.587050,Hill Top Dr
185,34.185001,-83.721272,A J Irvin Rd
185,34.146113,-83.554809,Curtis H Spence Dr/Hendrix Dr/Curtis H Spencer Dr
160,34.063834,-83.568510,State Rte 82
160,34.246733,-83.483324,Ridgeway Church Rd
185,34.193968,-83.719324,Pond Fork Church Rd/US Hwy 129
160,34.063834,-83.553932,Anglin Rd
185,34.237909,-83.511619,Maysville Rd
160,34.091820,-83.583945,Galilee Church Rd
160,34.140706,-83.580144,Forest St
185,34.226852,-83.465779,Mount Olive Rd/Northwood Dr
246,34.156387,-83.767831,Benson Ln/Remington Park Dr
160,34.111177,-83.790636,Cottonfield Dr/Jesse Cronic Rd
185,34.199650,-83.719533,Pleasant Hill Cir
246,34.108210,-83.433551,Old US Hwy 441
185,34.193900,-83.447877,Barber St/S Broad St
160,34.235436,-83.506811,Maysville Rd
160,34.196291,-83.460818,Minish Dr/Heritage Hills Dr
160,34.091084,-83.560398,Sterling Lake Dr/Creek Side Ct
276,34.192347,-83.446768,Madison St/S Broad St
216,34.244192,-83.480690,I- 85/Ridgeway Church Rd
390,34.163534,-83.628130,I- 85
276,34.140739,-83.664887,I- 85
160,34.085046,-83.762317,Peachtree Rd
160,34.078639,-83.693920,Muscadine Way/Roller Mill Dr
160,34.132768,-83.428425,James Maxwell Rd/US Hwy 441
160,34.093579,-83.610385,Winder Hwy
216,34.184252,-83.596826,I- 85
246,34.136302,-83.588270,Lakeview Dr/Jett Roberts Rd
160,34.127432,-83.588293,Mill Rd/Siding Ln
160,34.127675,-83.771614,Ednaville Cir/Ednaville Rd
216,34.120853,-83.608272,Faith Dr/Loggins Dr
160,34.123407,-83.783065,Ednaville Rd
276,34.218168,-83.474877,Ridgeway Rd/Lewis Cir
185,34.197212,-83.450831,S Elm St/
160,34.221280,-83.492512,Maysville Rd/S R 98
160,34.096806,-83.765596,Bell Ave/Hall St
216,34.107549,-83.591150,Winder Hwy
276,34.118658,-83.576760,Depot St/Mahaffey St
216,34.129781,-83.705918,Lamar Ln
246,34.126943,-83.593705,Elizabeth Way/Monte Ln
160,34.072695,-83.566595,State Hwy 82 S
160,34.142339,-83.623214,Blue Bird Ln
362,34.089171,-83.692507,Highlander Ct
362,34.120248,-83.754003,I- 85
276,34.235401,-83.453222,Homer Rd
160,34.176930,-83.606098,Otis Holman Rd
305,34.158319,-83.763815,Whitfield Ct
160,34.077411,-83.573858,Arcade Park St/Jefferson Byp
160,34.110653,-83.798144,Charlie Smith Rd
160,34.055714,-83.500788,/New Kings Bridge Rd
160,34.124105,-83.784667,Nick Duck Rd
390,34.206692,-83.464735,Park St//N Broad St
445,34.126735,-83.610560,Jasmine Dr/Lantern Dr
160,34.052482,-83.471614,Jefferson River Rd
160,34.132874,-83.589522,Jett Roberts Rd
305,34.122436,-83.611762,Old Pendergrass Rd
185,34.155417,-83.769679,Chartwell Ct
334,34.193508,-83.431521,Veterans Memorial Pkwy/Ila Rd
160,34.108370,-83.560945,Glenfield Dr
160,34.123268,-83.682279,Creek Nation Rd
160,34.151230,-83.661249,John B Brooks Rd
160,34.117045,-83.485623,McRee Rd/Stewart Loop
526,34.103713,-83.593624,Winder Hwy
185,34.112697,-83.795300,Tatum Ct
160,34.127404,-83.554044,Watersedge Ct
276,34.190461,-83.445575,S Elm St/State Rte 98
246,34.113333,-83.797105,Charlie Smith Rd
185,34.109611,-83.762910,Davis St/Green St
185,34.081882,-83.423356,Old US Hwy 441/Antioch Church Rd/Cooper Farm Rd
305,34.102647,-83.653798,Austin Way/State Rte 124 W
334,34.160962,-83.633513,I- 85/Possum Creek Rd
185,34.197318,-83.456028,Clayton St/Church St
276,34.192317,-83.446850,Madison St
185,34.115275,-83.590902,Memorial Dr
276,34.129931,-83.697709,I- 85
160,34.231750,-83.521007,Wheeler Cemetery Rd/Beacon Dr
160,34.115836,-83.589880,Lynn Ave
216,34.188467,-83.591891,/Bill Wright Rd
334,34.213231,-83.460683,Pittman Dr/E Cordes Pl
160,34.104422,-83.657921,Jones Rd
216,34.113693,-83.797249,Charlie Smith Rd
185,34.066784,-83.720993,Cherokee Trl/Indian Creek Way
185,34.210661,-83.447161,State St/Katie Ln
334,34.203964,-83.469353,Roosevelt Blvd
216,34.095277,-83.750112,Boyd Dr
185,34.101040,-83.574221,Athens St
160,34.122050,-83.786029,Hoyt Wood Rd/Ednaville Rd
246,34.098384,-83.752221,Penny Ln
216,34.172973,-83.444461,White Hill School Rd/US Hwy 441/Allen Rd
216,34.126166,-83.764913,State Rte 53
160,34.106176,-83.572869,Athens St
160,34.240816,-83.523118,Boone Rd
160,34.095366,-83.571534,Athens Hwy
160,34.119619,-83.569025,Commerce Rd/Danielsville St
185,34.201336,-83.442079,Belm Ont Park Dr
160,34.077139,-83.674386,Old Jackson Ter/Jackson Trail Rd
216,34.195710,-83.459288,Waterworks Rd
160,34.071223,-83.648516,/Ebenezer Church Rd
160,34.056896,-83.422309,New Kings Bridge Rd/Chandler Bridge Rd
160,34.227508,-83.457400,Hospital Rd
160,33.979245,-83.523578,Savage Rd
160,34.002173,-83.463107,John Collier Rd
160,34.009662,-83.472499,Jefferson Rd
334,34.209605,-83.543066,I- 85
160,34.210676,-83.480640,King Rd
160,34.095165,-83.766393,W Broad St
160,34.122521,-83.411235,Steeplechase Rd
160,34.077797,-83.574049,Jefferson Byp
305,34.123125,-83.750803,Brookstone Trl/Woodvale Cir/Glenshire Dr
305,34.122833,-83.763859,State Rte 53/Braselton Pkwy
160,34.136545,-83.571991,State Rte 82
216,34.240577,-83.456696,Beck Rd
160,34.056614,-83.422435,Chandler Bridge Rd
499,34.169379,-83.619072,I- 85
160,34.235204,-83.506350,Maysville Rd
276,34.111112,-83.597581,US Hwy 129
160,34.100183,-83.580974,Ivey St
160,34.137738,-83.540991,Commerce Rd/Bend Dr
276,34.121501,-83.612596,Jefferson Walk Cir/Jefferson Walk Dr
160,34.220821,-83.491937,Maysville Rd/S R 98
185,34.095373,-83.679747,Blackcherry Ct
160,34.118870,-83.745086,Zion Church Rd
390,34.119296,-83.757076,I- 85
160,34.213237,-83.470564,Paula St/Leigh St
276,34.193382,-83.432613,Ila Rd
185,34.107533,-83.433534,Old US Hwy 441/Daisy Ln
160,34.148957,-83.450143,Hoods Mill Rd
160,34.069655,-83.568489,State Hwy 82 S
160,34.219231,-83.472755,Chantilee St/Chanticleer Dr/Chanticler St
994,34.117748,-83.572830,Commerce Rd/College St
390,34.104567,-83.593879,High School Rd/US Hwy 129
160,34.145069,-83.671642,Summer Springs Ct/Pendergrass Farms Cir
246,34.100132,-83.582739,Ivey St/M L King Jr Dr
160,34.124879,-83.610805,Burnt Oak Ct/Jefferson Station Rd
160,34.202834,-83.470311,Hazel St
185,34.081894,-83.423008,Cooper Farm Rd
160,34.114106,-83.763075,Green St
305,34.182422,-83.599656,I- 85
160,34.187137,-83.583915,Horace Head Rd/Dry Pond Rd
185,34.106758,-83.791631,Butterfly Ln
160,34.110589,-83.798543,Charlie Smith Rd
305,34.155629,-83.784194,Rustic Oak Ln
160,34.219089,-83.479083,Mount Olive Rd/Mt Olive Rd/Ridgeway Church Rd
246,34.211099,-83.461618,Hill St/Duncan Cir
216,34.149458,-83.572115,Vandiver Rd
185,34.113539,-83.796332,Liberty Dr
160,34.218077,-83.445281,W E King Rd/Veterans Memorial Pkwy
334,34.203871,-83.457788,S Broad St
390,34.203701,-83.456818,S Broad St
160,34.124561,-83.694383,Creek View Dr
185,34.112233,-83.606209,Pintail Ln
445,34.105461,-83.591995,Crows Lake Dr/Crows Lake Cir
160,34.231709,-83.687355,Dogwood Ct
185,34.182149,-83.385821,Wilson Cemetery Rd/Ila Rd
160,34.163889,-83.600555,Jefferson Blvd/John Adams Ct
160,34.107626,-83.548677,Mount View Dr
216,34.151316,-83.638474,US Hwy 129
160,34.057441,-83.497256,Lavista Rd/New Kings Bridge Rd
185,34.115226,-83.806183,Thompson Mill Rd
334,34.187162,-83.443080,S Elm St
246,34.215210,-83.481715,Mount Olive Rd/Old Maysville Rd/Industrial Pkwy
246,34.200587,-83.433006,Veterans Memorial Pkwy
185,34.187385,-83.399621,Sandy Creek Rd/Mize Rd/Ila Rd
185,34.137441,-83.790601,State Rte 53
160,34.132788,-83.589539,Jett Roberts Rd
160,34.117164,-83.796118,New Liberty Church Rd/Ednaville Rd/Cronic Cir
160,34.180142,-83.663313,Wayne Poultry Rd
185,34.110826,-83.790995,Cottonfield Dr/Franklin St
160,34.141752,-83.624843,Rock Crest Ln/Academy Woods Dr
216,34.219116,-83.472182,Chantilee St
160,34.053136,-83.663598,Old Winder Rd/Winder Hwy
185,34.163168,-83.462287,Old Hoods Mill Rd
160,34.106518,-83.574123,Magnolia Ave/Matthew Dr
445,34.208407,-83.546135,I- 85
305,34.214793,-83.461040,Homer Rd
185,34.250282,-83.484073,Ridgeway Church Rd
276,34.142540,-83.661723,I- 85
160,34.192607,-83.459822,Scott St
160,34.244884,-83.551764,Maysville Rd
160,34.248055,-83.464130,/Pottery Rd
246,34.094422,-83.586519,US Hwy 129
160,34.250150,-83.549627,Meadow Lark Way/Hidden Meadows Dr
160,34.059889,-83.567060,State Rte 82/Windy Hill Rd
216,34.024924,-83.398649,Commerce Rd
160,34.211995,-83.480978,King Rd
390,34.251861,-83.468226,I- 85
185,34.095161,-83.607387,Winder Hwy
185,34.036748,-83.368296,/Nowhere Rd
185,34.041760,-83.497213,Crooked Creek Rd
216,34.137755,-83.667201,Citation Way
216,34.212606,-83.459440,Duncan Cir
160,34.157350,-83.763927,Whitfield Ct/Remington Park Dr
160,34.061818,-83.517083,Burley Pl/Athens Hwy
216,34.200252,-83.440480,Belmont Park Dr
160,34.116855,-83.485673,Brockton Rd/McRee Rd
185,34.184001,-83.464064,Smallwood Dr
160,34.128415,-83.794686,/New Liberty Church Rd
160,34.071435,-83.569081,Williamson St/Old 82 Rd
160,34.133404,-83.803460,Gold Crest Rd
246,34.125485,-83.684502,Creek Nation Rd/Old Pendergrass Rd
185,34.038514,-83.499718,Brock Rd/Jefferson Rd
216,34.122436,-83.688855,State Rte 332
246,34.074216,-83.557721,Athens Hwy
160,34.077935,-83.422821,Old US Hwy 441/Jennings Ln
216,34.096759,-83.672975,State Rte 124 W
160,34.103252,-83.624899,State Rte 124 W
418,34.122917,-83.607450,Old Pendergrass Rd
160,34.198623,-83.471423,Jefferson Rd
216,34.199327,-83.443599,Willow St/Shankle Rd
160,34.256593,-83.566459,College St/W Main St
390,34.203317,-83.450827,Shankle Hts/Elizabeth St
185,34.104354,-83.565023,Elrod Ave
160,34.185490,-83.591444,Dry Pond Rd/Horace Head Rd
216,34.133477,-83.570430,Tyler Cir
160,34.098036,-83.431665,Old US Hwy 441
160,34.188559,-83.463659,Woodland Trl/Waterworks Rd
160,34.148116,-83.431007,Harris Lord Cemetery Rd
185,34.094552,-83.693615,Traditions Way
185,34.193171,-83.459638,Pine St/Waterworks Rd
160,34.192242,-83.452639,Cobblestone Ct/Creekdale Dr
160,34.144100,-83.585080,Jett Roberts Rd/Helene Way
160,34.155548,-83.764792,Danbury Ct
276,34.237231,-83.458755,W W Gary Rd
160,34.116609,-83.533244,Still Water Ln/Psalms Dr
216,34.114898,-83.585284,Park Dr/McKensie Ave
246,34.114773,-83.446530,Summit Heights Dr
276,34.235576,-83.689023,Silverwood Dr
160,34.199665,-83.443619,Shankle Rd/
246,34.135830,-83.623320,/Holders Siding Rd
185,34.210583,-83.466259,Forest Ave/Carson St
216,34.126767,-83.596168,Field Stone Cir
305,34.204424,-83.458180,Line St/Unnammed St/Quillan St
216,34.211808,-83.449512,Katie Ln/Land Way
185,34.193272,-83.453011,Piedmont St
160,34.096728,-83.426881,Old Athens Dr
160,34.242667,-83.478915,Haggard Rd
185,34.190100,-83.445025,Harris St/S Broad St Exn
160,34.072400,-83.559660,Windy Hill Rd
216,34.195820,-83.459351,Minish Dr
160,34.185644,-83.441928,S Elm St
334,34.203905,-83.469358,Roosevelt Blvd
160,34.127599,-83.615343,Indian Springs Dr
246,34.118571,-83.576972,Mahaffey St/Hill St
216,34.252773,-83.561046,Beaver Swamp Rd
216,34.143874,-83.790755,Beagle Ct/Hunting Hills Dr
390,34.202633,-83.559854,I- 85
362,34.212366,-83.532447,I- 85
246,34.146060,-83.655524,I- 85
160,34.141101,-83.625910,Rock Crest Ln
160,34.129392,-83.544860,Mauldin Rd/Wilhite Rd
246,34.144729,-83.692974,Huntington Trl/Macy Ln
216,34.212667,-83.483420,/Maysville Rd
185,34.123738,-83.694684,Flint Ct
185,34.084664,-83.656979,Hogans Mill Ct
160,34.130743,-83.412676,G W Wilson Rd
160,34.224535,-83.496113,Maysville Rd
160,34.232119,-83.459370,Mount Olive Rd
390,34.101416,-83.793037,I- 85
276,34.185471,-83.462501,Lemarr Dr
160,34.099777,-83.760647,Church St/E Jefferson St
362,34.122393,-83.587637,Horace Jackson Rd/Old Pendergrass Rd
160,34.119149,-83.615143,Wisteria Pl
216,34.195515,-83.455417,Coleman Dr
246,34.154160,-83.769498,Davenport Rd/Remington Park Dr/Lauren Marie Dr
276,34.241863,-83.457200,Homer Rd
160,34.168979,-83.453858,Fayte Baxter Rd/White Hill School Rd
160,34.218326,-83.523832,I- 85
216,34.146979,-83.600000,Storey Porter Rd
216,34.213939,-83.459920,Bennett St/Cross St/Pittman Dr
160,34.218903,-83.479009,Ridgeway Church Rd
160,34.220512,-83.543926,Bana Industrial Blvd/Wheeler Ln
216,34.100165,-83.581686,Ivey St
305,34.188434,-83.590641,/I- 85
185,34.065529,-83.544529,Athens Hwy/B Whitfield Rd
185,34.134542,-83.589083,Jett Roberts Rd
185,34.214256,-83.661695,Branch Dr/River Ridge Rd
160,34.207735,-83.584647,Plainview Rd
276,34.212427,-83.458368,Duncan Cir
185,34.083236,-83.652294,Jennings Ct
216,34.104952,-83.761839,State Rte 53/W Jackson Rd
160,34.215370,-83.544343,Wheeler Cemetery Rd/Hurricane Shoals Rd
216,34.184451,-83.597045,/I- 85
160,34.154908,-83.404280,State Rte 334/Harris Lord Cemetery Rd
160,34.088409,-83.697188,Mulberry Greens Ln/Brush Arbor Ct
160,34.079175,-83.675779,Old Jackson Ter/Dunson Ln
160,34.242714,-83.478864,Haggard Rd
185,34.196379,-83.456002,Scott St
160,34.002701,-83.475136,Fuller Rd
276,34.211028,-83.458849,Duncan St/Duncan Cir
305,34.157990,-83.762141,Kendall Ct
160,34.116483,-83.745231,State Rte 124 W
160,34.179781,-83.465899,Waterworks Rd
160,34.107710,-83.700667,State Rte 332/State Rte 124 W
216,34.123074,-83.751700,Brookstone Trl/Gatewood Ln
185,34.062893,-83.473993,Marie Ct
185,34.036518,-83.368217,/Nowhere Rd
160,34.115163,-83.576175,Oak St
160,33.975833,-83.528946,Savage Rd
160,34.197553,-83.543690,Glenn Fuller Cir/Woods Bridge Rd
160,34.233735,-83.515100,Tom Yarbrough Rd
216,34.096033,-83.605923,Winder Hwy
160,34.161061,-83.605115,Jefferson Blvd/Washington Pkwy
276,34.195645,-83.455142,Sunny Ln/Coleman Dr
160,34.092527,-83.759663,State Rte 53/Industrial Blvd
216,34.195798,-83.459287,Waterworks Rd/Minish Dr
216,34.215510,-83.461431,Cole Court Dr
246,34.200447,-83.445950,Shankle Rd/Neal St
160,34.126881,-83.617691,Summerfall Trl/Indian Springs Dr
160,34.116475,-83.745337,State Rte 124 W
246,34.131572,-83.800300,Gold Crest Rd
216,34.217088,-83.476010,Lewis Cir/Louise Dr
160,34.107975,-83.607521,Widoeon Way
185,34.208499,-83.449091,State St/Windy Hills Rd
160,34.185201,-83.464738,Waterworks Rd
418,34.130626,-83.695210,I- 85
276,34.161856,-83.601388,Jefferson Blvd/George Bush Ln/Andrew Jackson Ct
160,34.181442,-83.703387,Allen Bridge Rd/US Hwy 129 N
216,34.079400,-83.629497,Robin Way
276,34.123840,-83.593491,Brittany Ln
526,34.103886,-83.593499,Winder Hwy/US Hwy 129
246,33.978055,-83.535917,Bear Creek Ln
160,34.187134,-83.718629,US Hwy 129
390,34.204233,-83.469330,Roosevelt Blvd/Wilson Dr
160,34.131474,-83.413901,G W Wilson Rd
276,34.126242,-83.584115,Washington St/Davis St
160,34.192241,-83.445070,Madison St/S Harmony St
160,34.194343,-83.475007,Delia Dr
185,34.184505,-83.701747,Acorn Ave/Sweetgum St/Allen Bridge Rd
160,34.212819,-83.602722,Plainview Rd
160,34.132294,-83.767462,State Rte 53/New Cut Rd/Ednaville Rd
160,34.121427,-83.574280,Martin St/Institute St
216,34.200388,-83.445690,Shankle Rd
185,34.107698,-83.762567,State Rte 53
160,34.172682,-83.681520,US Hwy 129 N
160,34.220261,-83.467655,Hillcrest Ct/Hillcrest Dr
185,34.066296,-83.454412,New Kings Bridge Rd
362,34.125622,-83.740039,I- 85
216,34.105782,-83.596857,High School Rd
160,34.177858,-83.611198,Bill Wright Rd
185,34.252179,-83.561133,Maysville Rd/Georgia Ave
390,34.111872,-83.585691,Duke St/Lee St
216,34.115058,-83.433016,Old US Hwy 441
160,34.217655,-83.471745,Tara Pl/Bolton Dr
216,34.236295,-83.453753,Homer Rd
334,34.120682,-83.571175,Clay Dr
334,34.229161,-83.501315,I- 85
185,34.211902,-83.464005,Ridgeway St/Mercury St/Ridgeway Dr
334,34.183494,-83.439821,Y E Bolton Rd/Veterans Memorial Pkwy
276,34.133788,-83.589320,Jett Roberts Rd
160,34.114343,-83.574340,Athens St
334,34.205698,-83.552432,Hwy 82 Spr/I- 85
1123,34.152012,-83.641290,New Salem Church Rd/Hog Mountain Rd/US Hwy 129
334,34.229579,-83.499661,/Maysville Rd/I- 85
334,34.194284,-83.579802,I- 85
246,34.252702,-83.562248,Short St/Alley St
160,34.175824,-83.687461,US Hwy 129 N
246,34.230721,-83.470544,Windsong Lake Dr/Grandview Ln
160,34.198364,-83.557670,Old Ginn Rd
160,34.144494,-83.603101,Storey Ln
216,34.109232,-83.762839,State Rte 53/Green St/Broadway Ave
216,34.202659,-83.455407,Sycamore Rd/Cherry St/S Broad St
185,34.110448,-83.593169,Loom Ct
185,34.195355,-83.580011,Donahoo Rd/Plainview Rd
160,34.069292,-83.569399,/Old 82 Rd
185,34.123847,-83.749106,Walnut Woods Dr/Summerbrook Rd
160,34.115784,-83.590170,Lynn Ave
305,34.124833,-83.620915,Plantation Dr/Raintree Ct
334,34.247342,-83.476761,I- 85
1511,34.152084,-83.642066,US Hwy 129
185,34.182039,-83.385523,Ila Rd
160,34.172481,-83.558768,Lauren Dr
185,34.135190,-83.790392,/Hancock Pl/Hancock Ave
185,34.105115,-83.573334,Harris Ln
246,34.097856,-83.762143,State Rte 53/Lloyd Lott Ave/Bell Ave
160,34.195647,-83.442933,Shankle Rd/Barber St
185,34.231210,-83.471776,Windsong Lake Dr
216,34.121221,-83.611144,Primrose Ct
246,34.163135,-83.602070,Andrew Jackson Ct
160,34.207849,-83.584819,Plainview Rd
185,33.980647,-83.535343,Bear Creek Ln/Bear Cub Way
276,34.123489,-83.608560,Cornish Way/Red Bud Rd
185,34.083035,-83.653549,Jennings Ct/Summit View Dr
160,34.090154,-83.655444,Jackson Trail Rd/Doster Rd
160,34.077132,-83.720540,Bill Watkins Rd
160,34.182138,-83.595669,Hog Mountain Rd
160,34.212544,-83.644159,Pond Fork Church Rd
160,34.071330,-83.408009,Brooks Dr/Ed Bennett Rd
160,34.098341,-83.572317,Center Way
216,34.219053,-83.446004,Veterans Memorial Pkwy
185,34.120078,-83.732988,/State Rte 124 W
160,34.113641,-83.546068,Brockton Rd
246,34.151424,-83.638914,US Hwy 129
216,34.152836,-83.652416,US Hwy 129
160,34.113714,-83.546564,Brockton Rd
185,34.086131,-83.691407,Broom Seige Cir
185,34.072958,-83.624535,Lake Vista Dr
160,34.098806,-83.753689,Legacy Dr
160,34.117387,-83.471610,Cabin Creek Rd
246,34.194642,-83.469500,Fernwood Ct
185,34.097645,-83.601457,Winder Hwy
160,34.231261,-83.480906,Ridgeway Church Rd/Bradberry Ct
334,34.107374,-83.783906,I- 85
185,33.992740,-83.521982,State Rte 330
160,34.133226,-83.428721,Smith Overhead Bridge Rd/US Hwy 441
185,34.124439,-83.430828,Memorial Dr
185,34.203036,-83.466623,Washington St/Jefferson St
160,34.074374,-83.572379,Williamson St
160,34.220168,-83.477805,Mount Olive Rd/Ridgeway Rd
276,34.148229,-83.624652,US Hwy 129
185,34.001338,-83.466224,John Collier Rd
160,34.143617,-83.694224,Huntington Trl/Reece Dr
160,34.212999,-83.471631,Hospital Rd
362,34.129305,-83.586084,Washington St
185,34.111727,-83.704187,Chelsey Ct/Luke Dr/Taylor Dr
160,34.184874,-83.464814,/Waterworks Rd
185,34.132197,-83.627829,Benton Rd
160,34.142252,-83.470486,Waterworks Rd
185,34.220071,-83.490998,Maysville Rd
418,34.118443,-83.762430,State Rte 53/
160,34.143651,-83.568681,State Rte 82
762,34.205870,-83.462322,Homer Rd/Jefferson St
276,34.207820,-83.480928,B Wilson Rd
160,34.114097,-83.431600,Sanford Dr
185,34.120237,-83.729051,State Rte 124 W
216,34.119770,-83.595802,Melvin Dr/Thornhill Ct
185,34.117663,-83.583671,Lynn Ave
160,34.123006,-83.687938,State Rte 332
305,34.191612,-83.584340,I- 85
185,34.083717,-83.656995,Summit View Dr/Hogans Mill Ct
160,34.155519,-83.679781,State Rte 332/Glenn Gee Rd
185,34.114913,-83.590817,Park Dr/Memorial Dr
185,34.095872,-83.606210,Winder Hwy
160,34.165666,-83.588422,Shoreline Dr
160,34.168129,-83.569548,Hidden Lakes Trl
276,34.205132,-83.479006,Lathan Rd
160,34.117269,-83.585138,Lynn Ave/Belmont St
185,34.123381,-83.429754,Old US Hwy 441//US Hwy 441 S
216,34.218280,-83.445430,Veterans Memorial Pkwy
216,34.092120,-83.719519,Chesterton Ln
185,34.131420,-83.610716,US Hwy 129/Holders Siding Rd
246,34.135462,-83.588765,Jett Roberts Rd
216,34.125404,-83.684815,State Rte 332/Old Pendergrass Rd
160,34.106270,-83.762353,Henry St
160,34.008281,-83.466010,Jefferson Rd/Chappy Ln
185,34.248113,-83.558058,Maysville Rd/Grace St
160,34.213041,-83.468967,/Carson St
160,34.108943,-83.590164,Winder Hwy
160,34.105094,-83.588587,Crows Lake Dr
160,34.200353,-83.409772,Blacks Creek Church Rd/Allen Duncan Rd
246,34.140502,-83.664685,I- 85
362,34.160677,-83.633415,I- 85/Possum Creek Rd
216,34.204473,-83.449437,Williford St/Belmont St
185,34.133829,-83.429127,US Hwy 441
216,34.209606,-83.456186,Brandy Dr/Wesley Way/Baugh St
246,34.199181,-83.452758,Scott St
160,34.197624,-83.468891,Ashland Pl
160,34.078320,-83.574363,Jefferson Byp
160,34.013972,-83.457864,Lester Rd/Archer Grove Rd/Wheelis Rd
185,34.124825,-83.430526,/Memorial Dr
185,34.156078,-83.597666,Katherine Dr/Anne Marie Ct/McCain Ct
185,34.184215,-83.705192,Manor Glen Way/Thistlewood Ln
185,34.121869,-83.506705,Brockton Rd
160,34.121994,-83.786184,Bell Ests/Ednaville Rd
185,34.106088,-83.562882,Glenfield Dr/Peachtree Rd
216,34.108616,-83.573513,Elrod Ave/Athens St
185,34.140761,-83.562363,General Jackson Dr
160,34.113817,-83.815019,Thompson Mill Rd
246,34.226524,-83.507097,I- 85
246,34.210883,-83.450103,Land Way
160,34.211413,-83.503240,Lords Mill Rd/Woods Bridge Rd
305,34.110662,-83.793819,Jesse Cronic Ct/New Liberty Way
605,34.122229,-83.763650,State Rte 53
246,34.205274,-83.449317,Harber St/Williford St
362,34.115248,-83.582559,Epps St/Lee St
246,34.181909,-83.441593,US Hwy 441
160,34.165313,-83.485464,Sheep Pasture Rd
160,34.233852,-83.515440,Tom Yarbrough Rd
160,34.052087,-83.389055,Kesler Rd
160,34.101341,-83.582339,M L King Jr Dr
160,33.974322,-83.540676,Savage Rd
160,34.123626,-83.573956,Martin St/Brittany Ct
185,34.106581,-83.566544,Kelly Ln
334,34.115576,-83.769839,I- 85
160,34.230363,-83.462719,Mount Olive Rd/Old Harden Orchard Rd
185,34.118985,-83.570225,Kalurah St/Commerce Rd
216,34.136184,-83.623933,Holders Siding Rd
185,34.054844,-83.540616,Watson Rd
160,34.219549,-83.608813,Hale Rd/Plainview Rd
185,34.187766,-83.433880,Veterans Memorial Pkwy
160,34.244180,-83.545301,Maysville Rd
246,34.199241,-83.459250,Willoughby Homes/Waterworks Rd
185,34.039997,-83.504561,Galaxie Ct
160,34.208374,-83.470169,N Broad St/Orchard Cir/Olds Maysville Rd
160,34.144577,-83.435970,US Hwy 441
160,34.161255,-83.568873,Ivey Ln
185,34.107282,-83.591324,Winder Hwy
362,34.112860,-83.763489,Green St/Gordon St
160,34.197666,-83.543753,Glenn Fuller Cir
160,34.054244,-83.476048,Jefferson River Rd
160,34.141458,-83.723682,State Rte 60
160,34.112576,-83.607427,Jeffco Dr/Old Swimming Pool Rd
526,34.234515,-83.452708,Homer Rd
185,34.193325,-83.452166,Piedmont Rd/Clayton St/Chestnut St/Piedmont St
216,34.093932,-83.760177,State Rte 53
160,34.103253,-83.701176,Amber Waves Ave/Liberty Bell Run
185,34.122379,-83.612650,Jefferson Walk Dr/Old Pendergrass Rd
160,34.114310,-83.428281,Old Athens Rd/Oak St/Lakeviewdrive
276,34.199025,-83.459249,Waterworks Rd
160,34.203579,-83.477783,Lathan Rd
185,34.184353,-83.438692,Veterans Memorial Pkwy
160,34.191571,-83.455527,Carriage Ct
216,34.213259,-83.543013,Hurricane Shls Pk Rd
160,34.068703,-83.550526,Athens Hwy
160,34.168429,-83.677614,US Hwy 129
160,34.194678,-83.420361,Blacks Creek Church Rd/Ila Rd
216,34.166902,-83.684135,Davis Ln/Old Gainesville Hwy/US Hwy 129
246,34.108751,-83.547372,Eagle View Dr
160,34.204620,-83.454679,Pryor St
185,34.108816,-83.433566,Old US Hwy 441/
160,34.112060,-83.686370,Skelton Rd
160,34.069436,-83.550852,/Athens Hwy
160,34.251952,-83.560510,Crane St/N Main St
160,34.124495,-83.694262,Creek View Dr/Flint Ct
160,34.212398,-83.480946,King Rd
160,34.116687,-83.596214,Ashebrooke Way
216,34.119275,-83.617301,Laurel Oaks Ln/Jefferson Walk Cir
160,34.235844,-83.507656,Maysville Rd
160,34.115122,-83.732705,Legendary Dr/Suzie Ln
246,34.116245,-83.587955,Lynn Ave
276,34.199518,-83.453298,S Elm St/Church St
185,34.033371,-83.498000,/Jefferson Rd
216,34.113579,-83.797168,Charlie Smith Rd
216,34.190570,-83.454981,Millwood Dr
160,34.130900,-83.739053,Charlie Cooper Rd
160,34.251984,-83.560394,Crane St
185,34.182021,-83.595820,Hog Mountain Rd
160,34.132155,-83.591514,Washington St
160,34.077827,-83.562083,Wyatt St
160,34.090452,-83.688648,Traditions Way/Wildberry Ct
