Estimated daily crossings,Latitude,Longitude,Name
276,26.061985,-80.256613,/Park Haven Mhp
684,26.035626,-80.214141,Atlanta St
276,26.005256,-80.386488,SW 179th Ave/SW 2nd St
1123,26.187674,-80.151031,NW 49th St/NW 5th Ave
216,26.320355,-80.207380,NW 72nd Ct/NW 60th Ln
2194,26.258804,-80.099873,N Federal Hwy
390,26.182135,-80.304475,Sawgrass Expy
631,26.108476,-80.288049,I- 595
552,26.238137,-80.168578,Eagle Dr/Putter Pl
839,26.311240,-80.176049,Village Dr/Millstream Ln
526,26.020894,-80.264654,NW 15th St
160,25.979300,-80.144794,Old Federal Hwy/John St
160,26.147374,-80.131922,NE 16th St
160,26.089696,-80.304117,SW 24th St/116th Ter
334,26.123653,-80.281964,NW 2nd Ct
472,26.150859,-80.117754,NE 22nd Ave
185,26.306045,-80.129658,East Dr
185,26.183897,-80.162512,NW 15th Ave/NW 46th St
305,26.203373,-80.260174,Lagos de Campo Blvd
499,26.002832,-80.189340,S 46th Ave/Washington St
526,26.083835,-80.181305,I- 595
1381,26.138357,-80.114779,Sunrise Plz/Bayview Dr
246,26.219253,-80.198068,SW 8th Ct/SW 8th St
499,26.001495,-80.247197,W Airport Rd
658,26.235573,-80.237662,Ramblewood Dr/W Atlantic Blvd
246,26.203665,-80.105663,Bay Colony Dr
216,26.256274,-80.219315,NW 22nd Way
813,25.999315,-80.117927,Jasmine Ter
445,25.999054,-80.158814,S 26th Ave/Wiley St
305,26.063153,-80.148575,S Perimeter Rd/NW 7th Ave
788,26.148532,-80.245110,/W Sunrise Blvd
334,26.221995,-80.232653,SW 7th St/SW 78th Ter
160,26.101319,-80.179583,SW 16th St
246,26.326075,-80.166804,NW 7th St/NW 46th Ave
390,26.055826,-80.145071,NW 2nd St/NW 3rd Ave
276,26.012638,-80.229525,Taylor St/N 70th Way
552,26.071419,-80.362576,Weston Rd/Emerald Way
276,26.078266,-80.204978,US Hwy 441
160,26.061301,-80.433632,Orange Dr/US Hwy 27
185,26.018385,-80.130516,Lincoln St/N 12th Ave
246,25.986440,-80.220263,SW 26th Ct/SW 66th Ave
552,26.252984,-80.086992,Canal Dr
185,26.237963,-80.232541,NW 6th St/NW 5th Ct
246,26.170625,-80.124983,NE 17th Ave/NE 34th Ct
305,26.026517,-80.342895,NW 145th Ave
305,26.162424,-80.134909,NE 9th Ave/NE 28th St
526,26.165004,-80.282167,NW 98th Ave/NW 31st Pl
216,26.049463,-80.222998,SW 57th Pl/SW 57th Way
445,26.013484,-80.163379,Taylor St/N 28th Ave
605,26.045173,-80.224875,NW 68th Ave
185,26.223746,-80.269426,NW 79th St/NW 87th Ave
865,26.116974,-80.325112,/I595 Ramp
246,26.239186,-80.234690,NW 6th Ct/NW 82nd Ave
246,26.027781,-80.285063,Cedarwoods Ave/Juniper Ct
631,26.181943,-80.153950,NW 8th Ln/NW 45th St
418,26.019636,-80.199870,Hayes St/N 56th Ave
362,26.112519,-80.331349,Oak Ridge Dr/Auburn Way
334,26.099638,-80.153126,SW 9th Ave/SW 17th St
472,26.267044,-80.258146,NW 29th St/NW 99th Ave
418,26.182414,-80.267854,NW 88th Ave
216,26.077218,-80.174602,SW 36th St
552,25.988509,-80.360432,Silver Shores Blvd/SW 160th Ave
2678,25.972262,-80.246452,Florida's Tpke Exd
216,26.182491,-80.244336,NW 71st Ave/NW 46th Ct
579,26.026707,-80.243409,NW 78th Ave/NW 19th Ct
216,26.012027,-80.356408,4th St/159th Ave
334,26.020025,-80.190520,Hayes St/Hayes Cir/N 46th Ter
499,26.149830,-80.135934,NE 17th St/NE 8th Ave
216,26.244734,-80.217113,NW 12th St/NW 69th Ave
216,26.262082,-80.182914,/NW 42nd Ave
839,26.129048,-80.415342,Tanglewood Cir
185,26.250203,-80.225184,NW 18th St
445,26.228156,-80.278166,NW 95th Ave/NW 83rd St
968,26.103417,-80.120763,SE 15th St
185,26.184310,-80.133374,NE 46th Ct/NE 10th Ave
684,26.116928,-80.313611,SW 124th Ave
305,26.061774,-80.276271,SW 49th Pl/SW 93rd Ave
185,26.114721,-80.154969,SW 10th Ave/SW 5th Pl
418,26.024589,-80.370005,NW 167th Ave/NW 20th St
390,26.121422,-80.390874,Cameron Dr
216,26.300299,-80.081178,SE 17th Ter/SE 14th St
185,26.266118,-80.141451,NW 13th Ave
276,26.027075,-80.140163,N 16th Ct/Wilson St
362,26.113992,-80.109849,Clematis Pl/Idlewyld Dr
185,26.213269,-80.285243,NW 71st Pl/N Belfort Cir
246,26.101759,-80.293811,SW 109th Way
216,26.058638,-80.428855,SW 50th St/SW 210th Ter
710,26.003696,-80.269027,SW 6th Ct/SW 93rd Ave
362,26.301097,-80.268289,NW 57th Ct/Alley
216,26.242983,-80.283138,NW 9th St/NW 118th Way
276,26.122597,-80.187638,NW 32nd Ave
788,26.124357,-80.360049,/State Hwy 84
526,26.160456,-80.235200,NW 27th St/NW 64th Ave
390,26.166890,-80.292360,NW 32nd Pl/NW 32nd Ct
917,26.033832,-80.134911,Sheridan St/N 14th Ave
499,26.159347,-80.138903,NE 26th St
246,26.266854,-80.267273,NW 29th Ct/NW 106th Ave
499,26.062766,-80.144167,Jasmine Dr/NW 4th Ave
216,26.237457,-80.174797,NW 4th Ct
185,26.098255,-80.325455,SW 132 Way/SW 16 St
579,26.131672,-80.137971,NE 7th St/NE 5th Ter
1149,26.140036,-80.204138,NW 11th Ct
472,26.133887,-80.258722,NW 8th St/NW 81st Ave
526,25.981634,-80.318612,SW 29th St/SW 29th Ct
526,26.186472,-80.242358,NW 49th Ct
839,26.215308,-80.136406,I- 95
160,26.252915,-80.149586,NW 18th St/NW 19th Ave
305,26.075556,-80.248498,SW 76th Ave
362,26.065068,-80.377406,Dogwood Cir/Magnolia Ridge Dr
246,26.295760,-80.205180,NW 57th Way/NW 53rd Ct
185,26.020449,-80.295213,NW 109th Ter/NW 16th Ct
2462,26.007857,-80.333105,Pines Blvd/NW 142nd Ave
160,26.066857,-80.185596,SW 32nd Ave/SW 44th St
968,26.255176,-80.136672,I- 95
418,26.257096,-80.118925,NE 21st St/N Dixie Hwy
276,26.060716,-80.134340,Taylor Rd
579,26.094112,-80.198159,SW 37th Ter/SW 22nd St
216,25.987875,-80.202662,S 58th Ave/SW 25th St
499,26.024133,-80.358220,159th Ln/NW 159th Ln/NW 15th Manor
276,26.248732,-80.181999,/Wynmoor Cir
334,25.972308,-80.227798,NW 215th St
362,26.265794,-80.127369,NW 4th Ave/NW 28th St
788,26.038583,-80.153565,N 23rd Ave/Douglas St
362,26.241739,-80.103697,NE 18th Ave
865,26.119409,-80.146336,N New River Dr W/SW 3rd Ave
246,26.083270,-80.162024,SW 33rd Ct
160,26.095385,-80.115666,SE 21st St/SE 21st Ave
305,26.071870,-80.378205,Eagle Ct/Falcon Ridge Cir
418,26.021759,-80.284150,Taft St/Palmetto Ln/NW 103rd Ave
334,26.136256,-80.314195,NW 12th St/N Flamingo Rd
246,26.016407,-80.383452,NW 178th Ter
445,26.250858,-80.134728,NW 16th Pl/NW 7th Ter
276,26.036318,-80.205466,Randolph Clay Dr
246,26.223953,-80.273268,NW 79th Ct/NW 90th Ave
418,26.301211,-80.221312,NW 71st Ter
246,26.325430,-80.222429,NW 71st Way
499,26.318415,-80.285648,NW 69th Pl/Heron Run Dr
362,26.118926,-80.183042,SW 2nd Ct/SW 29th Ave
246,26.203433,-80.240454,SW 84th Ave/SW 19th St
472,26.128740,-80.385486,/Lakeview Dr
362,26.259056,-80.118380,NE 23rd St/N Dixie Hwy
526,25.983214,-80.147717,SE 1st Ave/SE 2nd St
552,26.321152,-80.208432,NW 73rd St/NW 61st Ter
185,26.155258,-80.181043,NW 23rd St/NW 28th Ave
334,26.163988,-80.105529,NE 28th St
968,26.007731,-80.375977,SW 172nd Ave/Pines Blvd
246,26.160696,-80.281900,Sunrise Lakes Blvd
390,26.036323,-80.296305,Lincoln Way/Springfield Pl
362,25.985408,-80.215536,SW 28th St/SW 64th Ter
185,26.304135,-80.101544,SE 1st Way/SE 10th Ct
334,26.188607,-80.249380,NW 51st St/NW 74th Ter
216,26.129690,-80.226059,Camellia Ct/Rose Ter
917,25.986359,-80.148441,NW 1st St/N Dixie Hwy
246,26.150652,-80.297504,NW 20th Ct/Hiatus Rd
334,26.151373,-80.129055,NE 18th St/NE 15th Ave
246,26.143980,-80.441545,/US Hwy 27
246,26.157597,-80.254995,Sunrise Lakes Dr E/NW 26th St
185,26.143099,-80.208203,NW 13th Ct/NW 43rd Ter
445,26.291257,-80.133479,Cypress Ln/NW 49th St/Discovery Dr/Green Rd
276,26.109838,-80.228804,SW 8th Ct/SW 58th Ave
552,26.123929,-80.150560,NW 2nd St/NW 7th Ave
418,26.285067,-80.227704,NW 44th Ct
362,26.024400,-80.226989,Taft St/N 69th Ter
305,26.292997,-80.170758,Stagecoach Dr/Lakewood Pl
445,26.120898,-80.305754,Terra Bella Blvd
185,26.311291,-80.140278,Lyndhurst/Lyndhurst J
418,26.087163,-80.164957,SW 18th Ter
246,26.008266,-80.199384,Van Buren St/S 56th Ave
216,26.069551,-80.367558,Sapphire St/Sapphire Bend
362,26.094815,-80.138642,/SE 4th Ave
305,26.180314,-80.161151,NW 13th Ave/NW 43rd St
160,26.168699,-80.171452,NW 21st Ave
216,26.258708,-80.168757,NW 33rd Ter
334,26.123770,-80.281365,NW 2nd Ct
276,26.204733,-80.223069,Runners Way
362,26.058593,-80.349422,SW 49th St/SW 151st Ave
362,26.137083,-80.252386,NW 77th Ave/NW 10th Ct
334,25.988847,-80.210840,S 62nd Ave/SW 24th St
390,25.991401,-80.280339,SW 101st Way
499,25.970610,-80.311400,Florida's Tpke Exd/SW 124th Ave
160,26.056605,-80.264649,SW 51st Pl/SW 88th Ter
362,26.174525,-80.291885,/NW 107th Way
246,26.180989,-80.109520,NE 26th Ave/NE 42nd St
445,25.967740,-80.359501,SW 48th Ct
305,26.186506,-80.260788,NW 50th St/NW 82nd Ter
334,26.313094,-80.268833,NW 66th Ct
334,26.038334,-80.236839,Charleston St
185,26.151259,-80.235003,NW 20th Ct/NW 64th Ave
246,26.267015,-80.087171,NE 28th Ct/NE 26th Ave
605,26.292712,-80.172099,Woodfield Dr/Woodfield Ct
334,26.130081,-80.128548,NE 6th St/NE 15th Ave
2088,26.148259,-80.138871,NE 16th Ct/NE 5th Ter
276,26.264599,-80.087267,NE 26th Ter/NE 27th St
216,26.294737,-80.243263,NW 52nd Pl/NW 87th Way
276,26.198801,-80.247629,NW 72nd Ave/NW 60th St
813,26.003229,-80.149021,S Dixie Hwy/Dewey St
160,26.225719,-80.267276,NW 86th Ter/NW 82nd St
526,26.147165,-80.154184,NW 16th St/NW 9th Ave
684,26.165351,-80.191089,W Oakland Park Blvd/NW 33rd Ave
1252,26.304724,-80.115682,SW 10th St/SW Natura Blvd/SW 11th Way
736,26.236787,-80.130427,NW 6th St/NW 6th Ave
418,25.982692,-80.395221,SW 28th St/SW 186th Ave
185,26.018085,-80.338840,NW 15th St/NW 142nd Ave
362,26.124902,-80.152082,NW 8th Ave/NW 3rd St
276,26.219301,-80.095621,W Terra Mar Dr/Cypress Creek Dr
216,25.970344,-80.404976,SW 41st St/SW 194th Ave
1537,26.114894,-80.313435,State Hwy 84
362,26.068814,-80.242820,SW 72nd Way/SW 42th Ct
710,26.045756,-80.241235,/Stirling Rd
160,26.028022,-80.226450,Park St/N 69th Ave
1355,26.147578,-80.139809,NE 16th St/NE 5th Ave
472,26.126484,-80.254154,NW 3rd Ct
1252,26.064936,-80.391759,Sago Cir/Willow Ridge Dr
390,26.143750,-80.226791,NW 16th St
160,26.109837,-80.336254,Appalachian Trl/Monticello St
185,26.120325,-80.220693,SW 1st St/SW 53rd Ave
216,26.108530,-80.306580,SW 118th Ter/SW 9th Ct
390,26.170664,-80.205575,NW 36th St
160,26.299444,-80.293449,NW 55th St/NW 125th Ter
1020,26.024460,-80.143246,N Federal Hwy/McKinley St
216,26.158063,-80.120836,NE 20th Ave/NE 24th St
160,26.094157,-80.323298,SW 21st Pl/SW 131st Ter
579,26.198843,-80.142839,NE 58th St/NE 3rd Ave
552,25.983453,-80.260948,Midland Pl/S Cresent Dr
276,26.119084,-80.285128,S Nob Hill Rd/SW 1st Ct
2328,26.065090,-80.232111,SW 64th Ave/Griffin Rd
362,26.191701,-80.101792,W Tradewinds Ave/Bombay Ave
185,26.009879,-80.434391,NW 215th Ave/NW 3rd St
160,26.130243,-80.438863,Rec Rd/US Hwy 27
334,26.024595,-80.285644,NW 19th St/NW 104th Ave
276,26.169508,-80.134370,NE 34th St/NE 10th Ave
160,26.210271,-80.287238,NW 71st St/NW 70th St
305,26.012567,-80.264794,NW 89th Ter/NW 5th St
1693,26.203787,-80.148619,SW 12th Ave
994,25.987941,-80.146318,NE 2nd Ter/NE 2nd St
362,26.126417,-80.210226,NW 4th St/NW 46th Ave
813,26.013374,-80.219588,Fillmore St/N 65th Ter
362,26.027180,-80.322152,NW 22nd Manor/NW 129th Ter
246,26.138693,-80.294148,NW 11th Ct/NW 12 St
276,26.225086,-80.251300,NW 82nd St/NW 75th Ave
579,26.197884,-80.122103,NE 57th St/NE 18th Ter
362,26.109658,-80.345603,W Beckley Sq
631,26.061866,-80.393659,Griffin Rd/Bonaventure Blvd
305,26.134865,-80.181463,NW 9th Ct/NW 28th Ter
216,26.285155,-80.139912,NW 12th Dr/NW 45th St
160,26.257982,-80.224171,NW 25th St/Holiday Springs Blvd/NW 24th St
788,26.127653,-80.264491,Cleary Ct
362,26.186721,-80.258967,NW 81st Ter/NW 50th St
445,26.299457,-80.113228,SW 6th Way/SW 14th St
246,26.187112,-80.178489,NW 49th St/NW 26th Way
579,26.092206,-80.170063,SW 23rd Ave
334,26.333820,-80.269080,NW 83rd Ct/Osprey Trl
216,26.119914,-80.283161,SW 101st Ave/SW 1st St
684,26.228413,-80.281783,NW 100th Ave
418,26.009643,-80.125422,N Southlake Dr/S 10th Ave
362,26.247076,-80.207330,NW 62nd Ter/NW 15th Ct
362,26.146393,-80.293090,NW 18th Ct/NW 108th Ave
552,26.122492,-80.382301,Hemingway Dr/Racquet Club Rd
276,26.238289,-80.264436,NW 6th St
526,26.209447,-80.137847,I- 95
185,26.290794,-80.103439,NE 48th Ct/NE 15th Ave
472,26.124093,-80.208263,NW 3rd St/NW 45th Ave
185,26.119917,-80.366177,la Costa Ct/la Costa Dr
390,26.015813,-80.269071,Johnson St
472,26.030645,-80.297481,Rampart Way S/Roundelay Rd
445,26.160199,-80.252803,NW 28th Ct/NW 80th Ave
362,26.175204,-80.254514,NW 78th Ave
216,25.985098,-80.380217,SW 174th Ave/SW 29th Ln
552,26.171766,-80.295763,NW 36th St/Hiatus Rd
472,26.260144,-80.198124,Buena Vis/Rio Nuevo
605,26.002632,-80.216804,Florida's Tpke
499,26.236616,-80.149297,NW 4th Ct/NW 6th St/NW 19 Ave
526,25.980758,-80.321662,SW 130th Ave
305,26.034597,-80.303723,N Budd Dr/W Budd Dr
246,26.036408,-80.197699,Ivy Rd/Greens Rd
185,26.261733,-80.115405,NE 25th St/NE 5th Ave
445,25.960317,-80.320947,SW 52nd St/SW 51st St/SW 131st Ter
499,26.098862,-80.254911,SW 81st Ave/SW 17th Pl
160,26.105002,-80.294686,SW 110th Ln
305,25.982196,-80.312312,SW 125th Ave
185,26.281621,-80.082825,NE 30th Ave/NE 41st St
526,26.115833,-80.375201,Saddle Club Rd/Kelly Ln
605,26.036035,-80.131277,SE 13th St
185,25.986930,-80.195426,SW 51st Ter/SW 26th St
216,26.214780,-80.251103,NW 76th St/NW 75th Ave
1149,26.053598,-80.162029,/I- 95
762,26.062394,-80.185489,SW 32nd Ave/Griffin Rd
246,26.157656,-80.280359,NW 26th Ct/NW 98th Ave
472,26.014545,-80.282866,NW 102nd Ave
968,26.313608,-80.117047,/I- 95
276,25.991638,-80.193207,SW 21st St/SW 50th Ave
1046,26.150218,-80.316552,Sawgrass Mills Cir/Blue Dolphin Blvd
246,26.039621,-80.361522,Dykes Rd
246,26.018012,-80.337072,NW 13th St/NW 140th Ter
2194,26.272652,-80.265569,NW 34th St
246,26.179069,-80.212397,NW 43rd Ct/NW 46th Ter
305,26.001521,-80.274892,SW 98th Ave
185,26.171927,-80.271683,NW 91st Ave/NW 38th St
276,26.003999,-80.273475,SW 96th Ave/SW 6th Ct
499,26.158039,-80.258475,NW 26th Pl/NW 83rd Ave
445,26.269551,-80.198214,Festival Dr/Jubilee Way
246,26.105696,-80.241275,Peters Rd
472,25.990321,-80.366595,SW 20th St
185,26.201692,-80.241211,SW 84th Ter/SW 20th St
684,26.108557,-80.166490,SW 11th St/SW 19th Ave
246,26.110369,-80.140168,SE 3rd Ave
276,25.979181,-80.242184,Biltmore Blvd/W Nassau Dr/Nassau Dr
445,26.009008,-80.366618,NW 165th Ave/NW 2nd Dr
185,26.078675,-80.289100,/Lone Star Pl
552,26.142629,-80.239406,NW 68th Ave/NW 14th St
710,26.012315,-80.281547,NW 102nd Ter/NW 5th St
418,26.238852,-80.118780,NE 8th St/NE 5th Ave
994,26.001398,-80.167283,S 30th Ave
160,26.283883,-80.261566,NW 43rd St
917,26.139763,-80.219319,Florida's Tpke
185,26.194475,-80.178194,NW 55th Ct/W Perimeter Rd
526,26.070407,-80.404894,W Hibiscus St
246,26.207890,-80.175337,NW 68th St/NW 24th Way
216,26.011544,-80.382638,NW 7th St/NW 177th Ave
1903,26.104637,-80.142852,S Andrews Ave/SW 14th St
1097,26.032767,-80.180768,Sheridan St/Cam Sheridan Vlls
1046,26.231305,-80.122840,Cypress Rd
552,26.089239,-80.205832,SW 25th St/SW 42nd Ave
334,26.171604,-80.228404,Inverrary Dr
499,26.202183,-80.189244,NW 62nd St/NW 31st Ter
305,26.123235,-80.292474,NW 2nd St/NW 108th Ave
185,26.172554,-80.187200,NW 31st Ave
246,26.114282,-80.338805,Radford Ter
390,26.306273,-80.115711,Tivoli Cir
334,26.038593,-80.236427,Charleston St
246,26.155903,-80.184412,NW 30th Ave/NW 24th St
418,26.117539,-80.416413,Marina Dr/Stillwater Ct
631,26.299446,-80.240291,NW 56th St/NW 86th Ave
334,26.157321,-80.185316,NW 25th St/NW 30th Ter
788,26.015401,-80.280040,N Palm Ave/Johnson St
499,25.991213,-80.384745,SW 177th Ter
334,26.126449,-80.398701,Falls Blvd/N Lake Blvd/Indian Trce
305,26.015836,-80.361464,NW 163rd Ave/NW 10th St
362,26.002631,-80.276579,SW 7th St/SW 99th Ave
276,26.158821,-80.183625,NW 29th Ter
246,26.147493,-80.191358,NW 17th St/NW 33rd Ave
334,26.271196,-80.254175,NW 33rd St/NW 96th Ave
185,26.255379,-80.283385,Monte Carlo Way/Eagle Trace Blvd N
276,26.272475,-80.181651,NW 35th St
216,26.135057,-80.237726,NW 9th St/NW 67th Ave
216,26.020222,-80.171064,Hayes St/N 31st Ct
246,26.157022,-80.198065,NW 37th Ave/NW 25th St
185,26.217708,-80.180184,Cypress Blvd/W Palm Aire Dr
1200,26.234630,-80.194743,W Atlantic Blvd/Banks Rd
362,26.205549,-80.234268,Belmont Ln
305,26.004286,-80.138807,Washington St/S 16th Ave
160,26.187893,-80.130742,NE 12th Ter/NE 49th St
276,26.253349,-80.124219,NW 1st Ter/NW 18th St
968,25.994170,-80.281672,SW 16th St
1046,26.043312,-80.160999,Oakwood Blvd
418,26.302543,-80.286434,Sawgrass Expy
472,26.131247,-80.172526,NW 7th St/NW 22nd Rd
334,26.133387,-80.262326,NW 8th Ct/NW 8th St
246,26.097451,-80.138697,SE 19th St/SE 4th Ave
216,26.257225,-80.202541,NW 57th Ter/NW 24th St
362,26.182354,-80.132395,NE 44th Ct/NE 11th Ave
185,26.153763,-80.217797,NW 50th Ave/NW 22nd St
216,26.159692,-80.275987,Sunrise Lakes Blvd
334,26.036407,-80.220142,Frank Shore Ct
334,26.166456,-80.271848,NW 32nd Manor
362,26.099706,-80.204535,SW 42nd Ave/SW 18th St
1511,26.286474,-80.186442,Lyons Rd
1226,26.203676,-80.132344,NE 62nd St
246,26.259036,-80.097909,NE 23rd St/NE 26th Ave
445,26.150498,-80.162451,NW 18th Ct/NW 15th Ave
445,26.291139,-80.144933,NW 15th Ter/NW 49th Ct
445,26.237700,-80.131456,NW 6th St/NW 7th Ave
160,26.040602,-80.165800,N 29th Ave
334,26.276570,-80.233966,NW 37th St
160,26.044148,-80.398759,Stirling Rd/SW 188th Ave
418,26.043534,-80.148691,SW 4th Ct/SW 4th Ter
418,26.105468,-80.248202,SW 75th Ave/SW 12th St
943,25.972641,-80.365742,SW 165th Ave
276,26.065286,-80.385211,Fox Ridge Dr/Fox Run Ct
418,26.127040,-80.186322,NW 5th St/NW 31st Ave
552,26.142033,-80.257875,NW 80th Ter
160,26.036839,-80.317008,Apaloosa Trl/SW 66th St/Luray Rd
445,26.247140,-80.244332,NW 89th Dr/NW 14th St
943,26.250550,-80.269640,NW 107th Dr/Cypress Pointe Dr
185,26.198094,-80.276097,NW 93rd Ter/NW 94th Ave
160,25.963445,-80.298889,SW 47th St/N Haven Dr/SW 115th Ave
362,26.277452,-80.113650,NE 38th St/NE 8th Ave
216,26.175314,-80.249335,NW 40th St/NW 73rd Ave
246,26.301772,-80.257894,/Sawgrass Expy
418,26.171292,-80.231406,/Inverrary Dr
362,26.022774,-80.136708,N 14th Way/Arthur St
362,26.131073,-80.127402,NE 16th Ave/NE 6th Ct
865,26.103522,-80.200753,SW 13th Ct/SW 39th Ter
216,26.023158,-80.365960,NW 163rd Ter/NW 17th St
246,26.249996,-80.204642,W River Dr/NW 18th St
246,26.024821,-80.388178,NW 18th St/NW 182nd Ave
552,26.127852,-80.391528,Heritage Way/Heritage Dr
246,26.117967,-80.318330,SW 127th Ave/SW 2nd St
246,25.981162,-80.169626,10th St/Pond Dr
216,26.143355,-80.288586,NW 16th St/NW 104th Ave
216,26.237537,-80.216829,NW 7th Ct/NW 69th Ave
160,26.243691,-80.208475,NW 13th St/W River Dr
418,26.113187,-80.321783,Dogwood Ln
390,26.248499,-80.170241,Ave of the Stars/Wynmoor Cir
305,26.124554,-80.191618,NW 3rd St/NW 34th Ave
305,26.092448,-80.373988,Baton Rouge
246,26.284602,-80.139274,NW 12th Dr/NW 44th St
246,26.201401,-80.248334,NW 72nd Ave/NW 63rd St
472,26.189313,-80.151056,NW 51st St
216,26.264429,-80.254074,NW 96th Ave/NW 27th Ct
305,26.244121,-80.288869,NW 10th Manor/NW 121st Ter
579,26.311534,-80.169916,Sawgrass Ramp
305,26.037628,-80.147762,W Dixie Hwy
160,26.333883,-80.256210,Bay Leaf Ct
246,26.014016,-80.257201,NW 7th St/NW 85th Way
246,26.029509,-80.167314,S Ave A/N Okomo Dr
334,26.092122,-80.158993,SW 24th Ct/SW 14th Ave/SW 24th Pl
362,26.108012,-80.177816,SW 11th Ct/SW 27th Ave
684,26.188722,-80.268106,N Pine Island Rd/NW 52nd St
390,26.125484,-80.380364,W Mall Rd
216,25.982113,-80.326341,SW 29th St/SW 134th Ave
552,25.993746,-80.163616,NW 7th Ct
334,26.103522,-80.202388,SW 41st Ave
305,26.257454,-80.087154,N Ocean Blvd/Beacon St
276,26.209897,-80.181663,Cypress Reach Ct/Cypress Blvd
216,26.292594,-80.091517,NE 23rd Ter/NE 50th St
246,26.022528,-80.210436,Mhp
658,26.016783,-80.212867,Florida's Tpke
305,26.144064,-80.163212,NW 15th Ter/NW 14th Ct
1329,26.099616,-80.251140,/State Hwy 84
552,26.001953,-80.311031,SW 122nd Ter/S W 7th St
710,26.136194,-80.188297,W Sunrise Blvd
579,26.045935,-80.235676,Stirling Rd/SW 67th Ave
246,25.985600,-80.259195,Canal Rd/N Sutton Dr
216,26.183469,-80.148942,NW 3rd Ave/NW 46th St
472,26.043050,-80.149595,Phippen-Waiters Rd/Phippen Rd/SW 5th St
334,26.192439,-80.101747,W Tradewinds Ave/Algiers Ave
472,26.270894,-80.284491,NW 32nd Ct/NW 118th Dr
472,26.151177,-80.175017,NW 24th Ter/NW 19th St
216,26.321984,-80.280017,NW 73rd Manor/NW 114th Ter
276,26.051185,-80.190523,SW 34th Ave/SW 34th Ter
216,26.094426,-80.221729,SW 21st St/SW 52nd Ave
418,26.021237,-80.210039,Arthur St/N 61st Ave
552,26.181480,-80.275019,NW 46th St/NW 93rd Ave
246,26.163565,-80.180680,NW 30th St/NW 27th Way
445,26.002166,-80.146799,S 20th Ave/Funston St
472,26.233647,-80.100938,NE 23rd Ave/NE 2nd St
246,25.962135,-80.360054,SW 51st St/SW 159th Ave
216,26.233196,-80.284676,NW 2nd Ct/NW 119th Way
185,26.279724,-80.276658,NW 113th Ave/NW 39th Ct/NW 40th St
305,26.096167,-80.281758,S Nob Hill Rd
552,26.291489,-80.274294,NW 110th Ter/NW 49th Manor
276,26.154228,-80.285170,NW 101st Ter/NW 24th Ct
334,26.037467,-80.238747,Davie Rd Exd/NW 75th Ave
246,26.219663,-80.244735,NW 78th Ct/NW 69th Ter
216,26.083445,-80.144507,SW 33rd St/SW 3rd Ave
216,26.252832,-80.151644,NW 18th St/NW 21st Ave/Powerline Rd
334,26.040875,-80.377608,SW 172nd Ave/SW 62nd Ct
472,25.982369,-80.254500,W Missionwood Dr/W Missionwood Ln
362,26.020419,-80.128214,N 11th Ave/Satinleaf St
472,26.001226,-80.288861,SW 106th Ave
216,26.110873,-80.342323,Hampton Pl
305,25.960645,-80.350835,SW 52nd St/SW 153rd Ave
216,26.150549,-80.143358,NE 2nd Ave
334,26.264594,-80.086628,NE 27th Ave/NE 27th St
276,26.314606,-80.155844,Quiet Waters Park Rd
160,26.083306,-80.146996,Snyder Park Rd/SW 33rd St
216,26.093226,-80.179895,SW 28th Ave/Riverland Rd
605,26.034484,-80.145337,SW 15th St/SW 2nd Ave
334,26.235327,-80.095299,NE 4th St
418,25.994729,-80.307617,SW 120th Ter
445,26.274556,-80.104450,NE 14th Ave/NE 35th St
160,25.999594,-80.192606,Hillcrest Ct
445,26.164963,-80.294974,NW 109th Ave
276,26.309414,-80.076507,SE 6th St/SE 21st Ave
813,26.299949,-80.286879,Wyndham Lakes Blvd N
552,26.062518,-80.278961,SW 49th St/SW 94th Way
276,26.076721,-80.225477,SW 59th Ave/SW 36th Ct
160,25.960688,-80.406364,SW 51st Ct
552,26.271599,-80.114511,NE 33rd St
579,26.226560,-80.176368,Oaks Way
390,26.110973,-80.318104,Holly Ln
216,26.110300,-80.155918,SW 11th Ave
1226,26.088256,-80.136396,S Federal Hwy
276,26.190854,-80.231183,Dogwood Cir/Banyan Ln
362,26.266713,-80.191182,Cocoplum Cir/Coco Plum Cir
305,26.111890,-80.200525,SW 8th St/SW 39th Ave
246,26.250016,-80.184944,Antigua Ter
362,26.176336,-80.265855,Chester Ct
305,26.296927,-80.136634,SW 15th St/SW 24th Ter
305,26.281981,-80.217608,NW 42nd St/NW 67th Way
390,26.006446,-80.273001,SW 2nd St/SW 95th Ter
3419,26.011424,-80.149291,S Dixie Hwy/Hollywood Blvd/N Dixie Hwy
185,25.972279,-80.399216,SW 188th Ave
185,26.075349,-80.383239,Windmill Ranch Rd/Derby Ln
362,25.989053,-80.152344,NW 3rd St/NW 4th Ave
362,26.116708,-80.348970,I- 75
631,26.008527,-80.344739,NW 1st St/NW 151st Ave
246,26.121912,-80.183454,NW 1st St/NW 29th Ter
305,26.298876,-80.166041,SW 13th St/SW 12th Pl
418,26.171743,-80.144528,NE 35th Ct
362,26.209549,-80.113629,NE 21st Rd/NE 67th St
160,26.016025,-80.351158,NW 157th Ave/NW 11th St
839,26.107740,-80.408971,Harbor Pointe Cir
1174,26.078702,-80.397926,Huntington
216,26.140555,-80.269457,NW 12th St/NW 90th Ave
276,26.225639,-80.244488,NW 69th Ave/NW 82nd St
276,25.985224,-80.249528,SW 27th St
160,26.115818,-80.193221,E Melrose Cir/W Melrose Cir
305,26.030845,-80.183088,Thomas St/N 39th Ave
362,26.026897,-80.285066,Sweetgum Ave/Mango Ct
418,26.255371,-80.213932,NW 66th Ave/NW 22nd St
472,26.298612,-80.258707,NW 56th St/NW 100th Ave
185,25.987862,-80.195703,SW 25th St
276,26.111520,-80.248326,SW 75th Ave/SW 7th St
276,25.978782,-80.210433,S 62nd Ave/SW 35th St
160,26.224288,-80.217113,SW 5th St
276,26.293021,-80.281096,NW 49th Ct/NW 115th Ter
579,26.044143,-80.361517,SW 160th Ave/SW 60th St
579,26.234235,-80.130369,Hammondville Rd/NW 6th Ave
160,26.059189,-80.287874,Grove Pl
552,26.238961,-80.151368,NW 21st Ave
276,26.040575,-80.282653,Capri St/Bimini Ave
185,26.235510,-80.092622,NE 2nd St
445,26.020428,-80.393756,NW 20th St/NW 184th Ter
579,26.309170,-80.101634,SE 1st Way/SE 7th St
216,26.027275,-80.426492,NW 22nd Ct/NW 208th Way
246,26.077790,-80.218116,SW 50th Ln
246,26.244955,-80.128656,NW 14th St/NW 3rd Way
390,26.187679,-80.179019,W Commercial Blvd/NW 50th St/NW 27th Ave
579,26.221821,-80.242075,NW 80th Ct/NW 67th Ave
362,26.164099,-80.102177,NE 29th St/NE 33rd Ave
185,26.111533,-80.202678,SW 8th St
246,26.110999,-80.226774,SW 57th Ave/SW 8th St
1020,26.134073,-80.256860,N University Dr/NW 8th St
684,26.055588,-80.281398,SW 101st Ter/SW 51st St
390,26.118922,-80.359783,SW 159th Ter/SW 2nd St
334,26.016812,-80.203798,Lincoln St/N 58th Ave
362,26.153475,-80.233924,Sunset Strip/NW 63rd Ave
526,26.012418,-80.212449,Polk St
185,26.332450,-80.268316,NW 105th Ln/NW 107th Ter/NW 106th Ln
390,26.014643,-80.245441,NW 7th St/NW 79th Ave
160,26.262809,-80.106565,NE 25th Ct/NE 12th Ave
185,25.963375,-80.319261,SW 49th Ct/SW 129th Ter
472,26.300238,-80.193372,/Sawgrass Expy
362,26.013331,-80.221206,Fillmore St/N 66th Ave
710,26.055090,-80.310394,SW 51st Ct/SW 121st Ter
499,26.107921,-80.184537,SW 11th Ct/SW 30th Ave
276,26.218550,-80.273171,Holly Ct
362,25.977130,-80.242117,W Nassau Dr/Embassy Blvd
334,26.054848,-80.271714,SW 52nd St/SW 91st Ave
276,26.013766,-80.329405,NW 9th Ct/NW 135th Ter
605,26.022844,-80.168499,N 30th Ct
390,26.220598,-80.260328,Buttonwood Cir
276,26.036878,-80.233541,NW 72nd Ter/Cody St
185,25.982555,-80.346153,SW 28th St/SW 149th Ave
445,26.044255,-80.292798,Stirling Rd
216,26.069174,-80.235819,SW 42nd Ct/SW 66th Way
2462,26.063352,-80.163680,I95 Ramp
1719,26.289853,-80.123860,NW 48th St
185,26.016201,-80.174350,Buchanan St/N Golf Dr
445,26.242713,-80.099160,NE 24th Ave
362,26.085543,-80.180354,SW 30th Ave/W State Rd 84
1226,26.010877,-80.212557,Tyler St
246,26.043003,-80.224822,NW 68th Ave
160,26.195625,-80.224633,NW 55th Ln
246,26.256605,-80.204747,NW 23rd St/W River Dr
418,26.161843,-80.170832,NW 21st Ave
246,26.235740,-80.183840,NW 4th St/NW 45th Ave
658,26.155276,-80.268061,N Pine Island Rd
216,26.017390,-80.264970,NW 89th Ter/NW 11th St
2114,26.115779,-80.138587,SE 5th Ave/SE 5th Ct
160,26.214188,-80.246520,NW 72nd Ave/NW 75th Ct
418,26.034501,-80.363055,SW 161st Ter/SW 161st Dr/SW 66th St
865,25.995125,-80.225273,Pembroke Rd
276,26.236273,-80.280698,NW 2nd Dr/NW 116th Ter
276,26.027198,-80.298469,NW 112th Ter/NW 113th Ave/NW 22nd St
445,26.128251,-80.253610,NW 78th Ave/NW 5th St
305,26.000974,-80.296610,SW 8th Pl/SW 113th Ave
305,26.316925,-80.146539,SW 32nd Ave/SW 1st St
185,26.286376,-80.099010,NE 18th Ter
445,26.244438,-80.266945,Coral Club Dr
1097,26.066798,-80.355917,I- 75
216,26.287307,-80.088154,NE 45th St/NE 26th Ave
276,26.047600,-80.269248,SW 58th St/SW 90th Ave
185,26.222933,-80.110323,SE 8th Ave/SE 5th Ct
305,26.062809,-80.237587,Lakeside Ter
631,26.238439,-80.278938,NW 6th Ct/NW 5th St
499,26.142597,-80.129853,NE 14th Ave/NE 13th St
246,26.022655,-80.383366,NW 178th Way
390,26.292517,-80.185677,NW 50th St/NW 45th Ter
246,25.989456,-80.357815,SW 21st St/SW 157th Ave
710,26.059578,-80.190442,SW 50th St/SW 33rd Way
334,26.188598,-80.186264,NW 30Ln
579,25.996483,-80.176317,Florida St/S 33rd Rd
185,26.027091,-80.233354,NW 19th Ct/NW 72nd Way
216,26.129605,-80.229003,Azalea Ct/Rose Ter
839,26.106790,-80.165267,Frontage Rd/Davie Blvd/SW 18th Ave
334,26.059039,-80.270673,SW 50th Pl/SW 90th Ave
216,25.977755,-80.399342,SW 33rd Ct/SW 187th Ter
552,25.995778,-80.226005,SW 69th Ave/SW 16th Ct
305,25.963886,-80.346114,SW 49th Ct
418,26.128136,-80.130377,NE 5th St/NE 13th Ave
305,26.271396,-80.279932,NW 33rd St/NW 114th Ln
216,26.325664,-80.109844,NW 6th St/NW 3rd Way
1046,26.154903,-80.224820,NW 56th Ave/NW 55th Way
499,26.188795,-80.267418,N Pine Island Rd/NW 52nd St/NW 87th Ter
390,26.101454,-80.173790,SW 15th Ct/SW 24th Ave
185,26.025363,-80.258215,NW 19th St
579,25.989828,-80.206846,SW 23rd St/US Hwy 441
736,26.035966,-80.213658,Florida's Tpke
736,26.119993,-80.359016,W Waterside Cir/SW 159th Ave
246,26.084275,-80.273315,Morning Glory Cir
246,25.978943,-80.273917,SW 97th Ter/W Elm Ln
276,26.306925,-80.181073,Serko Blvd/NW 63rd St
362,26.111147,-80.147132,SW 9th St/SW 4th Ave
605,26.089401,-80.246551,SW 74th Ter
305,26.152900,-80.195911,NW 21st St
334,26.256057,-80.254819,Maplewood Dr/NW 19th St
334,26.026657,-80.302750,NW 21st St/NW 115th Ter
246,26.215020,-80.130544,SW 12th St
185,26.315698,-80.145651,Ventnor K/Ventnor Dr
418,26.146475,-80.206839,NW 16th St
305,26.248225,-80.097682,NE 13th St/NE 26th Ave
334,26.132570,-80.213477,NW 7th Dr/NW 48th Ave
472,26.231290,-80.286095,SW 120th Way
305,26.127938,-80.285942,NW 5th St
472,26.234067,-80.156066,N Powerline Rd/NW 3rd St
185,25.980442,-80.124892,Hibiscus Dr
710,26.174593,-80.288262,NW 40th St
160,26.003504,-80.415864,SW 200th Ter/SW 5th Ct
390,26.284913,-80.265875,NW 44th St
160,26.158244,-80.175768,NW 26th St/NW 25th Ave
276,26.180192,-80.157834,NW 43rd St/NW 10th Ter
246,26.128325,-80.240520,NW 70th Ave/NW 5th St
526,25.991548,-80.142924,NE 5th St
390,26.095985,-80.224728,SW 29th St/SW 20th St/SW 53rd Ave
445,26.257714,-80.207852,NW 62nd Ter/NW 24th Ct
160,26.282167,-80.231362,NW 78th Ln/NW 78th Way
216,26.156191,-80.115863,NE 22nd Ter
160,26.005456,-80.344359,SW 4th St
305,25.987429,-80.198498,S 56th Ave
185,26.124749,-80.373090,Riviera Cir
276,26.263452,-80.129401,NW 26th Ct/NW 5th Ter
185,26.174254,-80.212840,NW 47th Ave
445,26.087650,-80.362961,/I- 75
216,26.244948,-80.129015,NW 14th St
276,26.263514,-80.094206,NE 26th St/NE 21st Ter
246,25.990912,-80.153332,NW 5th St/NW 5th Ave
994,26.069422,-80.231215,SW 63rd Ave/SW 42nd Ct
605,26.085252,-80.203445,I- 595
305,26.317211,-80.099730,SE 2nd Ave/SE 1st St
526,26.162883,-80.213450,/NW 30th St
362,26.075406,-80.388158,Stallion Ln
631,25.994235,-80.256881,Jodi Ln
334,26.093855,-80.204683,SW 42nd Ave/SW 22nd St
160,26.305510,-80.131500,Farnham Cres
1381,26.145372,-80.325896,W Sunrise Blvd/Yellow Toucan Rd
362,26.020288,-80.349182,NW 154th Ave/NW 12th Ct
526,25.974107,-80.227882,SW 38th Ct/Woodscape Cir
605,26.120731,-80.267838,/W Broward Blvd
185,26.112166,-80.372822,Lake Tree Dr
276,26.161481,-80.172916,NW 28th St/NW 22nd Trl
276,26.263733,-80.254975,NW 27th St
305,26.225222,-80.278080,NW 94th Ln
526,25.961817,-80.373367,SW 51st Ct/SW 170th Ave
305,26.317631,-80.188484,W Hillsboro Blvd
472,26.053381,-80.313332,SW 124th Ave
362,26.092859,-80.211493,SW 24th St/SW 45th Ave
246,26.120850,-80.175411,Sunset Mhp
5942,26.316517,-80.076219,NE 21st Ave/NE 2nd St
160,26.102656,-80.238145,SW 16th St/SW 67th Ter
362,26.232878,-80.258419,NW 1st Manor
216,26.190519,-80.272547,NW 54th St/NW 92nd Ave
276,26.053034,-80.255997,Phoenician Ct
390,26.111208,-80.359833,SW 7th Pl/SW 157th Ter
246,26.111529,-80.421811,Vanda Ter/Tulip Cir
445,26.108472,-80.357528,E Wind Cir/W Wind Cir
334,26.307652,-80.251139,NW 62nd Way/NW 93rd Dr
994,26.047208,-80.191631,Stirling Rd
276,26.315227,-80.085592,E Hillsboro Blvd/SE 15th Ave
736,25.989588,-80.291732,E Preserve Way
185,26.089449,-80.373419,Raleigh
305,26.134019,-80.158253,NW 8th Ct/NW 12th Ter
246,26.252640,-80.125231,NW 1st Way/NW 17th Ct
305,26.022466,-80.227675,N 69th Way/NW 69th Way/McKinley St
246,26.050987,-80.231658,SW 64th Ave/SW 56th St
658,26.313763,-80.079618,SE 1st St
246,26.043422,-80.189643,Mangrum Ct/N 45th Ave
334,26.117895,-80.285307,S Nob Hill Rd
1149,26.023158,-80.266376,NW 89th Ter/Taft St
276,26.170413,-80.114404,NE 35th St/NE 26th Ave
334,26.198026,-80.263479,NW 84th Ter
472,26.160462,-80.296980,NW 111th Ave
160,26.145559,-80.148309,NW 4th Ave/NW 15th St
472,26.140500,-80.140475,NE 4th Ave/NE 12th St
160,26.095634,-80.410248,Bay Pointe Dr
216,26.257957,-80.232678,NW 24th St
605,26.229540,-80.206446,SW 61st Ave/SW 1st St
305,26.097992,-80.318920,17th Pl/SW 127th Ln
160,26.061111,-80.385739,SW 178th Ave/SW 46th St
246,25.973388,-80.190852,SW 48th Ave
246,26.118391,-80.200443,SW 2nd Ct
1071,26.009769,-80.231690,Hollywood Blvd/N 72nd Ave
305,26.200378,-80.096192,Winnebago Rd/Chippewa Ln
160,26.309614,-80.141610,Markham Dr/Markham G/Markham F
216,26.000333,-80.126554,Harbor Vw N
684,26.281335,-80.134256,NW 41st Ct
499,26.025905,-80.162319,N 27th Ct/Taft St
579,26.104476,-80.274527,Evergreen Pl
579,25.973475,-80.227636,SW 40th St/Woodscape Cir
305,26.242165,-80.176518,NW 9th Ct/NW 41st Ave
684,26.155418,-80.189299,NW 23rd St/NW 32nd Ter
276,26.131139,-80.238576,NW 6th Ct/NW 68th Ave
526,26.164752,-80.316088,NW 125th Way
246,26.023614,-80.426850,NW 208th Way/NW 18th St
334,26.221940,-80.228195,SW 7th St/SW 76th Ave
185,26.029468,-80.226503,NW 69th Ave/N 69th Ave/Lee St
216,26.184777,-80.156616,NW 47th St/NW 10th Ave
160,26.051380,-80.405751,SW 54th Pl
246,26.166510,-80.233750,Spanish Moss Ter
305,25.985905,-80.359973,SW 160th Ave/SW 25th St
334,26.219681,-80.125793,SW 2nd Ave/SW 8th St
472,25.975521,-80.345350,SW 149th Ter
305,26.298992,-80.184156,NW 44th Way/NW 55th Dr
334,26.206196,-80.185605,NW 29th Way/NW 67th Ct
185,26.137826,-80.244198,NW 71st Ave/NW 11th St
246,26.094151,-80.377935,Water Ridge Dr
390,26.241965,-80.155198,NW 24th Ave/NW 11th St
5050,25.978578,-80.140140,SE 6th St
276,26.251969,-80.240043,NW 16th St/Riverside Dr
1226,26.274191,-80.196786,NW 54th Ave/W Sample Rd
943,26.111994,-80.168840,/I- 95
305,26.004473,-80.132177,Washington St/S 13th Ave
185,26.202164,-80.276592,NW 94th Ave/NW 63rd St
526,26.019933,-80.128214,N 11th Ave/Scarlet Oak St
216,26.191820,-80.108089,NE 29th Ave/NE 52nd St
390,26.125219,-80.318144,NW 127th Ave
499,25.983239,-80.146669,SE 2nd St/SE 2nd Ave
276,26.057730,-80.318336,Country Glen Dr/Sweetwater Ter
185,26.059569,-80.234524,SW 49th Ct
472,26.209456,-80.185011,NW 69th St
472,26.065039,-80.235870,Griffin Rd
185,26.263724,-80.086085,NE 27th Ave/NE 26th St
710,26.160977,-80.226996,NW 56th Ave/NW 27th Ct
418,26.034782,-80.242685,NW 77th Ave/Atlanta St
334,26.107879,-80.332611,Appalachian Trl/Monticello Ave
160,26.241752,-80.230828,Margate Blvd
362,26.228999,-80.229844,SW 1st St/SW 77th Ave
305,26.103753,-80.232104,SW 15th St
160,26.062173,-80.155179,Nautilus Isle/NW 9th St/NW 14th Ave
185,26.110062,-80.164989,SW 10th St/SW 18th Ave
216,26.103929,-80.205164,Davie Blvd Exd
684,25.981837,-80.314519,SW 127th Way/SW 28th Ct
160,26.282535,-80.263269,NW 41st Ct/NW 42nd Dr
185,26.075955,-80.230645,SW 37th St/SW 63rd Ave
943,26.082863,-80.223687,Palm Trace Landings Dr
334,26.291648,-80.204974,NW 57th Dr/NW 57th Ter/NW 57th Way
362,26.155244,-80.113029,Middle River Dr/NE 24th St
276,26.117590,-80.173870,SW 3rd St/SW 24th Ave/SW 22nd Ave
276,25.995962,-80.361532,SW 13th St/SW 159th Ln
362,25.963219,-80.326149,SW 135th Way/SW 49th Ct/SW 135th Ter
160,26.095456,-80.183052,SW 21st Ct
160,26.223985,-80.194379,SW 49th Way/SW 5th Ct
362,26.187778,-80.198521,/NW 37th Ave
216,26.038716,-80.206486,Vine St/Moss Ln
445,26.289495,-80.186450,Lyons Rd/Olympia Ct
334,25.990435,-80.304204,SW 20th St/SW 119th Ave
631,26.269415,-80.262470,NW 31st St
305,25.997178,-80.403257,SW 191st Ter/SW 12th St
276,26.044835,-80.350770,Bristol Ln
418,26.029830,-80.240850,NW 23rd St
246,26.215311,-80.243857,NW 76th St/NW 69th Ave
362,26.198750,-80.115276,NE 21st Dr/NE 57th St
185,26.279444,-80.097981,NE 39th Ct/NE 19th Rd
390,26.134902,-80.269215,NW 9th Ct/NW 9th Pl/NW 87th Ave
276,26.125300,-80.178123,NW 4th St/NW 27th Ave
334,26.227749,-80.239595,SW 3rd St/SW 83rd Ave
579,26.108011,-80.125701,SE 12th St
813,26.163852,-80.186484,NW 30th Way
216,26.200716,-80.296267,Sawgrass Expy
788,26.032265,-80.205934,Sheridan St/N 59th Ave
305,26.301937,-80.154463,American Way
185,26.317097,-80.233730,Ocala Ln
472,26.166556,-80.228884,/Enclave Pl/Spanish Moss Ter
305,26.089900,-80.144674,SW 27th St/SW 3rd Ave
362,26.260655,-80.199890,la Linda/San Miguel
276,26.123019,-80.196356,NW 2nd St/NW 36th Ave
160,26.099498,-80.181120,SW 17th St/SW 28th Way
216,26.179058,-80.215747,NW 43rd Ct/NW 49th Ter
499,26.284551,-80.249485,NW 44th Ct/NW 92nd Ter
684,25.980922,-80.167417,Lone Pine Ter/Lone Pine Ln
160,26.326594,-80.149114,Lakes Dr
390,26.255936,-80.126796,NW 2nd Ter/NW 20th Ct
216,26.200690,-80.118332,NE 59th St/NE 21st Ave
305,26.178578,-80.281753,NW 43rd St/NW 98th Ter
865,26.042874,-80.143392,SE 5th St/S Federal Hwy
418,26.316617,-80.184748,NW 69th Pl/NW 45th Ave
185,26.000773,-80.359571,SW 6th St
185,26.308525,-80.129535,Richmond C/Richmond Cres
246,25.996840,-80.361908,SW 12th St/SW 159th Ln
305,25.976727,-80.383588,SW 33rd Ct/SW 179th Ave
334,26.213933,-80.270770,NW 75th Ct/NW 87th Way
579,26.047407,-80.199459,SW 39th Ave
390,26.093352,-80.384809,Kinsington Cir
684,26.056078,-80.207433,SW 52nd Ct
472,26.307453,-80.177025,NW 41st Ter
276,26.097336,-80.293800,S Harmony Lake Cir/SW 109th Ter
445,26.293133,-80.124185,NW 51st St/NW 1st Ave
185,26.147735,-80.274681,93rd Ter/
276,26.138317,-80.226826,NW 58th Ter
160,26.145268,-80.264988,Jacaranda Hts/Hamilton House
276,26.140078,-80.292419,NW 12th Dr/NW 106th Ave
216,26.065422,-80.139912,/N Federal Hwy/Federal Hwy
1304,26.136771,-80.144203,E Sunrise Blvd/W Sunrise Blvd/N Andrews Ave
216,26.230781,-80.251233,SW 1st Pl/NW 94th Way
526,26.246874,-80.243193,NW 14th St/NW 87th Ter
305,26.212363,-80.249328,Solandra Ln/NW 72nd St
216,25.975039,-80.220214,Petunia Dr/SW 67th Ter
160,26.042258,-80.342317,SW 61st Pl
305,26.200861,-80.239393,SW 23rd St/SW 82nd Ter
631,26.291201,-80.142736,NW 49th Ct/NW 13th Ter
246,26.056414,-80.176900,SW 27th Ter/SW 53rd St
185,26.326929,-80.156774,NW 7th Pl/NW 38th Ter
246,26.290154,-80.138786,NW 11th Ave/NW 48th Pl
305,26.160030,-80.267841,/N Pine Island Rd
362,25.992216,-80.281945,SW 18th Ct
499,26.000766,-80.249435,Cypress Dr/Florida Dr
552,26.102065,-80.354227,SW 154th Ave
552,26.312421,-80.103219,SE 4th St/SW 4th St/S Dixie Hwy
631,26.012687,-80.280641,NW 6th St
418,26.044117,-80.221235,N 66th Ave/Perry St
276,26.115762,-80.133971,SE 9th Ave/SE 5th Ct
160,26.243323,-80.153461,NW 12th Ct
1850,25.984791,-80.164883,W Hallandale Beach Blv Ramp
305,26.198304,-80.268323,N Pine Island Rd
499,26.142866,-80.187015,NW 14th St
631,26.029498,-80.365538,Sheridan St/NW 163rd Ave
710,26.062641,-80.170087,SW 48th St
605,26.234538,-80.284665,NW 2nd Manor/NW 119th Dr
160,26.188017,-80.124565,NE 17th Ave/NE 49th St
276,26.248466,-80.182612,/NW 15th St
185,26.112826,-80.226286,SW 6th St
216,26.086949,-80.379573,Windmill Ranch Rd/Walkers Way
305,26.180442,-80.183131,NW 44th St/Lake Emerald Dr/NW 29th Ave
185,26.016213,-80.408181,NW 195th Ave/NW 11th St
1252,26.009556,-80.235704,Pines Blvd/McArthur Pkwy
891,26.137034,-80.134371,Sunrise Blvd/NE 9th Ave
891,26.268438,-80.221395,Charleston Ct
160,26.028222,-80.294399,Poinsetta Ct
160,26.179723,-80.164915,NW 42nd St/NW 17th Ave
246,26.131581,-80.175688,Harris Ter/NW 7th St
362,26.149694,-80.211617,NW 19th St
185,26.263192,-80.183577,NW 42nd Ave
472,26.291872,-80.134607,Discovery Cir W
362,26.230231,-80.202038,SW 56th Ave
362,26.018815,-80.295023,W Fairway Rd/Cypress Rd
813,26.310190,-80.103863,S Dixie Hwy
185,26.270914,-80.103007,NE 32nd Ct/NE 15th Ave
305,26.142632,-80.193290,NW 13th St/NW 34th Way
334,26.126789,-80.124254,N Victoria Park Rd/NE 4th Ct
185,26.319483,-80.098315,NE 1st St
472,26.124806,-80.415718,Osprey Bend/Quail Ct
305,26.142197,-80.226352,NW 58th Ave/NW 14th Ct
305,26.015261,-80.362003,NW 9th Dr/NW 163rd Ave
418,26.107659,-80.322709,SW 130th Ter/SW 9th Pl
499,26.275115,-80.269283,la Placida Dr S
276,26.027209,-80.263886,NW 88th Way
472,25.984821,-80.313869,Monarch Lakes Blvd/SW 126th Way
160,26.158031,-80.276036,NW 26th Pl/NW 94th Way
216,26.134864,-80.149918,NW 9th St/NW 6th Ave
499,26.091331,-80.205183,SW 42nd Ave
246,26.057462,-80.190319,SW 52nd Ct/SW 33rd Way
658,26.202646,-80.179889,NW 62nd St
276,26.079515,-80.272947,Rosewood Ct
185,25.976623,-80.168085,N Key Dr
276,26.211295,-80.279925,NW 72nd St/NW 72nd Manor
246,26.322235,-80.110664,NW 3rd Ct/NW 4th Ave
276,26.239870,-80.270535,NW 108th Way
160,26.040297,-80.294059,Boston Dr
185,26.127231,-80.284468,NW 4th St/NW 101st Ave
276,26.178393,-80.127943,NE 41st St/NE 15th Ave
185,26.031068,-80.301865,Baccarat Dr/Waterford Ct
305,26.254605,-80.098990,NE 18th St/NE 24th Ave
334,26.040952,-80.114916,N Ocean Dr/Greene St
305,26.005911,-80.144879,Jefferson St/S 19th Ave
813,26.055915,-80.311746,SW 51st St
276,26.188803,-80.262861,NW 52nd St/NW 84th Ave
472,26.011495,-80.280743,/NW 101st Ter
362,26.011091,-80.427900,NW 3rd Ln
185,26.085182,-80.278192,Forest Ridge Cir
418,26.175258,-80.144737,NE 39th St/NE 1st Ter
305,26.110283,-80.193573,Indiana Ave/E Dayton Cir/W Dayton Cir
276,26.021256,-80.272992,NW 16th St/NW 96th Ave
305,26.028239,-80.251792,NW 82nd Ter/Pasadena Blvd
334,26.111045,-80.221803,SW 54th Ave/SW 8th St
994,26.231586,-80.138679,W Atlantic Blvd
362,26.018162,-80.243286,NW 11th St/NW 77th Way
390,26.105564,-80.232320,SW 12th St/SW 63rd Ave
216,26.099538,-80.158168,SW 13th Ave/SW 17th St
445,26.092125,-80.159836,SW 24th Ct/Hibiscus Dr
160,26.068366,-80.173368,SW 24th Ave
246,25.997639,-80.256570,SW 86th Ave/SW 13th St
334,26.041945,-80.298716,Court View Dr/Stonebridge Pkwy
185,26.238545,-80.223539,NW 6th Ct/NW 73rd Ter
362,26.008657,-80.426506,NW 1st St/NW 208th Ter
246,26.013900,-80.290473,NW 107th Ave/NW 10th St
160,26.326861,-80.166810,NW 7th Pl/NW 46th Ave
216,26.079665,-80.220972,SW 34th St
185,26.073549,-80.174270,SW 25th Ter/SW 39th St
276,26.149906,-80.113643,NE 25th Ave/NE 18th St
526,26.285508,-80.121199,NE 2nd Ter/NE 44th Ct
334,26.289993,-80.112156,NE 48th St
216,26.074491,-80.261013,W Bell Dr/E Bell Dr/Bell Dr
418,26.018028,-80.189691,Johnson St/N 46th Ave
813,26.091635,-80.201178,US Hwy 441/Riverland Rd/SW 22nd St
334,26.140634,-80.135775,NE 8th Ave/NE 12th St
276,26.152034,-80.111678,Bayview Dr/NE 20th Ct
276,26.114872,-80.346358,SW 148th Ave
334,26.292710,-80.276840,NW 50th St
216,26.319349,-80.180017,Crescent Creek Pl/Cresent Creek Ln
160,26.069426,-80.178080,SW 27th Ter
917,26.129091,-80.169188,NW 6th St/I- 95
1252,26.032530,-80.248524,N University Dr
185,26.080565,-80.221970,SW 33rd St
865,25.991140,-80.168017,SW 23rd Ter
185,26.048183,-80.268449,SW 89th Ln
362,26.260656,-80.199308,la Linda/San Pablo
579,26.021822,-80.269418,NW 15th Ct/NW 93rd Ave
246,26.067084,-80.191487,SW 34th Ter
305,26.116875,-80.379268,Harbor Ct/Saddle Club Rd
276,26.091133,-80.274399,SW 23rd St
185,26.199725,-80.273605,NW 91 Way
839,26.241242,-80.203127,Margate Blvd/US Hwy 441
185,26.100318,-80.321968,Access Rd
246,26.142092,-80.148189,NW 13th St/NW 4th Ave
276,26.175906,-80.264746,Springtree Dr
276,26.193290,-80.199507,NW 54th St/NW 36th Ave
605,26.014308,-80.284305,NW 103rd Ter
276,26.275509,-80.225734,Sanctuary Dr/High Pine Dr
246,26.105529,-80.244215,SW 12th St
185,26.103174,-80.339623,Bedford Ct/Danbury Ave
246,26.057258,-80.140190,NE 2nd Pl
788,26.143289,-80.257428,/N Marcano Blvd/NW 15th Mnr
472,26.016874,-80.234473,NW 73 Ave/Johnson St
472,26.069902,-80.233543,SW 65th Ave
276,26.207029,-80.269552,NW 89th Ave
185,26.243317,-80.153861,NW 23rd Ave/NW 12th Ct
334,26.135037,-80.260801,NW 9th Ct
499,26.138010,-80.158243,NW 11th Ave/NW 11th St
472,26.026838,-80.161496,Wilson St/N 27th Ave
160,26.014697,-80.170188,Fillmore St/N 31st Ave
334,25.984749,-80.175233,SW 32nd Ave/W Hallandale Beach Blvd
305,26.099257,-80.191000,SW 34th Ave/SW 17th St
362,25.971116,-80.295019,NW 111A
305,26.247346,-80.130773,NW 15th Pl/NW 6th Ave
305,26.229673,-80.199181,N Cortez Drive Cir E/N Cortez Drive Circle F/N Cortez Dr
579,26.064920,-80.256824,Bridge
390,26.198196,-80.140681,NE 5th Ave/NE 57th Ct
499,26.134774,-80.110130,NE 9th St/Intracoastal Dr
185,26.097662,-80.338041,SW 17th St
526,26.129886,-80.322928,Commodore Dr/NW 7th Ct
276,26.096179,-80.412407,Hunters Run Way
246,26.131728,-80.160090,NW 7th Ct/NW 14th Ave
362,26.147346,-80.133245,NE 16th St
445,26.067214,-80.375882,Palm Pl
305,25.989844,-80.208493,SW 23rd St/SW 60th Way
216,26.149419,-80.276440,NW 93rd Way
305,26.179536,-80.183116,NW 29th Ave
445,26.141395,-80.159168,NW 13th St/Chateau Park Dr
185,26.199798,-80.155558,NW 58th Ct/NW 9th Ave
788,25.998903,-80.311218,SW 123rd Ter/SW 10th St
246,26.065812,-80.258251,SW 83rd Way/SW 44th Ct
246,26.262373,-80.186156,Lyons Rd
334,26.150940,-80.233128,NW 62nd Ter/NW 20th St
185,26.092760,-80.244661,Nova Village Dr
526,26.188123,-80.149062,NW 3rd Ave
334,26.152028,-80.291138,NW 21st Ct/NW 107th Ave
160,26.179008,-80.218503,NW 43rd Ct/NW 52nd Ave
246,26.221959,-80.210176,SW 63rd Ter/SW 7th Ct
499,26.187866,-80.100105,E Tradewinds Ave/Capri Ave
216,26.129152,-80.421346,Park Rd
1407,26.116628,-80.138659,S New River Dr E/SE 5th Ave
445,26.035300,-80.130659,SE 7th Ave/Ocean Club Blvd
631,26.188999,-80.270739,NW 53rd St/NW 89th Ter
246,26.210058,-80.144167,NW 69th St/NW 1st Ave
605,26.080432,-80.396724,Medinah/Inverness/Weston Hills Blvd
334,25.988327,-80.169642,Cheri Ln/Janis Blvd/Lori Ln
362,26.304451,-80.190501,NW 48th Ave/Grand Cypress Cir W/Sawgrass Blvd
362,25.958352,-80.317495,SW 49th St/SW 53rd Ct
445,26.033476,-80.214048,Raleigh St
526,26.000875,-80.158828,S 26th Ave/Rodman St
276,26.112067,-80.296520,Blue Palm St/Canary Island Ct
216,26.110058,-80.419092,Live Oak Ln/Bald Cypress Rd
305,26.001968,-80.353936,/SW 156th Ave
276,26.264375,-80.111375,NE 8th Ter/NE 26th Ct
362,26.120842,-80.299738,W Broward Blvd/NW 115th Ave
362,26.024922,-80.274677,/NW 97th Ave
246,26.209922,-80.248443,Lantana Ln
160,26.292064,-80.286806,NW 120th Dr/NW 119th Ave
276,26.044765,-80.345583,SW 148th Ave
185,26.093258,-80.375160,Montpeliar
445,26.276394,-80.223002,Rock Island Rd/38th St/NW 38th St
710,26.129884,-80.256218,N University Dr
334,26.096472,-80.254664,SW 19th Ct/SW 81st Ave
185,26.241620,-80.218140,NW 9th St/NW 69th Ter
418,26.116799,-80.258540,SW 3rd St
160,26.278753,-80.283924,NW 118th Ave/NW 39th St
185,26.058568,-80.308834,SW 49th St/SW 120th Ave
362,26.132784,-80.131838,NE 12th Ave/G Martin Harold Dr
305,26.205617,-80.123676,NE 63rd St
160,26.245671,-80.140630,S Andrews Ave/NW 15th St
160,26.062104,-80.410038,/SW 196th Ave
216,26.076068,-80.287544,Gulfstream Way/Canterbury Ct
305,26.012976,-80.205664,Taylor St/N 59th Ave
216,26.127744,-80.289608,NW 6th St/NW 104th Ter
246,26.088107,-80.272466,Oak Grove Cir
305,26.190269,-80.139821,NE 51st Ct/NE 5th Ave
2435,26.007833,-80.306112,Pines Blvd/NW 118th Ave/SW 118th Ave
216,26.301133,-80.156630,Independence Dr/Capitol Ct
276,26.289553,-80.181265,Banyan Trails Dr/Saint Simon Dr
334,26.117030,-80.370918,Golf Club Rd
788,26.008081,-80.288074,Pines Blvd
418,26.062750,-80.357403,/Griffin Rd
216,26.325297,-80.282796,NW 116th Ln
334,26.153217,-80.184341,NW 21st St/NW 30th Ave
865,26.138892,-80.286956,N Nob Hill Rd/NW 12th St
418,26.219611,-80.248875,NW 79th St/NW 73rd Ter
390,26.289269,-80.129652,NW 5th Ave
1071,26.050592,-80.208358,Seminole Way
246,25.958193,-80.397829,SW 189th Ave
305,26.016293,-80.353409,NW 12th St/NW 158th Ave
362,26.213081,-80.158221,Gateway Dr
160,26.148974,-80.148418,NW 17th St/NW 4th Ave
305,26.026094,-80.389584,NW 182nd Ter/NW 20th St
305,26.298783,-80.242605,Westview Dr
276,26.100962,-80.213717,SW 48th Ave/SW 17th St
216,26.266014,-80.205492,N Sable Cir
185,25.989760,-80.202720,SW 23rd St/S 58th Ave
362,26.132814,-80.235565,Plantation Rd/Marginal Access Rd
390,26.005249,-80.278433,SW 100th Ave
216,26.026148,-80.294153,NW 21st St/NW 109th Ave
305,26.256521,-80.132438,NW 21st St/NW 6th Ave
246,25.980265,-80.198276,S 56th Ave/Allen Rd
839,26.260338,-80.253384,NW 95th Ter/NW 23rd Ct
216,26.145594,-80.282612,NW 17th St/NW 99th Ave
246,26.205603,-80.211469,SW 17th St/SW 65th Ave
185,26.000477,-80.337250,SW 145th Ave
305,25.982554,-80.346949,SW 28th St
276,26.106500,-80.149138,SW 6th Ave/SW 12th Ct
185,26.116359,-80.233524,SW 5th St/SW 63rd Ter
185,26.169020,-80.225487,Hammock Ln
710,25.984345,-80.197547,SW 55th Ave
185,26.198326,-80.106920,NE 57th St
334,26.145474,-80.118078,NE 14th Ct
526,26.194395,-80.223469,NW 56th Ct/NW 54th Ln
390,26.057856,-80.129117,NE 3rd St
334,26.014556,-80.211816,NW 62 Ave/Eaton St
658,25.984480,-80.247216,S University Dr
1046,26.240016,-80.268090,NW 7th Pl/NW 106th Ave
390,25.995681,-80.172840,Emmanuel Ave
472,26.181114,-80.157762,NW 44th St/NW 10th Ter
246,26.108889,-80.249248,SW 75th Ave/SW 9th St/SW 75th Ter
276,26.327986,-80.286563,NW 78th Pl/NE 19th Ln
305,26.136834,-80.255230,NW 10th Ct/NW 79th Ave
1123,26.112162,-80.166762,Riverside Dr/SW 8th St
472,26.262958,-80.235354,NW 81st Ave
334,26.188594,-80.250160,NW 51st St/NW 75th Ave
246,26.025725,-80.426831,NW 208th Way/NW 21st St
445,25.987739,-80.153372,NW 2nd St/NW 5th Ave
390,26.147931,-80.287647,NW 18th Pl/NW 103rd Ave
472,26.041195,-80.205538,Teepee Trl/Vine St
418,26.111096,-80.338817,Appalachian Trl/Amherst Ave
445,26.240866,-80.222807,NW 8th Ct/NW 73rd Ave
276,26.154123,-80.240264,NW 22nd Ct/NW 69th Ave
305,26.002777,-80.191428,Washington St/S 48th Ave
472,26.118400,-80.127363,SE 4th St/SE 16th Ave
216,26.037974,-80.205818,Randolph Clay Dr
246,26.275413,-80.276911,NW 113th Ave
216,26.213458,-80.249936,Solandra Ln
762,26.137925,-80.231574,Sunset Strip/NW 11th St
499,26.052863,-80.195251,Hollywood Oaks Dr/Oakmont Ave
1071,26.004805,-80.178471,S 35th Ave/S Crescent Dr
1149,26.050664,-80.208595,Seminole Way
762,26.118245,-80.135377,SE 4th St/SE 8th Ave
418,26.148244,-80.212102,NW 47th Ave/NW 18th St
216,26.021343,-80.266447,NW 88th Ave/NW 14th Ct
552,26.025831,-80.165540,Taft St/N 28th Ave
1097,26.150801,-80.186636,NW 31st Ave/NW 19th St
390,26.133385,-80.136154,NE 7th Ave/NE 8th St
216,26.311343,-80.146214,Tilford Dr/Tilford J
2009,26.063235,-80.362569,Orange Dr
276,26.184103,-80.275198,NW 93rd Ter/NW 48th St
305,26.261384,-80.246429,NW 24th Ct
305,26.275941,-80.092673,NE 36th Ct
631,26.260710,-80.237841,Forest Hills Blvd/NW 24th St
216,26.058575,-80.309752,SW 49th St
631,26.103946,-80.353644,SW 13th Ct/SW 151st Way
362,26.293969,-80.121178,NE 51st St/NE 2nd Ave
334,25.989556,-80.152259,NW 3rd Ct
334,26.105123,-80.234877,SW 13th St/SW 65 Ave
472,26.000434,-80.207254,Funston St/US Hwy 441
362,26.110245,-80.417858,Pigeon Plum Way/Bald Cypress Rd
390,26.014765,-80.308493,NW 11th St
305,26.195800,-80.120135,NE 55th St/NE 55th Ct
334,26.109340,-80.153540,River Reach Dr
216,25.979252,-80.219210,Boxwood Dr/Hibiscus Pl
390,26.260353,-80.204762,NW 59th Ave/NW 27th St
499,26.143618,-80.188029,NW 31st Way/NW 14th Ct
499,26.043003,-80.214251,Florida's Tpke
552,26.040110,-80.214928,NW 34th St/NW 63rd Ave
362,26.277003,-80.182951,NW 42nd Way/NW 38th Dr
276,26.067164,-80.387307,Cinnamon Way
445,26.153771,-80.204824,NW 21st St
334,26.197762,-80.109918,NE 27th Ave
185,26.023834,-80.394814,NW 23rd Pl
276,26.064505,-80.264324,Griffin Rd
334,26.025323,-80.236342,NW 74th Ave/NW 18th Ct
418,26.144493,-80.285475,NW 16th St/NW 101st Ave
216,26.039422,-80.400637,SW 189th Way
216,26.209664,-80.132792,S Dixie Hwy W/S Dixie Hwy
246,26.313402,-80.093699,SE 3rd Ct
631,26.007855,-80.424833,Pines Blvd/NW 208th Ave
334,26.254800,-80.228865,NW 77th Ave/Royal Palm Blvd
305,26.289912,-80.115772,NE 48th St
526,25.983924,-80.307135,Centergate Dr/Miramar Blvd
276,26.167025,-80.275536,NW 94th Ave
305,25.998934,-80.295684,SW 112th Ave
445,26.016746,-80.206777,Glenn Pkwy/Lincoln St
658,26.014511,-80.212771,Florida's Tpke
418,26.045777,-80.281476,SW 102nd Ave/SW 59th St
246,26.113243,-80.369263,Ivy Ln
526,26.016714,-80.264160,NW 89th Ave/NW 10th St
362,25.983247,-80.269855,Encino St/Ensenada Way
216,26.279766,-80.090284,NE 39th St/NE 24th Ave
160,26.077338,-80.213890,SW 36th St/Hacienda Blvd
185,26.224345,-80.266098,NW 81st St/NW 85th Ave
185,26.018404,-80.269694,NW 11th Ct/NW 93rd Ave
684,26.136718,-80.133262,Memorial Dr
552,26.139702,-80.271228,NW 11th Ct/NW 87th Ave
246,26.212447,-80.295512,NW 108th Ter/Coral Ln
246,26.055851,-80.181532,SW 53rd Ct/SW 29th Way
246,26.066584,-80.181001,SW 29th Ter
305,26.261014,-80.106878,NE 12th Ave/NE 24th St
276,26.233205,-80.205926,NW 3rd St/NW 60th Ave
788,26.114903,-80.317054,State Hwy 84
185,25.997218,-80.226050,SW 15th St/SW 69th Ave
246,25.959275,-80.318034,Somerset Pkwy/SW 49th St/SW 53rd St/Somerset Blvd
418,25.980902,-80.168502,Lone Pine Dr
579,25.993146,-80.123343,S Parkview Dr
305,25.984175,-80.275827,Glacier Dr
362,26.236702,-80.134499,NW 6th St/NW 9th Ave
579,26.215911,-80.242828,NW 68th Ter/NW 76th Ct
160,25.997686,-80.317823,SW 128th Ter
334,26.157035,-80.132944,NE 22nd Dr/NE 11th Ave
305,26.307308,-80.106706,SW 2nd Ter/SW 8th St
216,26.124051,-80.172391,NW 22nd Ave
418,26.039305,-80.153582,N 23rd Ave/Cody St
185,26.289984,-80.145491,NW 48th Pl/NW 16th Ave
390,26.141674,-80.313922,NW 124th Ave/NW 14th St
390,26.002122,-80.384867,SW 179th Ave
160,26.135024,-80.277365,NW 9th Ct
736,26.087208,-80.137171,SE 6th Ave/SE 30th St
390,26.049802,-80.355675,Carriage Ct
246,26.191134,-80.278315,/NW 95th Ave
362,26.094055,-80.383999,Kinsington Cir
362,25.986289,-80.261904,Andora Pl/Andora Dr
276,26.255228,-80.178715,Lucaya Bend
1200,26.105447,-80.249136,SW 12th St
472,26.062759,-80.194944,Griffin Rd
472,26.185836,-80.097384,Hibiscus Ave/Bougainvilla Dr
1537,25.986824,-80.118051,S Surf Rd
472,26.237129,-80.281640,NW 3rd Dr/NW 116th Ter
185,26.002750,-80.193530,Washington St/S Hillcrest Ct/S 50th Ave
216,26.055783,-80.151925,NW 2nd St/NW 12th Ave
246,26.298799,-80.204409,NW 56th Manor/NW 57th Ter
160,26.234691,-80.248916,NW 3rd Ct/NW 92nd Ter
605,26.114326,-80.329654,SW 135th Ter/SW 5th St
865,25.982182,-80.261813,SW 30th St/SW 87th Ter
605,26.045769,-80.240923,Stirling Rd/NW 76th Ave
579,26.007813,-80.408824,NW 196th Ave/Pines Blvd/SW 196th Ave
216,26.015507,-80.134167,Fillmore St/N 14th Ave
1071,26.012613,-80.139074,Tyler St/N 16th Ave
185,26.011696,-80.277799,NW 4th St/NW 99th Way
160,26.144060,-80.264184,NW 17th St/NW 85th Way
305,26.022788,-80.247073,NW 79th Ter/NW 16th St
499,26.140215,-80.314176,N Flamingo Rd
14271,26.052337,-80.211579,Seminole Way
390,26.295893,-80.283119,NW 52nd Pl/NW 116th Ave
305,26.085307,-80.180897,Marina Rd
246,26.024147,-80.157277,N 25th Ave/McKinley St
185,26.024371,-80.164328,N 28th Ct
526,26.106755,-80.263797,SW 87th Ter/SW 87th Ave
160,26.060289,-80.295565,SW 111th Ave/SW 48th St
246,26.301420,-80.154938,Liberty Ct
445,26.139193,-80.123986,NE 17th Way/NE 11th St
710,26.298383,-80.239467,Westview Dr/NW 85th Ave
160,26.015017,-80.330710,NW 137th Ave/NW 10th Ct
246,26.240947,-80.192054,NW 49th Ave/NW 10th St
445,26.158037,-80.186090,NW 30th Way/NW 26th St
1667,26.016447,-80.248317,Johnson St/N University Dr
160,26.213465,-80.105711,SE 22nd Ave/SE 13th Ct
185,26.324191,-80.140966,Emerald Way W/Lakes Dr
276,26.033379,-80.300514,Cambridge Ln/S Cambridge Ln
579,26.315441,-80.078800,NE 19th Ter/NE 1st St
160,26.222065,-80.176299,/Oaks Clubhouse Dr
305,26.132274,-80.232048,Garden Ct/Plantation Rd
276,26.132012,-80.170812,NW 7th Ct
334,25.992140,-80.280218,SW 101st Ter
605,25.987190,-80.316519,SW 23rd St/SW 129th Ave
276,25.996132,-80.357180,SW 15th St/SW 159th Ave
917,26.093067,-80.152854,SW 9th Ave/SW 24th St
334,26.105926,-80.336522,Meadowwood Ter
160,26.312937,-80.131020,Upminster M
499,26.008416,-80.226888,SW 2nd St/SW 69th Ter
362,26.145362,-80.136309,Old Dixie Hwy/NE 14th Pl
334,26.200783,-80.247582,NW 62nd St/NW 72nd Ave
276,26.198562,-80.228597,/Shaker Wood Cir
246,26.266275,-80.196689,NW 29th Ct/NW 30th Ct
216,26.104999,-80.227856,59th Ter/SW 13th St
276,26.150253,-80.226512,NW 58th Ave/NW 19th St
418,26.299389,-80.191585,NW 50th Ave/NW 56th St
276,26.085408,-80.198897,W State Rd 84
526,26.180313,-80.192980,NW 44th St
246,26.061966,-80.144367,NW 4th Ave/Hibiscus Dr
445,26.271774,-80.108788,NE 33rd St/NE 10th Ter
736,26.169950,-80.101924,NE 34th St/NE 33rd Ave
305,26.236426,-80.178977,NW 4th Ct/NW 41st Ave
160,26.058887,-80.316201,SW 126th Ave
3587,26.167253,-80.117095,Coral Center/E Oakland Park Blvd
605,26.161023,-80.231339,NW 27th Pl
362,26.003235,-80.381564,SW 176th Way/SW 5th St
418,26.037826,-80.134470,SE 5th Ct
552,26.228070,-80.251670,NW 85th St/NW 75th Ave
362,25.964936,-80.316055,SW 47th St
185,26.055260,-80.184443,Lagoon Dr/SW 31st Ave
216,26.057660,-80.337989,SW 49th St/SW 142nd Ave
472,26.120993,-80.197568,Vermont Ave/W Broward Blvd
445,26.311579,-80.152569,SW 4th St/S Powerline Rd/Quiet Waters Park Rd
246,26.101499,-80.155442,Tangelo Isle/SW 10th Ave
216,26.225838,-80.094047,SE 8th St/S Riverside Dr
390,26.230054,-80.105889,SE 2nd St/SE 18th Ave
362,26.217064,-80.216522,SW 67th Ave/SW 9th Pl
246,26.203624,-80.217649,SW 19th Ct/SW 69th Ter
216,26.302685,-80.156691,Independence Dr/Freedom Ct/Columbia Ct
216,26.326723,-80.219671,NW 77th St
185,26.034554,-80.289955,Dublin Cir
276,26.114952,-80.193038,Campus Cir/E Campus Cir
526,26.283748,-80.281761,NW 43rd St
762,26.100131,-80.255461,/I- 595
160,26.210820,-80.246952,NW 72nd Ave/NW 70th Ct
246,26.019100,-80.253164,NW 12th St/NW 83rd Way
334,26.080468,-80.156253,SW 11th Ave
499,26.293458,-80.169731,Morningside Pl
305,26.282500,-80.099102,NE 42nd St/NE 18th Ave
658,26.036492,-80.131021,SE 7th Ave/Watermark Blvd
1123,26.229225,-80.204692,US Hwy 441/SW 2nd Ct
276,26.269539,-80.195997,Celebration Ln/Jubilee Way
185,26.282632,-80.215026,NW 66th Ave/NW 66th Ter
472,26.226092,-80.282644,NW 81st St/NW 100th Way
362,26.027479,-80.321372,NW 129th Ave/NW 22nd Manor
418,26.123638,-80.241351,NW 70th Ave/Cypress Rd
160,26.211938,-80.263930,NW 72nd Ct/NW 84th Ter
305,26.010222,-80.275303,NW 98th Ave
418,26.229691,-80.269836,NW 88th Ave/Coral Springs Dr
499,26.126620,-80.359991,/Markham Park Rd
246,26.269050,-80.094822,NE 30th Ct/NE 21st Ave
305,26.104595,-80.318544,SW 127th Ter/12th Ct
390,26.165692,-80.206942,NW 32nd St/NW 43rd Ter
579,26.172680,-80.295963,NW 111th Ave/NW 37th St
362,26.049556,-80.271305,SW 55th St
472,26.089554,-80.256795,SW 82nd Ave
246,26.243372,-80.292204,NW 123rd Dr/NW 124th Ave
445,26.156060,-80.239210,NW 68th Ave/NW 24th St
185,26.153636,-80.262101,NW 84th Way/NW 24th St
305,26.325996,-80.126909,Kingfisher Dr/Tidewater Way
499,26.225534,-80.230580,SW 4th Ct/SW 77th Ter
216,25.991157,-80.323942,SW 19th Dr/SW 133rd Ave
160,25.997800,-80.293731,SW 12th St/SW 109th Ave
334,25.992242,-80.143526,/NE 6th St
276,26.185325,-80.097367,Hibiscus Ave/Bougainvilla Dr
390,25.985041,-80.175238,SW 32nd Ave/Seneca Blvd
499,26.179117,-80.263034,NW 44th St/NW 84th Ave
445,26.224971,-80.275607,NW 81st Ct/NW 93rd Ave
334,26.316946,-80.102732,SW 1st Ct/SW 1st Ave
216,26.286443,-80.102226,NE 15th Ter/NE 44th St
276,26.297218,-80.163633,SW 44th Ter
216,26.204862,-80.098407,Ocean Bay Club Dr
658,26.038133,-80.134814,SE 5th Ct
305,26.050635,-80.139516,SE 3rd Ave/SE 1st St
246,26.040313,-80.180323,Forrest Dr
216,26.129267,-80.245311,NW 73rd Ave/NW 5th Ct
276,26.199081,-80.269899,Abbey St/Chambers St
1381,26.160739,-80.314237,N Flamingo Rd
305,26.041051,-80.171668,N 34th St/N 31st Ave
390,26.119992,-80.164326,SW 2nd St
246,26.271197,-80.171684,Lyons Tradewinds Park Rd
362,26.199085,-80.225803,Spinning Wheel Ln/Ann Lee Ln
185,26.067058,-80.235526,SW 44th St/SW 66th Ave
499,26.141110,-80.256639,NW 79th Ter
305,26.126705,-80.246985,NW 4th St/NW 74th Ave
2650,26.028091,-80.114679,Wilson St
418,26.186894,-80.099053,Shore Ct
1123,25.978608,-80.141990,S Federal Hwy/SE 6th St
362,26.311933,-80.269137,Pine Island Rd/NW 66th Dr
362,26.302162,-80.285354,/Sawgrass Expy
185,26.009682,-80.438584,NW 218th Ter
631,25.995365,-80.195129,S 52nd Ave/SW 52nd Ave/Pembroke Rd
160,26.085900,-80.384181,Hunter Rd/Hunter Ct/Paddock Rd
185,26.138657,-80.326290,NW 133rd Ave/NW 13th St
658,26.081132,-80.139521,/Fuel Tender Rd/I- 595
246,25.995673,-80.282952,SW 11th St/SW 102nd Ave
160,25.980865,-80.149128,SW 4th St
1719,26.044605,-80.281095,SW 100th Ave/Stirling Rd/N Palm Ave
684,25.990234,-80.261525,SW 21st St
579,26.001864,-80.120271,Hatteras Ln
185,26.142398,-80.113463,NE 12th Ct/Bayview Dr
276,26.033467,-80.238661,Farragut St/NW 75th Ave
418,26.109718,-80.219391,SW 9th St/SW 52nd Ave
160,26.282555,-80.263035,NW 41st Ct
246,26.207082,-80.279293,NW 95th Ter
305,26.185870,-80.123365,NE 17th Ter/NE 47th Ct
216,26.121342,-80.340310,State Hwy 84/International Pkwy
390,26.026445,-80.242517,NW 77th Ave/NW 19th Ct
362,26.016108,-80.326548,NW 12th St/NW 132nd Ave
305,26.301090,-80.213250,NW 65th Ter
246,26.185202,-80.263013,NW 49th St/NW 84th Ave
362,26.014315,-80.231948,Lacroix Dr/N 72nd Ave
390,26.184443,-80.263022,NW 48th St/NW 84th Ave
472,25.982704,-80.329506,SW 137th Ter
334,25.980963,-80.144991,SE 4th St/SE 3rd Ave
418,26.146228,-80.124227,NE 17th Way/NE 15th St
246,26.116898,-80.109661,SE 5th St/Alamanda Ct/Idlewyld Dr
160,26.298657,-80.212190,NW 56th Ct/NW 58th Ter
418,26.120204,-80.125388,S Victoria Park Rd/SE 2nd Ct
2977,26.120509,-80.252474,N University Dr/SW 80th Ave
160,26.032906,-80.347805,W Longbow Bend
305,26.273320,-80.243806,NW 35th St
968,26.174111,-80.131239,NE 12th Ave/NE 38th St
1252,26.144443,-80.321825,NW 128th Dr/W Sunrise Blvd/White Seahorse Way
1149,26.135530,-80.202532,US Hwy 441
390,26.191665,-80.175062,W Prospect Rd/NW 24th Ave
362,26.060360,-80.313532,SW 124th Ave
246,26.123311,-80.328353,NW 3rd Pl/NW 134th Way
185,26.186519,-80.284038,N Nob Hill Rd/NW 50th St/NW 100th Ave
185,25.990017,-80.183239,SW 23rd St/SW 40th Ave
526,26.193383,-80.270644,NW 90th Ter
276,26.212278,-80.202946,SW 12th St
736,26.114376,-80.330546,/Shenandoah Pkwy
185,25.974255,-80.152663,SW 11th St/SW 4th Ter
499,26.022895,-80.328865,NW 136th Ave/Taft St
160,26.263550,-80.209565,NW 64th Ter/NW 64th Ave
246,26.277011,-80.258640,NW 99th Ave
684,26.033566,-80.168305,N 30th Rd/Sheridan St/N 30th Ave
390,26.000690,-80.288751,Washington St
418,26.043449,-80.183865,N 40th Ave/N Hills Dr
736,26.295971,-80.274106,NW 53rd Ct/NW 109th Ln
185,26.138277,-80.290171,NW 11th Ct
552,26.081231,-80.155810,SW 34th Pl/SW 11th Ave/I- 595
305,26.028419,-80.293042,Walnut Ct
579,26.125597,-80.146449,Cityview Dr
305,26.142405,-80.136769,NE 13th St/NE 7th Ave
418,26.116321,-80.165653,SW 18th Ave/SW 5th St
334,26.235487,-80.191964,NW 49th Ave
762,26.237298,-80.201944,Lakeside Dr
390,26.218865,-80.257783,NW 78th St/NW 79th Ave
658,26.203678,-80.131548,NE 14th Ave/NE 62nd St
305,26.176280,-80.228791,/Inverrary Dr
472,25.957153,-80.340877,Florida's Tpke Exd
305,26.148035,-80.122393,NE 16th St/NE 18th Ave
579,26.243372,-80.087831,N Ocean Blvd/NE 7th Pl
334,26.094974,-80.132642,SE 10th Ave
185,26.223329,-80.263752,NW 80th St/NW 84th Ter
276,26.115593,-80.121630,Coconut Isle Dr
216,26.039747,-80.177846,Laurel Oaks Ln/Water Oak Dr
216,25.987596,-80.272344,Fairmont Ave
472,26.204897,-80.112112,NE 62nd Ct/NE 22nd Ave
246,26.157875,-80.110510,NE 25th St/NE 27th Ter
305,26.048988,-80.356973,Carriage Ln
2923,25.986813,-80.119236,S Ocean Dr
305,26.315132,-80.105323,SW 2nd Ave/SW 2nd Ct
362,26.097983,-80.265476,SW 18th St
362,26.016572,-80.415931,NW 201st Ter/NW 10th St
865,26.102320,-80.169604,SW 21st Ave/SW 15th St
390,25.987392,-80.196859,SW 54th Ave/SW 25th Ct
276,26.289808,-80.262570,NW 48th Ct/NW 103rd Way
216,26.264887,-80.209467,Seagrape Cir
305,26.150756,-80.150514,NW 6th Ave/NW 18th St
334,26.063824,-80.389265,Ironwood Ct/Mahogany Ridge Dr
160,26.056168,-80.131467,Gulfstream Rd/NE 2nd St
1071,26.269773,-80.221413,NW 32nd St/NW 70th Ave
276,25.972576,-80.394504,SW 39th St/SW 186th Ave
552,26.302184,-80.286621,Sawgrass Expy
684,26.047072,-80.195999,Stirling Rd
499,26.169098,-80.304461,NW 34th Pl
216,26.018170,-80.339668,NW 143rd Ave/NW 15th St
246,26.112195,-80.262252,Gatehouse Rd/SW 84th Way
305,26.022087,-80.307333,NW 15th Ct
334,25.991543,-80.199557,SW 21st St/SW 56th Ter
334,26.094729,-80.188870,SW 33rd Ave/SW 22nd St
216,26.316669,-80.276710,NW 112th Way
445,25.982736,-80.255284,Beekman Dr/Tara Rd
160,26.111043,-80.309922,SW 121st Ave/SW 8th St
362,26.158382,-80.127945,NE 24th Ct/NE 15th Ave
185,26.198652,-80.217115,E Sabal Palm Blvd/N Sabal Palm Blvd
185,26.176096,-80.214355,NW 47th Ter/NW 41st Ct
160,26.206571,-80.159805,NW 12th Ave/NW 65th St
246,26.190746,-80.245713,NW 53rd St/NW 73rd Ter
160,26.190350,-80.238108,NW 52nd Ct/NW 65th Ave
216,26.100533,-80.410877,Quail Roost Dr/Hunters Point Blvd/Deer Creek Rd
160,26.043490,-80.359153,SW 159th Ave/SW 61st St
334,26.262584,-80.241393,NW 86th Ave
418,26.166664,-80.261155,Summerfield
276,26.022585,-80.190809,N 47th Ave/Cleveland St
418,25.983864,-80.316409,SW 129th Ave/SW 27th St
216,26.260503,-80.092872,NE 27th Ter
185,26.137348,-80.285170,NW 101st Ave
684,26.112474,-80.308331,SW 7th St/SW 121st Ave/SW 7th Ct
418,26.186912,-80.278529,NW 49th Pl/NW 95th Ave
418,26.120267,-80.117998,NE 21st Ave
418,26.036954,-80.244724,NW 78th Ave/NW 31st St
334,25.970463,-80.397305,SW 41st St/SW 186th Way
160,26.316692,-80.132394,Westbury I
917,26.030166,-80.297480,Rampart Way S/Rockinghorse Rd
216,26.071784,-80.372454,Sapphire Ct/Sapphire Cove
390,26.099145,-80.228578,SW 59th Ave
445,26.012238,-80.235486,NW 74th Ave/McArthur Pkwy
362,26.143685,-80.196643,NW 14th Ct
362,26.129230,-80.323989,Commodore Dr/NW 7th St
839,26.117038,-80.169038,I95//I- 95
445,25.999951,-80.400245,SW 7th St/SW 189th Ter
305,26.129225,-80.341596,NW 4th St/International Pkwy
390,26.126414,-80.211198,NW 4th St/NW 46th Ter
1200,26.042576,-80.162908,I- 95
216,26.181041,-80.207048,NW 42nd Ter/NW 45th St
305,26.294053,-80.087365,NE 26th Ter/NE 51st St
472,25.990991,-80.363264,SW 19th St
334,26.310590,-80.257316,NW 97th Dr
334,26.093931,-80.209407,SW 44th Ave/SW 22nd Ct
160,26.082511,-80.214942,SW 29th St/SW 50th Ave
526,26.273857,-80.254354,NW 35th St/NW 96th Ave/NW 35th Ct
362,26.040849,-80.150138,Phippen-Waiters Rd/Phippen Rd/SW 7th Ter
216,26.191521,-80.180957,NW 53rd St/NW 28th Ave
216,26.038452,-80.404119,SW 64th St/SW 191st Ave
216,26.167638,-80.136357,NE 32nd St/NE 8th Ave
160,26.096228,-80.158052,SW 13th Ave/SW 20th St
390,26.023022,-80.217739,N 65th Ave/McKinley St
499,26.299844,-80.198718,NW 55th Dr/Sawgrass Expy
246,26.225133,-80.256802,Cassia Ct
605,26.202927,-80.129210,NE 60th St/NE 14th Rd
246,26.041360,-80.191359,N 35th St/N 47th Ave
362,26.021853,-80.240241,Branch St/NW 76th Ave/NW 15th St
216,26.141985,-80.265023,NW 86th Ln/NW 14th St
276,26.159177,-80.294211,NW 27th Pl/NW 109th Ave
246,26.015914,-80.366937,NW 165th Ave/NW 10th St
334,26.106134,-80.382674,Balboa Ct/Laguna Springs Dr
216,26.213760,-80.281932,S Belport Cir/S Belfort Cir
276,26.228989,-80.231426,SW 78th Ave/SW 1st St
499,26.014482,-80.293485,Johnson St/NW 11th St
185,26.183095,-80.266934,NW 47th St/NW 87th Ave
362,26.227184,-80.213756,SW 3rd Ct/SW 65th Ave
579,25.967064,-80.313577,SW 125th Ln/SW 45th Dr
185,26.275639,-80.235141,NW 82nd Ter
788,26.062534,-80.177981,SW 28th Ave/Griffin Rd
736,26.015087,-80.149414,Fillmore St/N Dixie Hwy
305,26.306267,-80.285682,NW 120th Ave
216,26.025196,-80.267927,NW 19th St/NW 91st Ter
362,26.023485,-80.269548,NW 18th St/NW 17th Pl
499,26.083171,-80.221882,SW 31st St/SW 54th Ave
658,26.084010,-80.199197,/I- 595
362,26.249032,-80.169256,/Martinique Cir/Wynmoor Cir
472,26.162352,-80.137806,NE 28th St/NE 6th Ln
334,26.241268,-80.236677,NW 83rd Dr
246,26.292156,-80.193027,NW 51st Ave
185,26.030669,-80.308796,S Lake Blvd
246,26.281742,-80.100734,NE 17th Ave/NE 41st Ct
605,26.041239,-80.221167,NW 66th Ave/Custer St
246,26.207866,-80.281138,/NW 68th Pl
605,26.031331,-80.242398,Sheridan St
305,25.978326,-80.400703,SW 189th Ave/SW 32nd Ct
305,26.040701,-80.311148,W Lake Blvd/Park Dr
185,26.131200,-80.308951,NW 120th Ave/NW 8th St
216,26.278796,-80.288790,NW 121st Ave/NW 39th St
276,26.000251,-80.293863,/SW 109th Ave
736,26.013740,-80.426282,NW 7th St/208th Cir
216,26.040220,-80.409702,SW 196th Ave/SW 62nd Pl
839,26.046014,-80.196001,Sarazen Dr/N 41st St
216,26.284271,-80.085685,NE 26th Ter/NE 43rd St
185,26.176494,-80.263702,Springtree Dr/Chester Ct
246,26.224202,-80.114938,SE 4th Ct/SE 5th Ter
736,26.114857,-80.397094,Palm Blvd
246,26.303273,-80.261900,NW 58th Ct
216,26.027287,-80.128079,Corkwood St/W Lake Dr
362,26.139513,-80.315400,NW 125th Ter
1226,26.110452,-80.168890,/SW 10th St
246,26.100055,-80.170462,SW 21st Way/SW 16th Ct
276,26.298705,-80.138552,SW 25th Way/SW 14th Ct
334,25.978600,-80.329616,SW 33rd St/Fox Trl
390,26.236749,-80.132476,NW 7th Ter W/NW 6th St/NW 7th Ter
526,26.054686,-80.201099,SW 40th Ave
276,26.016149,-80.189636,Buchanan St/N 46th Ave
684,26.110538,-80.218359,Florida's Tpke
185,26.217597,-80.282839,NW 76th Ct/NW 99th Ave
390,26.259490,-80.203023,NW 57th Ter/NW 26th St
839,26.200995,-80.206415,NW 42nd Ave/NW 62nd St
631,26.111296,-80.219436,SW 8th St
160,26.097000,-80.261741,SW 18th Pl/SW 85th Ave
390,26.329585,-80.294623,NW 127 Ln
160,26.179796,-80.135812,NE 43rd St/NE 8th Ave
185,26.119145,-80.161265,SW 14th Way/SW 2nd Ct
994,25.979085,-80.246612,Biltmore Blvd/Utopia Dr
334,25.983072,-80.215522,SW 31st St/SW 64th Ter
246,26.052031,-80.153946,W Dania Beach Blvd/NW 14th Ct
418,25.986902,-80.156379,NW 1st Ct/NW 7th Ave
216,26.026120,-80.316285,NW 20th St/NW 125th Ter
445,25.992266,-80.154214,NW 5th Ter/NW 6th St
160,26.191328,-80.243995,NW 69th Ave
276,26.118595,-80.397617,Landings Blvd/Egret Way
246,26.315086,-80.184742,NW 68th Pl/NW 45th Ave
334,26.033568,-80.285552,Lima St/la Paz Ave
445,26.086308,-80.196086,Canal Dr
216,26.250165,-80.183792,Antigua Ter/Wynmoor Cir
276,26.055777,-80.147899,NW 2nd St/NW 7th Ave
2462,26.098171,-80.250949,S University Dr/State Hwy 84
1097,26.274131,-80.182410,NW 42nd Ave
216,26.107211,-80.112387,Isla Bahia Dr/W Lake Dr
160,26.226729,-80.233286,SW 3rd Ct/SW 79th Ave
246,26.016766,-80.237961,N 75th Ave/Johnson St
1020,26.081878,-80.168034,/I- 595
390,26.120136,-80.118438,E Las Olas Blvd/Coral Way/Fiesta Way
216,26.200753,-80.245003,NW 62nd St/NW 68th Ter
362,26.295975,-80.216646,NW 65th Ter/NW 54th Dr
216,26.129577,-80.227979,59th Ave/Rose Ter
362,26.014708,-80.368025,NW 166th Ave/NW 9th St
334,26.324901,-80.154147,NW 36th Ave/NW 6th St
788,26.123885,-80.153532,NW 2nd St/NW 9th Ave
246,26.204961,-80.220246,Sportsman Dr
246,26.264319,-80.278653,NW 115th Dr/NW 112th Ave
684,25.973885,-80.165036,SW 11th Ave/SW 11th St
334,26.053792,-80.423340,SW 52nd Manor
305,26.065800,-80.262198,Blaze Ct
334,26.115029,-80.155868,SW 11th Ave
334,26.042954,-80.245397,NW 78th Ter
246,26.102366,-80.313811,SW 124th Ave
362,26.061774,-80.305777,SW 47th Ct/SW 118th Ave
160,26.215448,-80.101493,SE 12th St
390,26.226340,-80.110393,SE 13th Ave
216,26.026871,-80.196090,N 52nd Ave/Harding St
160,26.102289,-80.395489,Bayview Cir
390,26.176719,-80.137674,NE 7th Ave/NE 40th Ct
631,26.186494,-80.183687,NW 29th Ter
5020,26.122566,-80.105546,S Seabreeze Blvd/Valencia St/N Seabreeze Blvd
445,26.001395,-80.278879,SW 100th Ter/SW 8th St
334,25.982920,-80.312972,SW 28th St
216,26.183259,-80.130095,NE 45th St/NE 13th Ave
185,26.016392,-80.125663,N 10th Ave
362,25.997878,-80.273838,SW 97th Ave/SW 12th Ct
305,25.978763,-80.211184,SW 35th St
362,26.259223,-80.245025,Royal Palm Blvd/NW 89th Dr
246,26.103201,-80.180222,SW 28th Ter/SW 14th St
499,26.162690,-80.239361,NW 29th Ct/NW 68th Ave
160,26.066114,-80.237707,SW 44th Ct
334,26.304218,-80.099533,SE 2nd Ave/SE 10th Ct
160,26.318661,-80.290115,NW 123rd Ave/NW 71st St
216,26.323555,-80.136591,Country Club Blvd/Lakes Dr
762,26.120642,-80.297158,W Broward Blvd
185,26.005584,-80.122846,Adams St/S Southlake Dr/S 9th Ave
305,26.208564,-80.178866,NW 26th Way
390,26.146083,-80.279176,NW 18th St
185,26.131417,-80.282036,Waterford Dr S/NW 6th Pl/NW 7th St/NW 99th Ave
710,26.167687,-80.114323,Access Rd/NE 26th Ave
579,26.299996,-80.267724,NW 56th Dr/NW 56th Pl
246,26.291749,-80.093479,NE 22nd Ave/NE 49th St
305,26.195953,-80.269884,S Isles Cir/Isles Cir
736,26.240684,-80.257683,W Atlantic Blvd
185,26.116946,-80.126886,Brickell Dr/SE 17th Ave
579,26.079366,-80.152663,SW 9th Ave
499,26.185341,-80.153245,NW 8th Ln
276,25.965145,-80.324681,SW 45th Dr
334,26.225192,-80.289005,NW 80th Ct/NW 103rd Ave
552,26.269465,-80.224552,Pinewalk Dr N
362,26.092067,-80.120687,SE 26th St
305,26.279626,-80.221397,Rock Island Rd
552,26.174421,-80.296027,/NW 38th Pl
160,26.203294,-80.209603,SW 18th Ct/SW 63rd Ter
276,26.065752,-80.377991,Pine Ridge Ct/Pine Ridge Cir
246,26.062266,-80.144267,Locust Dr/NW 4th Ave
216,26.223309,-80.248997,NW 81st St/NW 73rd Ter
276,26.035601,-80.234308,Forrest St/NW 72nd Way
390,26.305225,-80.182556,NW 44th Ter
362,26.029691,-80.346925,/SW 72nd St/I75 Ramp
418,26.184095,-80.187438,NW 31st Ave/NW 46th St
390,26.304681,-80.184937,NW 60th Ct/NW 45th Ave
334,26.023250,-80.261305,Taft St/NW 87th Way
1278,26.289273,-80.152790,NW 48th St
472,25.979276,-80.364458,SW 165th Ave/SW 32nd St
762,26.297634,-80.274234,NW 109th Ln
788,26.114091,-80.362742,Saddle Club Rd
246,26.152860,-80.210327,/NW 46th Ave
185,26.145263,-80.277369,NW 17th St/NW 94th Ave
276,26.191100,-80.236637,NW 53rd St/NW 64th Ter
526,26.138834,-80.178308,NW 11th Ct
246,26.095614,-80.190937,SW 21st St/SW 34th Ave
472,26.074737,-80.228350,SW 61st Ave/SW 38th St
246,26.049946,-80.219243,SW 57th St/SW 54th Ter
216,26.295375,-80.084727,NE 28th Ave/NE 52nd St
1123,26.275510,-80.100012,NE 17th Ave/NE 36th St
216,26.161991,-80.182088,NW 29th St/NW 28th Way
362,25.988138,-80.258333,SW 86th Ave/Sherman Cir S
246,26.312644,-80.207133,66th Pl
526,26.127872,-80.275712,Central Park Dr
160,26.161997,-80.181551,NW 28th Ter/NW 29th St
216,26.188891,-80.237269,NW 65th Ave/NW 51st Ct
526,26.265752,-80.285446,NW 120th Way/NW 28th St
552,26.285102,-80.132920,NW 45th St
185,26.006284,-80.405201,SW 192nd Ter/SW 2nd St
658,26.059151,-80.350508,SW 49th Ct/SW 153rd Ave
390,26.267580,-80.125925,NW 29th Pl/NW 2nd Ave
472,25.980871,-80.154367,SW 4th St/SW 6th Ave
968,26.113123,-80.137879,SE 5th Ter/SE 7th St
362,25.982895,-80.168006,6th St/Green Acres Rd
390,26.078197,-80.134126,Federal Hwy/Terminal Dr Ramp
276,26.312410,-80.267081,NW 66th St/NW 105th Ln
445,26.234718,-80.210057,NW 65th Ave
390,26.126668,-80.109745,NE 26th Ter/Aqua Vista Blvd
684,26.263922,-80.282343,NW 26th Ct/Coral Ridge Dr
334,26.236863,-80.126865,NW 6th St/NW 3rd Ave
891,26.072945,-80.239046,SW 39th St
305,26.142578,-80.159153,NW 13th Ave/NW 13th Ct
185,26.049772,-80.180781,SW 58th Ct
526,26.310886,-80.076528,SE 4th St/SE 21st Ave
362,26.150375,-80.234404,NW 19th St/NW 63rd Ave
552,25.986486,-80.253099,SW 25th Ct/SW 83rd Ter
499,26.186325,-80.209354,NW 44th Ter/NW 49th Dr
552,26.299450,-80.112395,SW 6th Ter/SW 14th St
276,26.038942,-80.294329,NE Lake Blvd
445,25.962446,-80.311283,SW 50 St
362,26.132684,-80.179456,/Washington Park Dr
2114,25.986363,-80.118091,/S Surf Rd
418,26.187858,-80.106969,NE 48th St/Bayview Dr
891,26.062962,-80.200198,Griffin Rd/Hill Mhp
160,26.189965,-80.179253,NW 52nd St/NW 27th Ave
390,25.973180,-80.226826,SW 69th Way/E Woodscape Dr/Woodscape Cir
943,26.046811,-80.199268,Stirling Rd
390,25.990207,-80.263260,SW 89th Ave
2678,26.010608,-80.215703,Tyler St/N 64th Ave
185,26.302746,-80.109694,SW 4th Ter
499,26.116370,-80.320742,I595 Ramp/I- 595
185,26.005625,-80.277195,SW 3rd St/SW 99th Ave
605,26.297827,-80.283474,NW 54th St/NW 116th Ave
499,26.124325,-80.157663,NW 12th Ave/NW 3rd St
246,26.313256,-80.114366,SW Natura Ave
362,26.168539,-80.277767,W Oakland Park Blvd/NW 95th Ter
334,26.140956,-80.267951,NW 12th Pl/NW 88th Ln
445,26.254295,-80.208275,NW 20th Ct
390,26.124212,-80.167915,NW 20th Ave
390,26.206814,-80.243413,S Coral Ter/N Coral Cir
710,25.973435,-80.229636,/Florida's Tpke
390,26.066285,-80.242730,SW 72nd Way
160,26.262075,-80.215647,NW 28th Ct/NW 67th Ave
334,26.087203,-80.138453,SE 4th Ave/SE 30th St
185,26.146008,-80.281060,NW 97th Ter
305,26.234323,-80.131385,NW 7th Ave
362,26.058608,-80.346023,SW 49th St/SW 148th Ave
185,26.222023,-80.101601,SE 22nd Ave
762,26.005662,-80.116329,S Surf Rd/Washington St
631,26.171877,-80.275564,NW 37th Ct/NW 94th Ave
160,26.079305,-80.353522,SW 33rd St
334,26.230004,-80.106589,SE 2nd St/SE 17th Ave
216,26.018905,-80.230594,Hayes St/N 71st Ave/NW 71st Ave
472,26.162240,-80.234832,NW 63rd Ter/NW 29th St
362,26.234744,-80.159427,NW 4th St/NW 27th Ave
216,26.203208,-80.274169,Wedgewood Way/64th Ct
1020,26.231556,-80.204754,Margate Ct/US Hwy 441
216,26.039752,-80.291739,Denver Dr
994,26.062935,-80.161236,Griffin Rd/SW 48th St
334,26.038830,-80.228783,N 70th Ave/NW 33rd St
891,26.231551,-80.140530,NW 13th Ave/W Atlantic Blvd
658,26.153877,-80.181199,NW 28th Ave/NW 21st Ct
185,26.005142,-80.268528,S Hollybrook Ter
968,26.123024,-80.150530,NW 1st St/NW 7th Ave
276,26.052029,-80.190382,Shady Oak St/Manor Oak Ave
390,25.991009,-80.350093,SW 19th Ct/SW 150th Ave
445,26.069350,-80.137025,Federal Hwy Ramp//Perimeter Rd
185,26.073910,-80.299044,Water Oak Pl
472,26.221840,-80.241374,NW 80th Ct/NW 66th Ter
710,26.226626,-80.139088,SW 3rd St/SW 12th Ave
552,26.160496,-80.137596,NE 27th St
1071,26.229494,-80.103826,SE 20th Ave/SE 3rd St
684,26.026691,-80.364319,NW 21st St/NW 162nd Ter
418,26.273538,-80.108501,NE 11th Ave
276,26.087714,-80.354289,Shot Gun Rd/SW 154th Ave/SW 26th St
185,26.125107,-80.181768,NW 4th St/NW 28th Way
185,26.142699,-80.269599,NW 14th St/NW 90th Way
362,26.138480,-80.415197,State Hwy 84
276,26.162665,-80.287826,Sunrise Lakes Blvd
185,26.309714,-80.151329,Prescott O/Prescott Cr/Tilford Dr
305,26.184864,-80.273347,NW 49th Pl
216,26.064108,-80.334959,SW 140th Ave/SW 44th St
390,26.028513,-80.294806,Redwood Ave
418,26.147050,-80.246879,NW 17th St/NW 72nd Ave
246,26.128779,-80.193889,NW 34th Ter/NW 6th St
185,26.193073,-80.126997,NE 53rd St/NE 15th Ave
216,26.226749,-80.093875,S Riverside Dr/SE 7th St
246,26.154978,-80.256118,NW 23rd St/NW 82nd Way
216,26.083574,-80.136760,SE 33rd St
390,26.172444,-80.283561,N Nob Hill Rd/Winding Lake Rd
216,26.087408,-80.150726,SW 30th St/SW 8th Ave
499,26.086238,-80.265751,Ivy Ct
246,26.113178,-80.368977,Fern Dr
552,26.124249,-80.153558,NW 9th Ave/S Dixie Ct
246,26.146664,-80.274861,93rd Ter/W Sunrise Blvd
788,26.201031,-80.236242,Bailey Rd/NW 62nd St
605,26.186142,-80.206425,NW 49th Dr/NW 42nd Ter
305,26.178158,-80.162817,NW 41st St/NW 15th Ave
276,26.281654,-80.183013,NW 41st Dr/NW 42nd Ter
334,25.998632,-80.156988,S 25th Ave/Wiley St
499,26.224986,-80.091243,S Ocean Blvd/SE 10th St
246,26.134545,-80.277665,NW 9th Ct/NW 97th Ave
216,26.126109,-80.148627,NW 4th Ct/NW 5th Ave
276,26.156982,-80.109473,Bayview Dr/NE 24th Pl
276,26.176508,-80.132399,NE 40th Ct
160,26.060982,-80.327345,SW 134th Ave
185,26.033321,-80.299827,Ashly Ln/Belmont Ln
390,26.295649,-80.253978,NW 98th Ln/NW 52nd Manor
185,26.226524,-80.237392,SW 81st Ter/SW 3rd Pl
472,26.275559,-80.095054,NE 36th St/NE 21st Ave
276,26.137801,-80.223136,NW 11th St/NW 55th Ave
552,26.140839,-80.231502,NW 14th St/NW 61st Ave
684,26.148530,-80.245977,W Sunrise Blvd
276,26.133294,-80.186518,NW 8th Rd/NW 31st Ave
552,26.185230,-80.261574,NW 49th St/NW 83rd Ave
445,26.022872,-80.274729,NW 98th Ave
216,25.987674,-80.134294,NE 14th Ave/
418,26.134869,-80.314199,N Flamingo Rd
526,26.044898,-80.271088,NW 92nd Ave/SW 60th St/92nd Ave
160,26.106701,-80.305483,SW 10th Pl/SW 117th Way
160,25.969997,-80.405467,SW 194th Ter
185,26.202123,-80.232257,Cross Keys Village
216,25.986150,-80.234460,Madeira St/Desoto Dr
334,26.255682,-80.282839,Oakmont Ter
362,26.218360,-80.274095,NW 88th Ave/Holly Ct
362,26.093587,-80.187979,SW 33rd Ave/SW 23rd St
362,26.118487,-80.371798,Mallory Ct
305,26.236545,-80.213437,NW 6th Ct/NW 66th Ave
1641,26.011583,-80.215290,Duval St
4641,26.011551,-80.144992,N 19th Ave/S 19th Ave/Hollywood Blvd
276,26.041830,-80.268676,NW 39th St
390,26.016462,-80.132782,Pierce St/N 13th Ave
246,26.005605,-80.228424,SW 70th Ter/SW 5th Ct
160,26.271457,-80.105585,NE 32nd St/NE 13th Ave
552,26.250275,-80.093526,NE 14th St/NE 28th Ave
185,26.159241,-80.099315,NE 25th St
418,25.961426,-80.323659,SW 52nd St/SW 134th Ave
390,26.127229,-80.396412,Carrington Dr
305,26.015046,-80.336400,NW 12th St/NW 11th Pl/NW 142nd Ave
552,26.211131,-80.213354,Braeburn/Baltrusol
362,25.973149,-80.392545,Sunrise Ave/SW 185th Ave
160,26.075595,-80.280942,SW 100th Ave
526,26.099072,-80.410795,Pheasant Ln/Deer Creek Rd
160,26.060167,-80.151040,NW 10th Ave/NW 7th St
276,26.280327,-80.227714,NW 40th Ct
185,26.234770,-80.268927,Riverside Dr/NW 107th Ave
160,26.260304,-80.194775,NW 26th Ct/Banks Rd
362,26.022541,-80.277073,NW 98th Ave
552,26.159559,-80.228573,NW 56th Ave
160,25.986320,-80.394291,SW 24th St/SW 185th Ave
472,26.007699,-80.118020,S Ocean Dr/Madison St
276,26.286557,-80.218127,Wiles Rd
418,26.219667,-80.127377,SW 3rd Ave/SW 8th St
216,26.079272,-80.219547,SW 34th St/SW 51st Ave
185,26.247872,-80.214301,NW 66th Ter
216,26.247625,-80.270473,NW 108th Ave/NW 13th Ct
334,25.976830,-80.373976,SW 170th Ter/SW 34th Ct
216,26.124445,-80.194160,NW 4th St/NW 35th Ave
305,26.119915,-80.233624,SW 63rd Ter
185,26.112907,-80.291526,Coconut Palm Ter/Hawks Lndg
631,26.190763,-80.138982,NE 6th Ave
1459,26.033642,-80.143285,S Federal Hwy/N Federal Hwy/Sheridan St/SW 16th St
276,26.249580,-80.257436,NW 15th Ct/NW 100th Dr
160,25.999065,-80.360014,SW 8th St/SW 159th Dr
499,25.985185,-80.301479,Civic Center Pl
943,26.050392,-80.208149,Seminole Way
276,26.077145,-80.180678,SW 36th St
216,26.223062,-80.119972,SE 2nd Ter/SE 5th Ct
390,26.125162,-80.115585,NE 23rd Ave
276,26.290259,-80.258957,NW 48th Dr/NW 100th Ter
305,26.235121,-80.281383,NW 2nd Dr
552,26.105310,-80.197583,SW 37th Ave/SW 12th Pl
305,25.996400,-80.402305,SW 15th St/SW 191st Ave
185,26.315881,-80.136691,Durham J
276,26.170526,-80.274312,NW 35th Manor
185,26.200160,-80.155573,NW 9th Ave
276,26.285251,-80.276328,NW 44th St/NW 113th Way
710,26.202474,-80.189013,NW 62nd St
362,26.016359,-80.393596,NW 12th St/NW 184th Ter
499,25.995192,-80.256948,SW 86th Ave/SW 16th Ct
762,25.972900,-80.203230,NW 215th St/SW 59th Ave
390,26.091816,-80.194643,SW 36th Ave/Riverland Rd
246,26.221964,-80.269255,NW 77th St/NW 86th Way
334,26.045007,-80.245683,NW 42nd Ct
499,26.181557,-80.187024,Lakepointe Dr/Lake Pointe Dr
185,26.134214,-80.179798,NW 28th Ave/NW 9th St
246,26.052658,-80.223713,SW 58th Ave/SW 54th Ct
305,26.097893,-80.158108,SW 13th Ave/SW 18th Ct
185,26.328825,-80.220896,Parkside Estates St/Parkside Dr
579,26.109498,-80.137983,SE 11th St/SE 5th Ave
390,26.054142,-80.280606,SW 52nd St/SW 101st Ave
185,26.257452,-80.178258,NW 40th Ave/NW 22nd St
216,26.112133,-80.242399,SW 66th Ave
526,26.186267,-80.189299,NW 50th St
710,26.062317,-80.170066,Coral Reef Ct
813,26.079975,-80.396552,Inverness
362,26.120717,-80.302206,Terra Bella Blvd
185,26.179516,-80.158065,NW 42nd Ct/NW 10th Ter
334,26.275485,-80.278547,NW 114th Ave/NW 37th St
334,26.267112,-80.261978,NW 29th St
334,26.082752,-80.138224,SE 6th Ave/S Andrews Ave
276,26.085823,-80.326713,SW 28th St
185,26.057509,-80.148884,NW 3rd St
246,26.277916,-80.236618,NW 83rd Ter
472,26.287458,-80.186457,Lyons Rd
305,26.109063,-80.114211,Harborage Dr
246,26.238086,-80.277928,NW 5th St/Coral Ridge Dr
2759,26.114505,-80.314107,I- 595
305,26.125351,-80.415347,Quail Ct
246,26.025414,-80.183470,Yale Dr/Taft St
334,26.003292,-80.140795,S 17th Ave/Dewey St
216,25.994493,-80.361222,SW 15th St/SW 159th Ln
160,26.311788,-80.144482,SW 4th St/SW 30th Ave
605,26.031751,-80.224576,Sheridan St/NW 68th Ave
160,26.060162,-80.297742,SW 112th Ave/SW 48th St
246,26.189205,-80.277316,NW 95th Ave/NW 52nd Manor
216,26.282795,-80.094645,NE 42nd St/NE 21st Ter
160,26.113269,-80.282860,101st Ave
418,26.155136,-80.283034,Nob Hill Rd/NW 24th Pl
305,26.121729,-80.129981,SE 13th Ave/SE 1st St
2705,26.137552,-80.105442,NE 9th Ct/N Birch Rd
1200,26.023549,-80.114987,Cleveland St
305,26.272894,-80.284754,W Sample Rd/NW 118th Ave
390,26.169066,-80.266176,NW 86th Way/NW 34th Pl
246,26.174100,-80.239814,NW 39th Ln/NW 67th Way
472,26.244758,-80.177883,NW 40th Ave
185,26.103770,-80.230892,SW 15th St
445,26.001612,-80.265960,S Hollybrook Dr
160,26.145813,-80.158358,NW 12th Ave/NW 15th Ct
499,26.224936,-80.233992,SW 4th Pl/SW 79th Way
334,26.220328,-80.200430,SW 55th Ave/SW 8th St
658,26.081949,-80.223706,Palm Trace Landings Dr
1589,26.135800,-80.216823,/W Sunrise Blvd
185,26.270111,-80.091407,NE 31st Ct
334,26.009495,-80.185673,S Circle Dr/Harrison St
160,26.303085,-80.082604,SE 12th St/SE 15th Ave
160,26.303503,-80.101532,SE 11th St/SE 1st Way
276,26.092006,-80.189001,Riverland Rd/SW 33rd Ter
160,26.118849,-80.226177,SW 2nd St/SW 58th Ave
246,26.296827,-80.166307,SW 45th Way/SW 14th St
334,26.083876,-80.160770,SW 32nd Pl/SW 15th Ave
276,26.005704,-80.184708,Madison St/S 41st Ave
246,26.012614,-80.258055,NW 5th St/NW 86th Ave
552,26.063305,-80.251070,Paddock Pl
526,26.011851,-80.322504,NW 5th Ct/NW 129th Way
390,26.033456,-80.187210,Saint Andrews Rd/Heatherbrook Way
185,26.209589,-80.261161,Walden Pond Ln
390,25.995706,-80.278984,SW 16th St/SW 100th Ter
684,26.094009,-80.252463,S Valencia Dr/Matador Ln
684,26.023050,-80.299093,N Hiatus Rd/Taft St
362,26.271309,-80.133561,NW 33rd St/NW 8th Ave
216,26.332487,-80.269285,NW 79th Manor/NW 109th Ln
334,26.158060,-80.184978,NW 26th St
362,26.258128,-80.290049,Cherry Hills Way
334,26.045355,-80.170077,Parkside Ln/N 39th St
276,26.326617,-80.150378,Deer Creek Palladian Cir
1433,26.137597,-80.119295,E Sunrise Blvd/NE 20th Ave
445,25.996642,-80.305729,SW 12th St/SW 119th Ave
216,26.203999,-80.212568,SW 18th Ct/SW 66th Ave
160,26.288821,-80.112940,NE 47th Ct/NE 8th Ave
246,26.333064,-80.270188,NW 81st Manor
160,26.270276,-80.104690,NE 14th Ave/NE 32nd St
684,26.152153,-80.265935,NW 21st Ct/NW 87th Ave
305,26.270784,-80.267325,NW 32nd Ct/NW 106th Ave
552,26.317813,-80.088185,NE 4th Dr/NE 11th Way
499,26.064250,-80.140927,/N Federal Hwy
276,26.126161,-80.123416,N Gordon Rd
160,26.094438,-80.297948,Hiatus Rd
472,26.117437,-80.362548,Fairway Ter/Weston Rd
762,26.122583,-80.313714,NW 2nd St
839,26.019673,-80.212981,Florida's Tpke
334,26.256403,-80.254621,Maplewood Dr
185,26.238321,-80.155482,NW 7th St/NW 24th Ave
445,26.043562,-80.169024,N 30th Ter/Lakewood Ln
246,26.060589,-80.197899,SW 49th Pl/SW 38th Way
185,25.973432,-80.184331,NE 215th St
710,25.997555,-80.308142,SW 121st Ave/SW 11th Ct
605,26.293873,-80.108494,NE 51st St/N Dixie Hwy
305,26.028896,-80.273177,NW 23rd St
216,26.055008,-80.403181,SW 51st Manor
160,26.049271,-80.361782,SW 160th Ave
185,26.061364,-80.414880,SW 199th Ave/Griffin Rd
362,26.122406,-80.290573,NW 1st Ct/NW 106th Ave
418,25.969739,-80.319279,SW 42nd St
246,25.997281,-80.301162,SW 12th St/SW 115th Ave
185,26.272882,-80.081934,NE 34th St/NE 31st Ave
160,26.009227,-80.437421,NW 2nd Ct
362,26.293062,-80.268051,NW 105th Dr
276,26.192250,-80.181108,NW 54th St/NW 28th Ave
362,25.982320,-80.161551,SW 10th Ave/SW 2nd Ct
334,26.325404,-80.167992,NW 47th Ave/NW 6th Ct
216,25.990215,-80.274913,SW 98th Ave
305,26.029062,-80.254978,NW 23rd St
334,26.324106,-80.277588,Heron Bay Blvd N/Nob Hill Rd/NW 74th Pl
276,26.281377,-80.270452,NW 107th Ave
276,26.200913,-80.210871,/NW 45th Ave
160,26.299738,-80.162371,Indepence Dr
276,26.327882,-80.287072,NW 78th Pl
472,26.268052,-80.113516,NE 7th Ave/NE 30th St
185,25.971300,-80.336835,SW 143rd Ave/SW 41st St
276,26.263335,-80.288547,NW 122nd Ave/NW 121st Dr
160,26.319880,-80.233473,NW 72nd St/W Cypresshead Dr
684,26.101382,-80.379961,Saint Tropez Cir
418,26.218431,-80.127045,SW 9th St/SW 3rd Ave
160,26.308670,-80.194716,Regency Lakes Blvd/Mallards Dr/Eagle Cay Ct/Regency Lakes Promenade
390,26.064966,-80.270317,SW 92nd Ave/SW 45th St
418,26.235419,-80.248044,Riverside Dr/NW 92nd Ave
305,26.158183,-80.115670,NE 22nd Ter
499,26.310565,-80.234997,Holmberg Rd/New Holmberg Rd
994,26.221662,-80.091274,SE 13th St/S Ocean Blvd
418,26.277864,-80.129979,NW 38th Pl/NW 4th Ave
334,26.204426,-80.188020,NW 65th Dr/NW 31st Ave
276,26.144225,-80.290228,NW 106 Ave/NW 17th St
246,26.285202,-80.103337,NE 15th Ave/NE 43rd Ct
246,26.249002,-80.234707,NW 81st Ave
362,26.122615,-80.248282,NW 1st Ct/NW 75th Ave
185,26.188287,-80.219794,Sago Palm Blvd/NW 52nd Ave/Rock Island Rd
472,25.973406,-80.361553,SW 161st Ter/SW 36th Ct
276,26.205612,-80.208386,SW 63rd Ave/SW 17th St
362,26.156917,-80.223781,/NW 55th Ter/NW 24th St
362,26.104582,-80.281910,S Nob Hill Rd/SW 101st Rd
216,26.035330,-80.395485,SW 185th Way
160,25.965277,-80.394749,SW 46th St/SW 186th Way
305,26.101388,-80.211219,SW 46th Ave/SW 15th St
418,26.123062,-80.388933,Stonemont Ln
246,26.098093,-80.239880,SW 20th St/SW 69th Ave
418,25.983146,-80.362106,SW 28th Ct/SW 163rd Ave
390,26.019158,-80.279451,NW 100th Ave/Westview Blvd
160,26.219572,-80.183359,Oaks Ter/Carriage Dr
276,26.142944,-80.233727,NW 62nd Ter/NW 15th St
2114,25.993843,-80.279294,Palm Ave
276,26.255370,-80.094948,NE 27th Ave/NE 19th St
185,26.246534,-80.235347,NW 13th Pl/NW 82nd Ave
552,26.018555,-80.159426,N 26th Ave/Johnson St
185,26.207238,-80.181885,NW 68th St/NW 28th Ave
362,26.263956,-80.116982,N Dixie Hwy
658,26.195561,-80.203869,US Hwy 441
305,26.223326,-80.230537,SW 6th St/SW 77th Ter
445,26.038147,-80.147098,SW 11th St/W Dixie Hwy
390,26.100400,-80.383398,Creek Ford Dr/Town Center Blvd
445,26.296867,-80.203581,NW 57th Ave/NW 54th Pl
390,26.109794,-80.177852,SW 27th Ave/SW 9th Dr
526,26.225047,-80.233254,SW 4th Pl/SW 79th Ave
499,26.197411,-80.113761,NE 22nd Ave/NE 56th Ct
246,26.042713,-80.212138,Pine Ln/Escom Ln
445,25.996002,-80.387681,SW 178th Way/SW 12th Ct
552,26.171772,-80.295784,NW 36th St/Hiatus Rd
334,26.081917,-80.176303,SW 26th Ter/SW 32nd St
334,26.130062,-80.396869,Stanton Dr
334,26.129406,-80.154542,NW 6th St/NW 10th Ave
305,26.018548,-80.399748,NW 187th Ave/NW 192nd Ave
246,26.091134,-80.274654,SW 23rd St
160,25.991398,-80.286004,SW 104th Ter/SW 20th St
605,26.017556,-80.211930,NW 62 Ave/Johnson St
185,25.991617,-80.223096,SW 21st St/SW 68th Ave
160,26.326318,-80.115522,Fairway Dr
185,26.086560,-80.339988,Steeplechase Rd/Jockey Cir E/Jockey Cir N
276,26.025659,-80.128782,Linden St/Sweetbay Way
160,26.284347,-80.081623,NE 43rd St/NE 31st Ave
579,25.995256,-80.221208,SW 67th Ave/Pembroke Rd
246,26.303559,-80.097533,SE 11th St/SE 4th Ave
305,26.184494,-80.205199,NW 41st Ave/NW 48th St
552,25.983119,-80.278264,River Run Cir W
552,26.005734,-80.279107,SW 100th Ter
1149,25.984542,-80.183063,SW 40th Ave/W Hallandale Beach Blvd
185,26.256257,-80.226751,NW 76th Ter/NW 22nd St
246,26.252174,-80.240377,NW 16th St/Riverwood Ln
445,26.176863,-80.170998,/NW 21st Ave
418,26.308010,-80.181071,Serko Blvd/NW 65th St/NW 64th St
305,26.026715,-80.303793,NW 21st St/NW 116th Ter
160,26.071290,-80.244439,SW 73rd Ave
736,26.157249,-80.229341,NW 56th Ave
362,26.193654,-80.279939,W Commercial Blvd/NW 95th Ave
390,26.159727,-80.290268,NW 28th Pl/NW 105th Ln
185,26.031866,-80.309211,Lakeview Ct
390,26.250296,-80.090451,NE 14th St/NE 14th Street Cswy
362,26.283824,-80.225095,NW 75th Ave/NW 42nd Dr
185,26.082741,-80.183935,30th Ave
216,26.264225,-80.093221,/NE 22nd Ave
334,25.993433,-80.229126,Alcazar Dr/Tropicana St
305,26.111661,-80.271412,Jacaranda Dr/Jacaranda Ln
160,26.162063,-80.282628,NW 99th Ter
305,26.139520,-80.255720,NW 11th Manor
276,26.101633,-80.213515,SW 48th Ave/SW 16th St
445,26.295007,-80.196577,NW 52nd St/NW 53rd Cir
362,26.162169,-80.315838,NW 29th Manor/NW 125th Ave
185,26.236456,-80.183856,NW 4th Ct/NW 45th Ave
526,26.233263,-80.288540,W Atlantic Blvd
499,26.124914,-80.208257,NW 3rd Ct/NW 45th Ave
216,26.021055,-80.294873,Access Rd/NW 109th Ter
334,26.117253,-80.161612,SW 4th Ct
334,26.095955,-80.213632,SW 46th Ter/SW 24th St
246,26.217001,-80.194375,SW 49th Ave/SW 10th St
684,26.275236,-80.127724,W Sample Rd/NW 3rd Ave
246,26.244409,-80.286518,NW 10th St
579,25.993807,-80.282412,SW 101st Ave
390,26.003012,-80.288905,SW 6th St/SW 106th Ave
1252,26.098740,-80.252686,Sr84 Ramp/Sr84/State Hwy 84
334,26.277574,-80.238127,NW 84th Ave
246,26.113759,-80.180358,SW 6th St/SW 28th Way
736,26.126197,-80.146173,NW 2nd Ter/NW 4th Ct
472,26.210870,-80.256201,NW 78th Ter/NW 71st Ct
160,26.224159,-80.116981,SE 4th Ct/SE 4th Ter
334,26.265953,-80.203044,E Sable Cir/N Sable Cir
185,26.001007,-80.357290,SW 10th St/SW 158th Way
658,26.143179,-80.315078,NW 124th Ter/NW 15th Pl
499,26.209795,-80.266481,Woodmont Ave/Woodmont Way
276,26.208386,-80.260562,W McNab Rd
631,26.059239,-80.143859,N Federal Hwy/Old Griffin Rd
943,26.082807,-80.224949,SW 30th St/Palm Trace Landings Dr
579,26.009502,-80.327766,NW 5th St/NW 135th Ter
390,25.957542,-80.312974,SW 54th Ct/SW 125th Ter
305,26.061474,-80.264792,SW 50th St/SW 88th Ter
334,26.149493,-80.192976,NW 33rd Way/NW 18th Ct
390,26.205711,-80.234081,Belmont Ln
390,26.136935,-80.269002,NW 90th Ave/NW 10th Ct
160,26.191498,-80.198019,NW 35th Ter/NW 53rd Ct
246,26.285042,-80.110999,NE 43rd Ct/N Dixie Hwy
2705,26.188397,-80.155148,NW 50th St/NW 9th Ave/Powerline Rd
160,26.175281,-80.167765,NW 18th Ave/NW 39th Ct
499,26.224542,-80.295471,Sanibel Dr/Dixie Beach Cir
631,25.990423,-80.168689,SW 24th St/Gloria Ln/SW 30th Ct
185,26.215012,-80.201139,SW 11th St
216,26.017037,-80.290335,E Sandpiper Cir
605,26.046302,-80.223543,Stirling Rd/SW 58th Ave
276,26.114841,-80.154143,SW 9th Ter/SW 5th Pl
160,26.306132,-80.142752,Oakridge Cir
762,26.000416,-80.117880,S Ocean Dr/Hyacinth Ter
276,26.002202,-80.274360,SW 95th Ter/SW 8th St
276,25.997505,-80.252718,/Palm Dr
160,26.114824,-80.127765,Ponce de Leon Dr/SE 7th St
390,26.315278,-80.092469,SE 9th Ave/SE 2nd Ct
579,26.036284,-80.239969,N 75th Ave
418,26.240732,-80.113637,NE 9th Ct/NE 10th Ave
552,26.062615,-80.173912,SW 25th Ave/Griffin Rd
276,26.221632,-80.133612,SW 6th Ct/SW 8th Ave
246,26.324439,-80.214186,NW 75th Dr/NW 65th Ln/NW 76th Dr/NW 75th Pl
216,26.265666,-80.195959,NW 29th Ct
418,25.992870,-80.266846,SW 18th St/SW 91st Ave
334,26.062496,-80.368182,SW 164th Ter/Griffin Rd
472,25.992128,-80.170058,SW 31st Pl
185,25.978991,-80.145047,Old Federal Hwy/Joan St
185,26.003219,-80.320465,SW 7th Ct
185,26.261652,-80.275608,NW 25th St/NW 112th Ave
185,25.977262,-80.144184,SE 8th St/SE 4th Ave
246,26.112749,-80.372839,Saddle Club Rd/Village Lake Dr
276,25.984972,-80.221931,SW 27th Ct/SW 67th Way
305,26.140256,-80.149114,NW 12th St/NW 5th Ave
736,26.260726,-80.132776,I- 95
185,26.016846,-80.414764,NW 201st Ave
631,26.123067,-80.267253,W Broward Blvd
216,26.053624,-80.327297,Lakewood Dr/Lakeside Ter
418,26.256444,-80.223324,NW 22nd St/NW 73rd Ave
736,26.118958,-80.371235,Country Club Rd/Mallory Ct/Bonaventure Blvd
362,26.071493,-80.263675,Bridle Path Ct
390,26.093514,-80.273321,Orange Grove Dr/Pine Ridge Dr
1772,26.098584,-80.250308,/I- 595
552,26.274245,-80.203780,W Sample Rd
216,26.042442,-80.348926,Portsmouth Ln//W Falcons Lea Dr
305,26.095468,-80.109184,S Ocean Dr/Inlet Dr
362,26.015172,-80.264886,NW 89th Ter/NW 8th St
1877,26.240854,-80.268987,W Atlantic Blvd/Coral Springs Dr
390,25.961426,-80.333447,SW 51st Ln/SW 51st Ct
891,26.297833,-80.254076,NW 98th Ln/Westview Dr
788,26.006182,-80.257066,SW 85th Way
160,26.072411,-80.159652,SW 14th Ave/SW 40th St
216,26.268713,-80.094816,NE 30th Ct/NE 21st Ave
2088,26.108474,-80.262106,SW 12th St/Peters Rd/SW 87th Ave
418,26.241056,-80.113652,NE 9th Ct/NE 10th Ave
160,26.008903,-80.438669,NW 218th Way
216,26.221265,-80.123326,S Cypress Rd/SE 6th Ct
216,26.104315,-80.389716,Ginger Cir/Iris Ct
216,26.099029,-80.153098,SW 9th Ave/SW 18th St
362,26.112040,-80.367859,Horseshoe Ln/Saddle Club Rd
305,26.139765,-80.416864,State Hwy 84
246,26.058716,-80.350970,SW 49th St/SW 153rd Ave
736,26.120107,-80.120491,E Las Olas Blvd/NE 19th Ave
305,26.082810,-80.221569,/SW 31st St/SW 53rd Ter
216,26.201541,-80.268274,NW 88th Ave/NW 62nd St
631,26.073987,-80.232365,SW 64th Ave/SW 38th Ct
736,26.160341,-80.232914,NW 60th Ter
305,26.244468,-80.206809,Margate Blvd
526,26.021489,-80.268877,NW 92nd Ave/Orchid Tree Ln/NW 15th St
305,26.159729,-80.253985,Sunrise Lakes Dr E
185,26.316670,-80.137619,Durham K/Durham Cir
216,26.192763,-80.131220,NE 12th Ave
891,26.065782,-80.391669,Foxtail Ln
390,26.007842,-80.416849,Pines Blvd/NW 202nd Ave
1020,25.978769,-80.345573,S 33rd St/
552,26.088757,-80.396294,Cypress Ln/Weston Hills Dr/Riviera Ct
185,26.052470,-80.394540,SW 54th Pl
185,26.125675,-80.200901,NW 4th Pl/NW 39th Ave
736,26.146211,-80.194309,NW 16th St/NW 34th Ter/NW 34th Ave
472,26.022141,-80.426840,208th Way/16th St
334,26.068711,-80.260882,SW 85th Ave
246,26.249419,-80.089148,NE 13th St/N Riverside Dr
658,26.186403,-80.183622,NW 50th St/NW 29th Ter
305,26.024259,-80.368295,NW 166th Ave/NW 18th St
526,26.019151,-80.267045,NW 90th Ter/NW 12th Ct
305,26.140255,-80.135123,N Flagler Dr
216,26.103628,-80.236427,SW 15th St/SW 66th Ter
334,26.044156,-80.242888,NW 77th Ave/NW 41st St
276,26.066014,-80.350754,SW 151st Ave/SW 41st St
839,26.002547,-80.116641,S Surf Rd/Daffodil Ter
605,26.186292,-80.195708,NW 50th St
160,26.069382,-80.173768,SW 25th Ave
276,26.009919,-80.399351,NW 3rd Ct
160,26.257641,-80.227263,NW 25th St/Holiday Springs Blvd
499,26.100440,-80.364157,Pediatrix Way/Northpark Dr
246,26.123082,-80.394210,Fairmont Way
390,26.094391,-80.205553,SW 42nd Ter/SW 22nd Ct
216,26.059251,-80.141553,NE 2nd Ave
305,26.293871,-80.180878,NW 51st St/NW 42nd Ter
160,26.160869,-80.251341,NW 80th Ave
334,25.987576,-80.260784,87th Ter
216,26.185641,-80.151277,NW 47th Ct
160,26.038639,-80.180406,Tuscany Dr/N 36th Ave
276,26.174276,-80.124251,NE 17th Ave/NE 38th St
185,25.959050,-80.394612,SW 186th Way
160,26.248276,-80.191829,NW 49th Ave/NW 15th St
246,26.012221,-80.272178,NW 95th Ter/NW 5th St
305,26.306528,-80.105714,SW 8th Ct/SW 2nd Ave
305,26.144748,-80.154662,Lauderdale Villa Dr
160,26.082042,-80.290509,SW 30th Pl
362,26.054299,-80.268552,SW 52nd Ct/SW 89th Way
362,26.169864,-80.108825,Bayview Dr/NE 34th St
418,26.000474,-80.306781,Washington St/119th Ave
1149,26.122652,-80.264018,N Pine Island Rd/NW 87th Ave
185,26.218671,-80.180057,Carriage Dr/W Palm Aire Dr
362,26.106027,-80.187702,SW 32nd Ave/SW 12th Pl
185,26.212981,-80.199805,SW 12th St
246,26.045926,-80.185862,N 41st St/N 42nd Ave
216,26.132815,-80.162947,NW 8th St/NW 15th Ter
445,26.070066,-80.234698,SW 41st Ct/SW 66th Ter
160,26.039185,-80.308972,Bay Way/Stonebridge Pkwy
1459,26.153765,-80.118553,NE 21st St/N Federal Hwy
185,26.213434,-80.285126,/N Belfort Cir
579,25.978116,-80.257034,Newport Rd/Southampton Dr
334,26.261243,-80.199902,San Miguel/Santa Maria
418,26.172083,-80.282924,NW 99th Ter/NW 99th Ave/NW 37th St
839,26.054935,-80.202640,SW 40th Ave
246,26.171164,-80.140521,NE 35th St/NE 5th Ave
246,25.974157,-80.155286,SW 11th St
552,26.242603,-80.099978,NE 23rd Ter
631,26.192211,-80.113665,N Federal Hwy/NE 54th St
216,26.286174,-80.142120,NW 13th Ave/NW 46th St
472,26.172411,-80.216287,NW 50th Ave/NW 36th St
362,25.987730,-80.253513,83rd Ter
185,26.310543,-80.147816,Tilford N
418,26.047978,-80.186969,SW 32nd Ter
552,26.121645,-80.303954,NW 1st St/NW 116th Ave
526,26.232364,-80.289766,NW 122nd Ave
1877,26.157150,-80.137172,Wilton Dr/NE 7th Ave
526,26.056315,-80.309944,SW 50th Pl/SW 121st Ave
246,26.121011,-80.423697,Savannah Dr
445,25.972558,-80.359498,SW 40th St
216,26.152675,-80.142919,NE 1st Ter
499,26.030862,-80.297593,Rampart Way N
710,26.310748,-80.091004,SE 5th Ct
246,26.039541,-80.401664,SW 190th Ave
1020,26.193964,-80.187739,NW 31st Ave
418,26.142426,-80.175458,NW 13th Ct
276,26.143172,-80.174097,NW 24th Ave/NW 14th St
390,26.011549,-80.323034,NW 130th Ave/NW 5th Ct
276,26.163407,-80.180614,NW 30th St/NW 27th Way
276,26.020305,-80.325750,NW 132nd Ave/NW 15th St
334,26.098432,-80.194638,SW 36th Ter/SW 18th St
305,26.202035,-80.268411,N Pine Island Rd
246,26.051388,-80.279926,SW 100th Ave
334,25.988375,-80.257416,Sherman Cir S/SW 85th Ter
305,26.224029,-80.229018,SW 5th St/SW 76th Ter
216,25.977150,-80.389743,SW 33rd St
305,26.249925,-80.251584,NW 94th Ave
246,26.230030,-80.112505,SE 2nd St/SE 11th Ave
418,26.012782,-80.283703,NW 7th St/NW 103rd Ave
185,26.155267,-80.271781,NW 91st Way/NW 24th Pl
362,26.014875,-80.408195,NW 196th Ave/Johnson St
579,26.178482,-80.292818,108th Ter/NW 43rd St
1149,26.101768,-80.262816,/State Hwy 84
160,26.040213,-80.310410,Park Dr
185,26.242464,-80.234120,Margate Blvd
160,26.245495,-80.092766,NE 11th St
216,26.100933,-80.281091,SW 15th Ct/SW 99th Ter
445,26.192808,-80.128468,NE 53rd St/NE 14th Way
334,26.138776,-80.417444,Salerno Cir/Madeira Dr
216,26.040967,-80.230887,NW 71st Ave/Custer St
246,26.148811,-80.113004,NE 17th St/NE 26th Ave
1329,25.976434,-80.141931,SE 9th St//S Federal Hwy
865,25.984649,-80.203016,Allen Rd/W Hallandale Beach Blvd
813,26.134774,-80.140953,Progresso Dr/NE 3rd Ave
2009,26.304736,-80.119350,/I- 95 on Ramp
334,25.993559,-80.316112,SW 127th Way/SW 16th Ct
334,26.007130,-80.273393,SW 1st Ct/SW 96th Ave
526,25.982697,-80.229136,SW 30th St/Sunshine Blvd
160,26.007375,-80.272562,Palm Cir
185,26.132036,-80.219944,Redwood Pl/E Acre Dr
