Estimated daily crossings,Latitude,Longitude,Name
276,38.508698,-89.630488,Sugar Creek Ln
246,38.601800,-89.440999,Maddux St
185,38.608610,-89.523192,N 2nd St/N Elm St
362,38.627984,-89.370769,William Rd
276,38.614945,-89.520689,N 9th St/N 9th
160,38.542019,-89.611124,S Francis St/E Johnson St
185,38.614406,-89.516520,Memorial Dr/N 9th St
160,38.543342,-89.698946,Westminster Pl
160,38.510133,-89.623379,S Church St/E Main St/N Church St/W Main St
160,38.554803,-89.545666,West St/Main St
305,38.537572,-89.701788,N Adams St/W Maple St
185,38.599252,-89.527806,S Main St
160,38.537638,-89.262603,E 4th St/Oak St
216,38.611209,-89.505018,Foxtail Dr
445,38.614148,-89.363849,5th St/Clinton St
185,38.607235,-89.535231,Germantown Rd
160,38.618892,-89.361516,/Sunrise Hill
185,38.609220,-89.375489,Washington St/14th
246,38.618266,-89.375144,Slade St
762,38.533117,-89.158944,W Mc Cord/W McCord St/W Broadway
160,38.559631,-89.553839,Drive in Rd
160,38.632179,-89.363083,Dam West Campground Rd
160,38.693793,-89.237676,/Boulder Marina Rd
160,38.605151,-89.431198,/Scoville St
216,38.605882,-89.668965,E Broadway/N Magnolia St
216,38.604255,-89.533797,S 3rd St
160,38.475820,-89.680451,State Rte 160
334,38.636189,-89.372747,State Rte 127
305,38.618855,-89.525810,Jamestown Rd/Apple Ln
185,38.679977,-89.237884,Harbor Dr
185,38.606593,-89.604473,Clement St/2nd St
160,38.604928,-89.608549,4th St/Meadow St
160,38.616335,-89.650071,US Hwy 50/Crackerneck Rd
185,38.559052,-89.534335,Old Carlyle Rd/Brenda St
216,38.604878,-89.606837,4th St/Spring St
160,38.532462,-89.612944,Sunshine Ln
160,38.602384,-89.607896,Aviston Rd/S Clinton St
185,38.609491,-89.695897,Polk St
216,38.600923,-89.531024,S 6th St
246,38.533386,-89.164460,Woodlawn Trailer Park
246,38.609496,-89.405873,Old US Hwy 50
160,38.607254,-89.685892,W 2nd St/N Jefferson St
246,38.533595,-89.164474,Woodlawn Trailer Park
185,38.623502,-89.429805,US Hwy 50
305,38.554636,-89.539961,Main St/Prairie St
185,38.534034,-89.701787,W Illinois St/S Adams St
216,38.622863,-89.370122,W Lake Ter/W Lake Dr
160,38.558950,-89.530588,Old Carlyle Rd/A St
362,38.542293,-89.198384,Shattuc Rd
185,38.608224,-89.366362,Methodist St/7th St
185,38.563227,-89.535484,/Hanover St
160,38.632226,-89.360779,Lake Rd
246,38.530230,-89.153652,/Country View Trailer
160,38.507218,-89.622929,Park Ln
362,38.611075,-89.386567,22nd St/Fairfax St
216,38.548729,-89.614542,N Bertha St
1824,38.610703,-89.525835,N 4th St/N Walnut St
362,38.610220,-89.363804,Franklin St/5th St
362,38.610564,-89.530148,N Cherry St/Clintonian Plz
160,38.546177,-89.615746,W Alois/N Williams St
160,38.670974,-89.372168,State Rte 127
160,38.624083,-89.433385,Beckemeyer Rd
334,38.504464,-89.622798,I- 64
418,38.535057,-89.705147,W Hanover St/S Clinton St/Clinton St
160,38.606155,-89.377976,Park Dr
160,38.537091,-89.691819,N 9th St/E Birch St
185,38.521607,-89.512484,Hickory Ln
160,38.613907,-89.681826,US Highway 50 Off Ramp W
418,38.617039,-89.371488,Wayne St
246,38.527474,-89.146896,Washington Blvd/W 2nd St
362,38.531558,-89.143093,James Ave
276,38.537914,-89.691845,E Cedar St/N 9th St
216,38.614526,-89.531656,N 8th St/N Plum St
185,38.607230,-89.375382,Ridge St/14th St
216,38.515788,-89.148633,W 12th St
160,38.528736,-89.593153,Hunter Rd
160,38.553402,-89.586315,Lake Park Dr
276,38.605757,-89.436861,E 1st St/Dora St
216,38.538957,-89.644717,State Rte 161
216,38.604303,-89.535232,Germantown Rd/S Germantown Rd
160,38.617597,-89.516629,Vossclare Dr/Willow Creek/Pinewood Ln
216,38.611145,-89.379331,17th St/Fairfax St
160,38.597433,-89.627770,Rocky Ford Rd
216,38.608891,-89.681240,N Walnut St/E 4th St
276,38.611058,-89.646586,/Wheatfield Ln
160,38.720871,-89.299994,Dove Ln/Deer Trl
160,38.555274,-89.534133,N Maple St/Clinton St
160,38.553808,-89.543076,Church St/Green St
160,38.624351,-89.381862,US Hwy 50
472,38.535065,-89.698754,E Hanover St
216,38.640895,-89.687684,State Rte 160/Haas Rd
160,38.609023,-89.600848,Newport Dr/Briarwood Ln
185,38.608933,-89.358683,1st
216,38.537208,-89.301334,State Rte 161/Bassen Rd
185,38.681507,-89.554599,Saint Rose Rd/S 2nd St
305,38.617816,-89.375071,14th St
160,38.727004,-89.291412,N Emerald Rd/N Harbor Dr
246,38.536480,-89.466827,S Washington St/Carlyle Rd
276,38.613132,-89.372819,12th St/Livingston St
160,38.611774,-89.506203,Foxtail Dr/Bermuda Grass Ct
246,38.509722,-89.143640,Apple St/S Cherry St
216,38.496528,-89.603921,I- 64
185,38.536478,-89.474311,Suhl/Carlyle Rd
216,38.533396,-89.686516,Veterans Memorial Pkwy/State Rte 160
160,38.602383,-89.438170,4th St/Randall St
185,38.529184,-89.507098,Pioneer Rd/Munich Rd
246,38.548434,-89.620772,Pin Oak Dr/Apple Dr
185,38.555385,-89.538557,Munster St
185,38.556436,-89.540184,Mill St/Prairie St
185,38.536452,-89.507229,State Rte 161/Munich Rd
185,38.608173,-89.378059,Methodist St/16th St
160,38.604961,-89.706238,Clinton County Line Rd/Federal-Aid Sec 1780
276,38.625234,-89.362173,Sunrise Hill
185,38.583820,-89.291277,East Rd/Huey Rd
160,38.624109,-89.391391,US Hwy 50
246,38.610845,-89.530702,N Cherry St/N 4th St
472,38.619461,-89.533030,N 12th St/Crestview Dr
185,38.613181,-89.365133,6th St/Livingston St
246,38.503622,-89.621214,I- 64
390,38.536458,-89.464486,Carlyle Rd/N Beckemeyer Rd
246,38.548471,-89.616940,Franklin St/Apple Dr
160,38.595562,-89.507891,/Breese Rd
160,38.568048,-89.669792,/Wesclin Rd
246,38.537262,-89.464504,N Beckemeyer Rd
160,38.559492,-89.427555,Slant Rd/Maddox Rd
185,38.535583,-89.469130,Church St/S Clinton St
160,38.550081,-89.616372,St Bernard/Susan Dr
710,38.610174,-89.376790,15th St/Franklin St
160,38.551348,-89.616542,Delray St
160,38.456150,-89.643762,/State Rte 160
216,38.472801,-89.677692,/State Rte 160
160,38.525995,-89.161292,Clarida Dr/W 4th Street Rd
305,38.624116,-89.361319,Sunrise Hill
185,38.648203,-89.684753,Meddows Rd
216,38.600801,-89.527788,S 6th St/S Main St
185,38.609016,-89.372809,12th St
160,38.536252,-89.691231,E Ash St
246,38.615415,-89.531621,N 9th St/N Plum St
276,38.616087,-89.366286,Kane St
445,38.621258,-89.370773,Fayette St/Marion St
160,38.549006,-89.534116,Holly St/Lake Park Dr/S Maple
216,38.606456,-89.687069,W 1st St/N Madison St
185,38.545352,-89.613431,N Broadway St/W Hendricks
362,38.610902,-89.533075,N 4th St/Pine St
160,38.536397,-89.457774,/Carlyle Rd
276,38.607305,-89.677800,N Oak St/E 2nd St
246,38.605424,-89.688122,S Monroe St/W Broadway
160,38.610676,-89.326594,Southview Dr
185,38.612969,-89.535186,N 6th St/Mater Dei Dr
334,38.613145,-89.370284,10th St/Livingston St
185,38.505986,-89.625091,Interstate 64
160,38.587853,-89.391484,Slant Rd
185,38.624398,-89.461290,US Hwy 50/Stolletown Rd
246,38.613408,-89.524393,N Chestnut St/N 7th St
305,38.616095,-89.365186,Kane St/6th St
276,38.615515,-89.534713,N 9th St
160,38.535624,-89.441171,Gross Ln/State Rte 161
160,38.540950,-89.627945,/State Rte 161
216,38.534080,-89.694093,Aster Ave/E Illinois St
276,38.553439,-89.546712,/Molitor St
160,38.611190,-89.366371,7th St/Fairfax St
216,38.602058,-89.430062,Hummert St
1097,38.529595,-89.148713,W Broadway
185,38.605770,-89.608568,/3rd St/Meadow St
658,38.615088,-89.372969,12th St/Mulliken St
788,38.532344,-89.145801,W McCord St
185,38.611777,-89.671978,N Ash St
216,38.726125,-89.594520,Shady Oak Ln
246,38.615068,-89.380591,18th St/Mulliken St
160,38.686136,-89.372095,/State Rte 127
216,38.606002,-89.663697,Federal-Aid Sec 1780
185,38.551233,-89.619889,Delray St
160,38.644582,-89.516785,Rod and Gun Rd/Old State Rd
160,38.602010,-89.438171,Randall St
160,38.608273,-89.361171,Methodist St/3rd St
216,38.500481,-89.611875,Albers Rd/Interstate 64
276,38.540710,-89.703154,Poplar St/N Franklin St
160,38.603834,-89.431210,Scoville St/E 3rd St
499,38.535053,-89.693351,7th St/E Hanover St
216,38.610184,-89.370239,10th St/Franklin St
246,38.605127,-89.527660,S Main St/S 2nd St
160,38.612329,-89.505487,Prairie Grass Ln/Prairie Dr
185,38.608058,-89.687093,W 3rd St/N Madison St
185,38.534900,-89.193865,State Rte 161
160,38.598948,-89.372878,/State Rte 127
160,38.619442,-89.616553,Richter Rd/Old State Rd
362,38.535570,-89.693890,/N 6th St
216,38.609482,-89.375479,14th St/14th
390,38.535040,-89.701667,W Hanover St/N Adams Ave
160,38.550822,-89.544498,/Lake Park Dr/Leo St
276,38.534050,-89.704210,W Illinois St/Lincoln St
185,38.599124,-89.526920,Julia Dr
185,38.654877,-89.325240,/Eldon Hazlet State Park
160,38.728017,-89.567093,/Saint Rose Rd
160,38.536414,-89.460106,Carlyle Rd
216,38.547814,-89.686769,/State Rte 160
160,38.524084,-89.146786,W 5th St/Fayette St
216,38.617087,-89.528736,N Clinton St
362,38.609438,-89.518424,N 3rd St/N Oak St
276,38.615061,-89.376788,15th St/Mulliken St
216,38.553249,-89.581557,Lake Park Dr
445,38.535055,-89.697144,N 3rd St/E Hanover St
160,38.606883,-89.441643,Beckemeyer Ave
276,38.605767,-89.527633,S Main St
334,38.611119,-89.383673,Fairfax St/20th
185,38.543022,-89.262528,E Park Ave/Park Ave/Oak St
160,38.624939,-89.518205,Lincoln Dr/Holy Cross Ln
216,38.473343,-89.678000,State Rte 160
246,38.607032,-89.436720,Mc Kinley St/Mc Kinley
334,38.538292,-89.701795,N Adams St/N Adams/W Cedar St
160,38.616365,-89.158713,Diamond Springs Rd/US Hwy 50
246,38.548434,-89.620004,Cottonwood Ln/Apple Dr
185,38.552285,-89.552003,Lake Park Dr
305,38.624293,-89.516777,President Ct
276,38.615311,-89.527385,N 9th St/N Main St
160,38.728565,-89.281645,Thomas Ln
160,38.644867,-89.517224,Jamestown Rd/Old State Rd
160,38.561372,-89.536837,Frankfurt Ln/Becker Dr
160,38.604836,-89.430063,Hummert St/E 2nd St
185,38.600965,-89.686984,W Iowa St/State Rte 160/S Madison St
160,38.559837,-89.553844,Drive in Rd
160,38.741176,-89.372068,State Rte 127/Keyesport Rd/Keysport Rd
160,38.613206,-89.362555,4th St/Livingston St
160,38.603827,-89.432328,Randolph St/E 3rd St
160,38.728145,-89.371940,/State Rte 127
160,38.512998,-89.625788,Timber Lake Dr/Pear St
185,38.614488,-89.530598,N Cherry St/N 8th St
160,38.521098,-89.516208,Ammons Rd/Hickory Ln
185,38.607285,-89.678662,N Cedar St/E 2nd St
160,38.531475,-89.705118,S Clinton St
216,38.613278,-89.521297,N 7th St/N Gerdes St
305,38.542075,-89.688427,Peach St
160,38.549099,-89.538463,Munster St/Lake Park Dr
185,38.536413,-89.482873,/Carlyle Rd
160,38.611479,-89.281334,US Hwy 50
160,38.522153,-89.157858,W 7th St/Janet Dr
160,38.609027,-89.601379,Briarwood Ln
472,38.535053,-89.702814,W Hanover St/N Franklin St
216,38.601881,-89.686992,W Kentucky St/S Madison St
246,38.611812,-89.386560,22nd St/Old State Rd
160,38.737415,-89.517325,Westfall Rd/Jamestown Rd
216,38.680883,-89.236816,Teal Dr/Wood Dr
334,38.617053,-89.375464,Abbott St/14th St
305,38.610853,-89.530133,N 4th St/N Cherry St
216,38.609103,-89.433506,E Old US Hwy 50/Hwy 50 E/Elizabeth St
185,38.603048,-89.525903,S Walnut St
185,38.539124,-89.700941,E Poos Dr/W Poos Dr/N 1st St
160,38.681509,-89.236780,Lakeview Dr/Wood Dr
160,38.533706,-89.469100,S Clinton St/Zuroweste St
185,38.611899,-89.696194,New US Highway 50
160,38.624612,-89.381602,William Rd
246,38.601552,-89.681050,S Walnut St/E Iowa St
305,38.525344,-89.144385,Bond St/W 4th Street Rd
160,38.612713,-89.514446,Mason Dr
160,38.613863,-89.681783,US Hwy 50
216,38.517041,-89.695717,Interstate 64
216,38.558995,-89.532280,Old Carlyle Rd
160,38.535239,-89.667989,/State Rte 161
160,38.567856,-89.560679,Wesclin Rd
185,38.536827,-89.700801,N Railway St/W Birch St/E Birch St
160,38.551997,-89.542713,/Sycamore St
390,38.532861,-89.154041,W McCord St
160,38.639739,-89.359319,Lake Rd
216,38.568307,-89.611864,Aviston Rd/Wesclin Rd
160,38.530694,-89.686354,Bailey Rd
185,38.605081,-89.700808,Federal-Aid Sec 1780
160,38.606460,-89.656967,/Crestview Ln
276,38.534052,-89.705140,W Illinois St/S Clinton St
185,38.609221,-89.372809,12th St/Washington St
160,38.605354,-89.690283,W Broadway
216,38.556328,-89.197934,Shattuc Rd
216,38.606354,-89.359820,South St/Lakeway Dr
362,38.600162,-89.681070,/E Wisconsin St
185,38.608230,-89.365136,Methodist St/6th St
185,38.611945,-89.630018,Federal-Aid Sec 1780
552,38.603091,-89.682230,W Indiana St/S Main St/E Indiana St
160,38.606064,-89.442741,Railroad St/Carter Rd
216,38.561624,-89.532044,North
305,38.534085,-89.693387,E Illinois St/7th St
160,38.606696,-89.695356,Tyler St/W 2nd St
276,38.606082,-89.435891,/Louis St
160,38.551311,-89.618669,Bradford Dr/Delray St
160,38.554314,-89.612097,Aviston Rd/Court Rd
160,38.535873,-89.343454,/State Rte 161
185,38.610289,-89.684101,Creekside Dr
276,38.612146,-89.370272,10th St/Jefferson St
246,38.593834,-89.610535,Catalpa St/Markus St
160,38.621333,-89.507137,US Hwy 50
658,38.532282,-89.145223,W McCord St/Penn Ave
526,38.535039,-89.694618,5th St/E Hanover St
160,38.588682,-89.521255,/Co Rd 980 E
216,38.537634,-89.265121,W 4th St/S Maple St
185,38.614252,-89.524410,N 8th St/N Chestnut St
472,38.616074,-89.370310,Kane St/10th St
160,38.536398,-89.458691,Wilshire Dr/Carlyle Rd
185,38.478381,-89.679120,Walnut St/E Walnut St/S 2nd/2nd St
216,38.559324,-89.531739,B St
160,38.536382,-89.455428,Carlyle Rd
160,38.602894,-89.427438,E 4th Stree
160,38.619729,-89.553782,US Hwy 50/Saint Rose Rd
276,38.487307,-89.593276,I- 64
160,38.557089,-89.686933,State Rte 160
185,38.609497,-89.687131,N Madison St
305,38.615066,-89.378092,16th St/Mulliken St
276,38.607930,-89.610122,Crimson
305,38.610002,-89.392177,Old US Hwy 50
736,38.617736,-89.372993,12th St
216,38.625038,-89.372929,12th St/US Hwy 50
246,38.602296,-89.684717,W Kentucky St/S Adams St
216,38.612140,-89.372831,12th St/Jefferson St
334,38.625600,-89.372923,12th St
334,38.507997,-89.630477,I- 64
160,38.611028,-89.290906,US Hwy 50/Huey Rd
246,38.610185,-89.368947,9th St/Franklin St
185,38.605311,-89.691724,W Broadway
160,38.523977,-89.691911,Haselhorst Rd
185,38.553246,-89.593145,Grassy Branch Rd
305,38.553912,-89.546720,Church St/Church/Molitor St
185,38.536472,-89.231390,/State Rte 161/Bethal Rd
185,38.611138,-89.541312,N 4th St
160,38.539077,-89.693952,N 6th St/Marilyn Dr
216,38.610398,-89.518395,N 4th St/N Oak St
216,38.618590,-89.371832,11th St/Randolph St
246,38.602257,-89.440979,4th St/Maddux St
246,38.609199,-89.379340,17th St/Washington St
160,38.533695,-89.468007,S Illinois St/Zuroweste St
185,38.536258,-89.691817,N 9th St/E Ash St
185,38.629178,-89.362119,Marina Rd/Lake Rd
472,38.534021,-89.698707,E Illinois St
472,38.529488,-89.146978,Washington Blvd/W Broadway
216,38.610495,-89.520873,N 4th St/N Haag St
216,38.540625,-89.686635,State Rte 160
216,38.620454,-89.360317,Sunrise Hill
185,38.537676,-89.464495,Sherman Dr/N Beckemeyer Rd
160,38.606825,-89.428918,Harper
185,38.536944,-89.469122,Lincoln St/S Clinton St
185,38.533234,-89.704335,S Lincoln St/W Indiana St
160,38.609886,-89.667584,Grant Ct/Galen Dr
362,38.552232,-89.550329,Lake Park Dr
160,38.603140,-89.607898,S Clinton St
246,38.599862,-89.525908,S 7th St/S Walnut St
216,38.551791,-89.535256,Hanover St/Sycamore St
305,38.608348,-89.695285,Tyler St/Polk St
185,38.617601,-89.376751,15th St
185,38.628905,-89.364332,Resort Dr/William Rd
160,38.535916,-89.144265,Gilmore St
246,38.606979,-89.436717,Mc Kinley/Beckemeyer Ave
160,38.611123,-89.540862,N 4th St
160,38.615054,-89.381907,/19th St
185,38.546981,-89.615631,N Williams St/Memorial Dr
216,38.606152,-89.526240,S 1st St/S Walnut St
160,38.733868,-89.515680,4th St/Main St
362,38.617954,-89.365307,6th St/Deer Circle Dr/6th
499,38.612149,-89.368996,9th St/Jefferson St
185,38.527409,-89.145511,S Pullen Blvd/W 2nd St/W 2nd
185,38.554967,-89.197971,/Shattuc Rd
276,38.534051,-89.700610,W Illinois St/S Railway St/E Illinois St
160,38.609263,-89.361172,3rd St/Washington St
185,38.623506,-89.429510,US Hwy 50
276,38.625232,-89.362099,Sunrise Hill
160,38.608742,-89.607995,Logan St/Clinton St
160,38.612588,-89.690891,US Hwy 50
216,38.624329,-89.518213,Lincoln Dr/President Ct
160,38.537640,-89.259210,S Pine St/E 4th St
160,38.541499,-89.700974,Joan Dr/N 1st St
160,38.606233,-89.534639,Carlyle Rd
160,38.540983,-89.627842,State Rte 161
276,38.608206,-89.375521,Methodist St/14th St
185,38.614428,-89.528749,N 8th St/N Clinton St
160,38.537112,-89.705174,Clinton St/W Birch St
185,38.562739,-89.535480,Hanover St/Birch Ln
305,38.610393,-89.606732,Spring St/Oak St
160,38.536321,-89.498056,/Co Rd 1030 E
185,38.604880,-89.605771,4th St/Page St
160,38.606703,-89.290995,North St/Collins St
216,38.617067,-89.380617,Abbott St/18th St
185,38.597168,-89.563716,Breese Rd
185,38.605718,-89.604479,Clement St/3rd St
160,38.541769,-89.156722,Jolliff Bridge Rd
160,38.528680,-89.171572,Deerwood Park
276,38.533032,-89.156985,W McCord St/Jolliff Bridge Rd
246,38.614400,-89.527405,N 8th St/N Main St
185,38.555151,-89.686772,Harpstrite Dr/James Ct
246,38.609219,-89.367666,Washington St/8th St
160,38.644704,-89.659982,/Sportsmen Rd
216,38.559089,-89.535457,Hanover St/Old Carlyle Rd
216,38.533213,-89.700600,S Railway St/W Indiana St
160,38.534400,-89.349367,State Rte 161/Posey Rd
216,38.651620,-89.357423,Willow Ct/Oak Dr
305,38.533148,-89.156982,Jolliff Bridge Rd
216,38.611170,-89.370257,10th St/Fairfax St
246,38.510114,-89.619486,E Main St/Plum St
160,38.551903,-89.689127,Larkspur Dr/Lilac Dr
276,38.546203,-89.613398,W Alois/N Broadway St
160,38.700118,-89.555107,Saint Rose Rd
160,38.601892,-89.432412,5th St
185,38.539212,-89.472908,North St
216,38.612134,-89.375492,14th St/Jefferson St
246,38.503941,-89.621229,Interstate 64
216,38.621278,-89.530471,Sunrise Ct
160,38.608859,-89.361172,3rd St
579,38.611177,-89.368963,9th St/Fairfax St
216,38.605778,-89.608800,/3rd St
305,38.611382,-89.383658,Old State Rd/20th
185,38.609721,-89.687133,State Rte 160/N Creek Xing
160,38.608191,-89.379351,17th St/Methodist St
839,38.532328,-89.145549,/W McCord St
185,38.527411,-89.145565,S Pullen Blvd/W 2nd St/W 2nd
185,38.602358,-89.678546,E Kentucky St/S Cedar St
160,38.527663,-89.705090,Clinton County Line Rd
160,38.536477,-89.474841,Carlyle Rd
246,38.533625,-89.167625,W McCord St
160,38.603918,-89.607889,5th St/S Clinton St/Clinton St
185,38.610806,-89.601926,Rosewood Ln/Bradford Ave
160,38.542122,-89.689573,Peach St/Rose Ct
185,38.726980,-89.291987,N Harbor Dr
160,38.612159,-89.359954,Jefferson St/2nd St
185,38.536478,-89.474616,Carlyle Rd
160,38.610359,-89.642390,/Federal-Aid Sec 1780
160,38.612178,-89.507225,Koch Ln
216,38.554665,-89.541001,Main St/Locust St
246,38.607151,-89.527571,N Broadway/N Main St
276,38.607009,-89.435899,Louis St/Beckemeyer Ave
160,38.534045,-89.354774,State Rte 161
160,38.517080,-89.148156,S Brookside Ave
216,38.605764,-89.435896,E 1st St/Louis St
418,38.607253,-89.681185,N Walnut St/E 2nd St
160,38.517201,-89.148152,S Brookside Ave
160,38.727415,-89.291422,N Emerald Rd/Walcott Rd
185,38.694134,-89.237089,Boulder Marina Rd
160,38.535595,-89.470279,Church St/S A St
160,38.629523,-89.525800,Jamestown Rd/Regency Ln
160,38.588457,-89.521202,Co Rd 980 E
1278,38.610792,-89.527401,N 4th St/N Main St
160,38.534237,-89.688450,E Illinois St/Veterans Memorial Pkwy
160,38.606694,-89.614809,W 2nd St
185,38.553000,-89.545610,Walnut St/West St
185,38.617078,-89.513738,Willow Creek
160,38.516174,-89.148194,S Brookside Ave
185,38.606454,-89.431189,Scoville St
160,38.709543,-89.297829,Oak Dr/Timber Ln
185,38.602813,-89.685724,W Indiana St/S Jefferson St
246,38.516391,-89.667767,Interstate 64
185,38.601111,-89.530536,S Cherry St
839,38.532394,-89.146384,W McCord St
216,38.619396,-89.370232,Montgomery St
185,38.611303,-89.682458,N Main St
160,38.574691,-89.369455,State Rte 127
276,38.542470,-89.704529,Christopher Ln/Call Ct/Hillside Dr
160,38.544483,-89.610510,E Dwight/N Hill St
160,38.552056,-89.547495,Lake Park Dr/Sycamore St
216,38.530838,-89.156128,Adrienne Dr/W Broadway
305,38.553681,-89.538541,Munster St/Church St
160,38.703099,-89.578394,Spanker Branch Rd
185,38.603020,-89.532014,S 4th St/S Plum St
160,38.614093,-89.374217,13th St/Clinton St
390,38.535558,-89.692863,N 8th St/
216,38.607233,-89.374234,Ridge St/13th St
334,38.609422,-89.517306,N 3rd St/N Mine St
185,38.542119,-89.698963,Westminster Pl/Kathy Ln/Marcia Blvd
160,38.568233,-89.618259,Wesclin Rd
160,38.594634,-89.425266,Highline Rd
216,38.611023,-89.599839,E Brook Dr
160,38.629636,-89.361550,Resort Dr/Lake Rd
276,38.611150,-89.380633,Fairfax St/18th St
160,38.614861,-89.650018,/Crackerneck Rd
160,38.707660,-89.498796,Popeye Rd
276,38.608686,-89.363815,Railroad/5th
390,38.618801,-89.519976,Km Ct
276,38.603210,-89.440993,3rd St/Maddux St
362,38.536468,-89.465578,Short St/Carlyle Rd
216,38.612531,-89.682513,N Creek Xing/N Main St
160,38.616611,-89.149795,US Hwy 50/Jolliff Bridge Rd
185,38.583044,-89.608027,Aviston Rd/Highline Rd
418,38.534045,-89.697605,E Illinois St/S 3rd St
160,38.611906,-89.696889,New US Highway 50
160,38.617047,-89.381778,Abbott St/19th St
216,38.608110,-89.669342,E 3rd St
160,38.605932,-89.666833,E Broadway
216,38.622727,-89.370530,W Lake Ter
160,38.543212,-89.619242,W State Rte 161/N Charles St
160,38.625387,-89.461301,Stolletown Rd
216,38.608840,-89.346447,Valley Vw/Lake Vista Dr
160,38.710225,-89.300101,Acorn Dr/Finch Ln
185,38.544604,-89.691735,Willowbrook Dr
160,38.611956,-89.637524,/Federal-Aid Sec 1780
334,38.541287,-89.686646,State Rte 160
185,38.538284,-89.694984,E Cedar St/N Hickory St
160,38.612081,-89.581585,E Harrison St
216,38.625111,-89.523258,Holy Cross Ln
216,38.622937,-89.427309,Old State Rd
160,38.681627,-89.236786,Lakeview Dr/Canvasback Dr
246,38.607617,-89.693293,W 3rd St/N Harrison St
334,38.561061,-89.535466,Hanover St
160,38.668555,-89.372186,Hazlet Park Rd/State Rte 127
160,38.596691,-89.544581,Breese Rd
185,38.572134,-89.212617,Felton Rd
160,38.609255,-89.362536,4th St/Washington St
160,38.556414,-89.541614,Mill St
246,38.527529,-89.147863,W 2nd St/S Brookside Ave
160,38.587039,-89.197076,/Shattuc Rd
216,38.537237,-89.465617,Short St/Eldon St
276,38.617715,-89.521789,Vossclare Dr/Prairie Ct
246,38.548565,-89.616938,Franklin St/St Bernard
658,38.627959,-89.371599,Governors Run/William Rd
216,38.624878,-89.516358,Holy Cross Ln
160,38.607504,-89.607975,1st St/Clinton St
185,38.602814,-89.434694,E 4th St/Christina St
216,38.526383,-89.145550,S Pullen Blvd/W 3rd St
216,38.561203,-89.531790,B St
216,38.541264,-89.688446,Marsha Ct/Jillian Dr
185,38.605077,-89.700962,Federal-Aid Sec 1780/N Lincoln St
216,38.542339,-89.618901,Opossum Ln/Brendel Dr
246,38.540744,-89.686637,State Rte 160
185,38.608135,-89.668673,E 3rd St
160,38.617653,-89.516498,Pinewood Ln
160,38.604877,-89.605591,4th St
160,38.601979,-89.532023,S 5th St/S Plum St/S Plum
160,38.579739,-89.386693,/Slate Dr/Sandstone Dr
160,38.534137,-89.177584,/W McCord St/State Rte 161
216,38.549266,-89.612156,N Commercial St/Debra Dr
216,38.529317,-89.144020,Clinmar Pl/W Broadway
160,38.602949,-89.427398,Murray St
185,38.516514,-89.686411,State Rte 160/I- 64
334,38.611171,-89.367687,Fairfax St/8th St
185,38.545675,-89.699775,Corinne Ln
160,38.615923,-89.211759,US Hwy 50
276,38.612098,-89.606697,Spring St/Harrison St
185,38.586709,-89.374631,Bellflower Ln/Red Clover Ln
472,38.552761,-89.538519,Walnut St/Munster St
246,38.532969,-89.164727,Clinton Rd/Outer Dr
185,38.556378,-89.540491,Mill St
362,38.536846,-89.697154,N 3rd St/E Birch St
160,38.611176,-89.687137,State Rte 160/US Highway 50 Off Ramp E
160,38.601939,-89.433501,Elizabeth St
736,38.529692,-89.150296,W Broadway
246,38.610739,-89.599516,E Brook Dr
216,38.530574,-89.145391,N Pullen Blvd/W Noleman St
160,38.510116,-89.628236,W Main St/Circle Dr
216,38.606333,-89.531901,S 1st St/S Plum St
185,38.610156,-89.357052,Franklin St
216,38.548647,-89.686778,State Rte 160/Lakeshore Dr
246,38.533303,-89.165603,W McCord St
276,38.537918,-89.692883,N 8th St/E Cedar St
246,38.533260,-89.164467,W McCord St/Woodlawn Trailer Park
185,38.541441,-89.263805,Broadway St/N Broadway/Main St
246,38.615037,-89.400801,Flat Branch Rd
160,38.608980,-89.675859,N Dates St/E 4th St
305,38.618665,-89.525827,N Walnut St/Jamestown Rd
246,38.511528,-89.649081,Billhartz Rd/I- 64
216,38.601115,-89.682183,W Front St/S Main St/E Front St
276,38.608382,-89.516279,N 2nd
185,38.514618,-89.150512,W 13th St/Terry St
362,38.532574,-89.148438,W McCord St
334,38.606683,-89.612319,W 2nd/2nd St
185,38.531784,-89.700733,S Railway St
390,38.563657,-89.189865,/College Rd
246,38.615108,-89.524761,N 9th St
334,38.536632,-89.464490,N Beckemeyer Rd
472,38.529402,-89.145330,Pullen Blvd/W Broadway
160,38.580614,-89.496113,/Highline Rd
216,38.533702,-89.168993,W McCord St
216,38.605851,-89.427392,E 1st St/Murray St
160,38.673944,-89.554383,Saint Rose Rd
160,38.698640,-89.555064,Iberg Rd/Saint Rose Rd/Goodings Ford Rd
185,38.609596,-89.488375,/Old US Hwy 50
185,38.624842,-89.514830,Holy Cross Ln
160,38.555384,-89.534152,Clinton St
160,38.529146,-89.469211,Pioneer Rd/Dale Dr
216,38.618347,-89.519327,Lakeview Dr/Km Ct
160,38.524751,-89.445900,Covington Rd
362,38.616271,-89.528764,N 10th St/N Clinton St
276,38.616239,-89.517029,N 11th St
160,38.607770,-89.326920,Edna Mae Ln
160,38.542669,-89.686670,State Rte 160
185,38.541122,-89.263833,Broadway St/S Broadway/1st St
185,38.607643,-89.692283,N Van Buren St/W 3rd St
160,38.601014,-89.683434,W Front St/S Washington St
185,38.540738,-89.704208,W Oak St
276,38.554591,-89.538551,Munster St/Main St
160,38.537586,-89.698275,N 2nd St/E Maple St
185,38.601841,-89.438920,5th St
185,38.618088,-89.525829,N Walnut St
185,38.546231,-89.612263,W Alois/N Commercial St
160,38.622235,-89.530930,US Hwy 50
185,38.555436,-89.538561,Munster St/Clinton St
305,38.613115,-89.375482,14th St/Livingston St
246,38.554606,-89.535312,Hanover St
216,38.537350,-89.688157,N 12th St
160,38.539876,-89.695894,Thouvenot Ln/Audrey Ln
246,38.524089,-89.147944,W 5th St/S Brookside Ave
160,38.608256,-89.359890,Methodist St/Lakeway Dr
390,38.617027,-89.370294,10th St/Wayne St
160,38.628277,-89.363289,Co Rd 1840 E/William Rd/Lake Rd
216,38.551851,-89.546670,Lake Park Dr
246,38.599981,-89.527810,S 7th St/S Main St
276,38.515795,-89.148775,W 12th St
160,38.540842,-89.688441,Joyce Ln/Jillian Dr
185,38.601808,-89.438994,Randall St
160,38.544848,-89.698451,Matthew Dr
185,38.608786,-89.344095,Lake Vista Dr
362,38.610195,-89.367703,Franklin St/8th St
216,38.608973,-89.367660,8th St
185,38.610179,-89.380639,Franklin St/18th St
246,38.500167,-89.611744,I- 64
216,38.606395,-89.683553,N Washington St/W 1st St
499,38.611674,-89.527381,N 5th St/N Main St
185,38.616590,-89.361612,/Lake Rd/Sunrise Hill
216,38.623467,-89.516834,Liberty Ct
185,38.610632,-89.295440,US Hwy 50
216,38.608210,-89.367666,Methodist St/8th St
246,38.608212,-89.374232,Methodist St/13th St
216,38.618609,-89.524161,Pioneer Ct
160,38.607492,-89.233617,Louis St/Ferrin Rd
185,38.534625,-89.466794,S Washington St/Parker St
160,38.511691,-89.149219,S Brookside Ave/Brookside Park
160,38.726844,-89.371921,State Rte 127
160,38.608890,-89.533153,N 2nd St/N Pine St
160,38.612072,-89.612732,Old US Hwy 50/N Hull
305,38.610808,-89.387808,23rd St
418,38.617859,-89.366302,Deer Circle Dr
445,38.535067,-89.699337,N 1st St/E Hanover St
160,38.651008,-89.346230,Circle Dr
185,38.605166,-89.430058,/Hummert St
276,38.600547,-89.682169,S Main St/E Ohio St
160,38.546199,-89.686751,State Rte 160/Country Lakes Dr
160,38.629800,-89.553787,Maple Dr/Saint Rose Rd
216,38.612488,-89.524395,N 6th St/N Chestnut St
362,38.610599,-89.387277,Sunset Ct
160,38.609999,-89.412001,Saint Peter St
185,38.697596,-89.372051,State Rte 127/Marydale Rd
216,38.478377,-89.680439,Walnut St/Mill St/E Walnut/S Mill St
160,38.536482,-89.468028,S Illinois St/Carlyle Rd
246,38.547062,-89.620363,Park Ave
185,38.505156,-89.611919,Albers Rd
185,38.532561,-89.699362,S 1st St
160,38.608580,-89.233607,Frederick St/Ferrin Rd
216,38.603643,-89.535231,S Germantown Rd
276,38.507614,-89.630464,Fall Rd
185,38.610393,-89.669368,White Oak St
216,38.600920,-89.530937,S 6th St
160,38.607955,-89.523220,N Elm St
160,38.454143,-89.676930,Wittenburg Rd/Cancan Rd
160,38.629681,-89.525803,Jamestown Rd
160,38.626084,-89.553813,Saint Rose Rd
160,38.549007,-89.534180,Lake Park Dr/S Maple
216,38.605813,-89.671324,E Broadway/N Ash St
710,38.617033,-89.371992,Abbott St
160,38.552071,-89.281797,/Hugo Rd
246,38.608259,-89.363814,Methodist St/5th St/5th
334,38.615995,-89.524729,N 10th St
246,38.532659,-89.150080,W McCord St
160,38.538865,-89.692876,N 8th St/
160,38.536682,-89.521974,/State Rte 161
160,38.569473,-89.363338,/State Rte 127
185,38.537632,-89.266023,W 4th St/Lyle Dr
160,38.605340,-89.690562,W Broadway
185,38.535160,-89.461936,Walnut St/Cherry St
160,38.616707,-89.678664,Linden Ln/Pine Lake Dr
185,38.607545,-89.615755,Royal Ct/W 1st St
160,38.606825,-89.442721,Carter Rd
305,38.606451,-89.680079,E 1st St/N Locust St
160,38.561743,-89.533481,North
185,38.654920,-89.553834,Lee Rd/Saint Rose Rd
334,38.613100,-89.376750,15th St/Livingston St
160,38.536225,-89.489709,/State Rte 161
362,38.616070,-89.376765,Kane St/15th St
631,38.619286,-89.372996,12th St/
160,38.605063,-89.440986,W 1st St/Maddux St
246,38.537235,-89.464505,Eldon St/N Beckemeyer Rd
710,38.532431,-89.145213,Penn Ave
362,38.536486,-89.470260,Carlyle Rd/S A St
216,38.645426,-89.414739,Varel Rd
216,38.613245,-89.520406,N 7th St/Merlin Ct
246,38.606086,-89.437167,Dora
276,38.534032,-89.704344,W Illinois St/S Lincoln St
216,38.734580,-89.514511,3rd St/Pierron Rd/Locust St
185,38.615107,-89.687872,Commerce Dr
185,38.546979,-89.615740,N Williams St/Memorial Dr
246,38.507891,-89.622922,Park Ln/Parish Ln
160,38.572202,-89.612184,Aviston Rd
160,38.618127,-89.363098,/Sunrise Hill
160,38.525870,-89.705076,Clinton County Line Rd
185,38.602994,-89.525907,S Walnut St
526,38.616190,-89.525882,N Walnut St/N 10th St
160,38.605109,-89.699617,Federal-Aid Sec 1780/W Broadway
160,38.532455,-89.612294,/Albers Rd
246,38.614884,-89.518980,N 9th St/Meadowlark Ln
216,38.532599,-89.148876,W McCord St
160,38.552079,-89.281344,/Hugo Rd
552,38.532532,-89.147721,W McCord St/Aaron Pkwy/N Brooks Ave
160,38.608859,-89.687125,W 4th St/N Madison St
246,38.536447,-89.463554,Carlyle Rd
160,38.611139,-89.389067,24th St
185,38.610267,-89.332606,/US Hwy 50
160,38.596760,-89.525929,S Walnut St
246,38.612615,-89.528766,N 6th St/N Clinton St
185,38.529098,-89.686481,State Rte 160
276,38.624152,-89.400760,Flat Branch Rd
185,38.612007,-89.623190,Old US Hwy 50/Louis Ln
246,38.533613,-89.167422,W McCord St
276,38.615766,-89.518972,N 10th St/Meadowlark Ln
362,38.602851,-89.430066,E 4th St/Hummert St
216,38.552820,-89.539917,Walnut St/Prairie St
216,38.593833,-89.611384,Catalpa St/Bernadine St
185,38.613491,-89.682516,New US Highway 50
246,38.553593,-89.592475,State Rte 161/Lake Park Dr
246,38.539867,-89.156797,Jolliff Bridge Rd
160,38.606168,-89.377914,Park Dr
216,38.617831,-89.525813,N Walnut St/Vossclare Dr
390,38.605527,-89.683529,N Washington St/S Washington St/W Broadway
185,38.541443,-89.262541,Main St/Oak St
305,38.610730,-89.388880,24th
185,38.536113,-89.700638,N Railway St/W Ash St/E Ash St
445,38.617031,-89.366290,Wayne St
160,38.539085,-89.695887,Thouvenot Ln/Marilyn Dr
160,38.478409,-89.677018,E Walnut St/S 4th St
185,38.539209,-89.472420,North St/Sunset Dr
185,38.528281,-89.507079,Pioneer Rd/Munich Rd
246,38.610021,-89.506437,Old US Hwy 50
160,38.541531,-89.611143,S Francis St
185,38.605800,-89.671798,E Broadway
185,38.542283,-89.686662,State Rte 160
185,38.555152,-89.686907,Harpstrite Dr/State Rte 160
160,38.535595,-89.468024,S Illinois St/Church St
710,38.532459,-89.147018,W McCord St
216,38.537559,-89.700784,N Railway St/E Maple St/W Maple St
160,38.611990,-89.625093,Old US Hwy 50/Federal-Aid Sec 1780
305,38.560641,-89.535459,Hanover St
160,38.509087,-89.595944,Red Bud Dr/
362,38.618280,-89.374200,/Slade St/13th St
160,38.606979,-89.657000,Crestview Ln/Federal-Aid Sec 1780
160,38.536628,-89.144064,Johnson St/Gilmore St
160,38.632354,-89.360777,Lake Rd
216,38.561627,-89.532232,North
246,38.533582,-89.166862,W McCord St/Watts Ln
276,38.514245,-89.148240,W 13th St/S Brookside Ave
160,38.609590,-89.553839,Drive in Rd
216,38.502727,-89.619346,I- 64
185,38.549253,-89.618767,Bradford Dr/Briarwood Ln
160,38.604237,-89.533050,S 3rd St/Westbrook Dr
305,38.561321,-89.535470,Hanover St/Becker Dr
160,38.549527,-89.531509,Park Rd
185,38.708882,-89.297838,Oak Dr
276,38.607295,-89.378057,Ridge St/16th St
160,38.536066,-89.424113,/State Rte 161
160,38.614059,-89.516388,Memorial Dr
185,38.608278,-89.668677,Galen Dr
160,38.609814,-89.691329,N Jackson St/Countryside Ln
216,38.680774,-89.554578,Blue Mound Dr/Saint Rose Rd
552,38.614110,-89.375483,14th St/Clinton St
185,38.595301,-89.372925,State Rte 127/Highline Rd
160,38.609867,-89.345846,US Hwy 50
160,38.611762,-89.530693,N 5th St/N Cherry St
160,38.495259,-89.655655,Airport Rd
185,38.607230,-89.373302,Ridge St
160,38.539505,-89.262587,E Second St/Oak St/2nd St
160,38.619293,-89.535159,Ellwood Dr/Ellwood St
552,38.614106,-89.372863,12th St/Clinton St
472,38.533943,-89.144280,Penco Ave/Kell St
185,38.601824,-89.527797,S Main St/S 5th St
160,38.649515,-89.253348,/Coles Creek Rd
160,38.602088,-89.479195,Little Prairie Rd/Hilmes Rd
418,38.531984,-89.143126,W McCord St/James Ave
160,38.541515,-89.469781,Parkview Dr
445,38.600575,-89.681079,/E Ohio St
160,38.534071,-89.694582,5th St/E Illinois St
246,38.609975,-89.504948,Old US Hwy 50
160,38.539178,-89.464961,North St
276,38.530688,-89.147755,N Brooks Ave/W Noleman St
185,38.610604,-89.523091,N 4th St/N Elm St
185,38.537207,-89.473715,Suhl Rd
216,38.558993,-89.532226,Old Carlyle Rd
216,38.557029,-89.532163,Henry St/Rose Ln
160,38.612173,-89.361203,3rd St/Jefferson St
185,38.590638,-89.196976,/Shattuc Rd
216,38.566262,-89.533379,Ash Ln
160,38.728697,-89.282160,4th St
390,38.610649,-89.524442,N 4th St/N Chestnut St
276,38.733841,-89.514614,3rd St/Main St
579,38.535044,-89.695789,S 4th St/E Hanover St
160,38.609019,-89.600119,Linden Dr/Briarwood Ln
160,38.605013,-89.291015,/Collins St
185,38.604850,-89.603445,4th St/S Cleveland St/S Cleveland
185,38.544416,-89.614589,N Bertha St/W Dwight
160,38.607654,-89.553857,Drive in Rd
160,38.650982,-89.346982,N Circle Dr/Circle Dr
246,38.609558,-89.605654,Page St/Elm St
160,38.555424,-89.537654,Market St/Clinton St
276,38.611261,-89.607983,N Clinton/Clinton St/Maple St
305,38.609105,-89.438095,Old US Hwy 50/Randall St/Beckemeyer Rd/Old US Hwy 50 W
246,38.651588,-89.358986,Oak Dr/Walnut Dr
246,38.540243,-89.156787,Monroe St/Jolliff Bridge Rd
216,38.606535,-89.434698,Railroad St/Christina
418,38.617049,-89.371561,Abbott St/Wayne St
160,38.607317,-89.359751,Ridge St/Ridge
185,38.551391,-89.686828,Tanbark Dr/State Rte 160
472,38.533943,-89.144136,Kell St
160,38.536426,-89.461755,Walnut St/Carlyle Rd
185,38.612093,-89.692776,US Highway 50 Off Ramp E/New US Highway 50
160,38.615054,-89.381860,Mulliken St
185,38.651953,-89.349194,Edgewater Beach Dr/Marina Dr
160,38.594819,-89.475213,Wintermann Rd/Highline Rd
160,38.524024,-89.162474,W 7th St/Murray Dr
276,38.600364,-89.527801,S Main St
305,38.606214,-89.528978,S 1st St/S Clinton St
216,38.534035,-89.175512,W McCord St
185,38.611901,-89.696462,New US Highway 50
185,38.547107,-89.690386,Bluegill Dr
185,38.630247,-89.362921,Resort Dr
160,38.609328,-89.417182,Old US Hwy 50
160,38.726698,-89.518780,Surge Rd/Jamestown Rd
160,38.626168,-89.687419,Otter Rd/State Rte 160
276,38.605908,-89.596180,Adams St/Kues Ave
160,38.611149,-89.612736,W Redwood Dr/N Hull
305,38.620610,-89.529955,N 13th St/Sunrise Ln
305,38.535598,-89.689363,N 11th St
418,38.610294,-89.515403,N 4th St/Memorial Dr
185,38.726096,-89.596032,Shady Oak Ln
334,38.611122,-89.383651,Fairfax St/20th St
216,38.539113,-89.702794,W Poos Dr/N Franklin St
276,38.543321,-89.612301,S Commercial St/N Commercial St/W State Rte 161/E State Rte 161
362,38.608759,-89.528872,N 2nd St/N Clinton St
185,38.605926,-89.620179,W 3rd St/Westmore Dr
160,38.479062,-89.581817,I- 64
185,38.547927,-89.615585,/N Williams St
334,38.605706,-89.675005,E Broadway
160,38.522715,-89.247442,W 10th Street Rd
160,38.682635,-89.435152,Peek Rd
160,38.608875,-89.682968,W 4th St
160,38.556200,-89.533318,Mill St
246,38.537913,-89.689371,E Cedar St/N 11th St
246,38.539922,-89.700948,W Oak St/E Oak St/N 1st St
246,38.560087,-89.531774,C St/B St
216,38.534647,-89.470273,S A St/Parker St
160,38.539394,-89.633233,State Rte 161
185,38.611452,-89.552047,N 4th St
160,38.504896,-89.611921,Albers Rd
362,38.529894,-89.153541,Country View Trailer/W Broadway
160,38.620829,-89.507130,Koch Ln
216,38.607888,-89.436755,Wilson St/Mc Kinley St/Mc Kinley
160,38.538692,-89.694995,N Hickory St
216,38.533548,-89.166271,W McCord St
216,38.510273,-89.143620,W 17th St/S Cherry St
160,38.630101,-89.529993,Saint James Ln
216,38.606863,-89.535232,Germantown Rd
185,38.479371,-89.679149,E Center St/2nd St
185,38.604658,-89.676113,King Oak St
185,38.605303,-89.662999,Rolling Hills Dr
160,38.587291,-89.372977,State Rte 127/Red Clover Ln
185,38.625275,-89.525997,Holy Cross Ln
246,38.603697,-89.439631,Lincoln St
246,38.602121,-89.430062,Hummert St
160,38.723015,-89.297759,Fox Dr/
334,38.515827,-89.149346,Beacham St/W 12th St
216,38.611148,-89.375070,Fairfax St
216,38.559031,-89.533316,Old Carlyle Rd/Cindy St
185,38.619110,-89.555755,US Hwy 50
390,38.535064,-89.693877,N 6th St/E Hanover St
185,38.520774,-89.143364,S Cherry St
160,38.604917,-89.616624,W 4th/Eagle Dr
160,38.536391,-89.456701,Kaskaskia Dr/Carlyle Rd
160,38.601745,-89.442084,5th St
185,38.544463,-89.611746,/E Dwight
160,38.615288,-89.594143,US Hwy 50/Schumacher Rd
160,38.613313,-89.398148,Chase Creek Dr/Pembrooke Ct
185,38.715850,-89.569405,/Fricker Rd
160,38.613162,-89.366413,7th St/Livingston St
160,38.605063,-89.701666,Federal-Aid Sec 1780
160,38.615749,-89.207905,/US Hwy 50
160,38.618739,-89.369025,Randolph
185,38.605234,-89.694462,Harmony Ln/W Broadway
276,38.530133,-89.154736,Buena Vista Ter/W Broadway
160,38.600998,-89.442699,Bartelso Rd
276,38.619863,-89.525215,Apple Ln
160,38.597549,-89.525928,S Walnut St/Pinetree Dr
185,38.609289,-89.465928,Old US Hwy 50//Hilmes Rd
160,38.555493,-89.542061,Elm St
160,38.612800,-89.342093,/Carlyle Dam Rd
185,38.533703,-89.471663,Zuroweste St/Maridonna Dr
160,38.602778,-89.687954,W Indiana St
185,38.697494,-89.514592,Rosewood Ln/Goodings Ford Rd
185,38.539931,-89.703195,W Oak St/N Franklin St
334,38.536122,-89.698260,N 2nd St/E Ash St
185,38.605758,-89.607922,3rd St/Clinton St
418,38.540770,-89.698939,E Poos Dr
160,38.577639,-89.535140,Germantown Rd
390,38.535590,-89.690586,/N 10th St
185,38.552643,-89.686851,State Rte 160
216,38.607745,-89.530303,N Cherry St/N 1st St
216,38.552844,-89.540957,Walnut St/Locust St
185,38.606784,-89.669019,E 1st St/N Magnolia St
276,38.605813,-89.612557,3rd St/S Hull
160,38.615615,-89.612733,US Hwy 50/Russland Rd
185,38.523985,-89.143326,W 5th St
526,38.603720,-89.685760,S Jefferson St/Missouri St
160,38.532330,-89.612942,Sunrise Ln/Sunshine Ln
185,38.617113,-89.684236,Frontage Rd
552,38.621758,-89.372960,12th St
160,38.536261,-89.690581,N 10th St
710,38.620073,-89.372983,12th St
334,38.610226,-89.359941,Franklin St/2nd St
216,38.611982,-89.610751,Poplar St
185,38.553549,-89.590889,Lake Park Dr
185,38.602830,-89.433510,E 4th St/Elizabeth St
305,38.506065,-89.625848,I- 64
216,38.613911,-89.517822,King Arthur Ct
160,38.446275,-89.664980,/Wittenburg Rd
160,38.723112,-89.300588,Fox Dr
160,38.558978,-89.531180,Old Carlyle Rd
216,38.503791,-89.620935,Interstate 64
418,38.611573,-89.524428,N 5th St/N Chestnut St
185,38.534212,-89.164468,Woodlawn Trailer Park
334,38.609950,-89.521529,Gerdes St/Geerdes St
185,38.611197,-89.362536,4th St/Fairfax St
185,38.610048,-89.507240,Old US Hwy 50/Koch Ln
605,38.620737,-89.372975,12th St/Marion St
160,38.530713,-89.686486,Bailey Rd/State Rte 160
160,38.582783,-89.572317,Linden Grove Rd/Highline Rd
185,38.536124,-89.441137,Gross Ln
185,38.615053,-89.673261,US Hwy 50/New US Highway 50
185,38.526413,-89.147879,W 3rd St/S Brookside Ave
160,38.615537,-89.608112,US Hwy 50
216,38.607015,-89.435262,Beckemeyer Ave/Sharp St
160,38.521561,-89.149102,W 7th St
276,38.637555,-89.372706,State Rte 127
246,38.533269,-89.164730,W McCord St
216,38.613222,-89.519634,N 7th St/King Arthur Ct
216,38.501758,-89.616941,I- 64
160,38.540281,-89.468264,N Clinton St
160,38.701842,-89.223309,/Clark Cemetery
185,38.545381,-89.612239,N Commercial St/W Hendricks
499,38.538642,-89.688413,Pine St/Jillian Dr
160,38.604983,-89.442704,Carter St/W 1st St
185,38.559291,-89.163225,/College Rd
160,38.536076,-89.422848,State Rte 161
185,38.614093,-89.379334,17th St/Clinton St
160,38.581536,-89.277094,Hammel Rd
185,38.604980,-89.597260,E 4th St/Park Ave
185,38.610186,-89.684334,Creekside Dr
390,38.605757,-89.673430,E Broadway/Pin Oak St
185,38.609228,-89.461249,Old US Hwy 50/Stolletown Rd
185,38.624578,-89.378827,US Hwy 50
185,38.544424,-89.614084,/W Dwight
160,38.707163,-89.294091,Oak Dr/Kate Ln
185,38.518773,-89.506975,Munich Rd
472,38.604626,-89.684749,W Illinois St
216,38.613131,-89.368187,Livingston St
276,38.612072,-89.605619,Harrison St/Page St
216,38.610201,-89.365084,Franklin St/6th St
160,38.598429,-89.526949,Julia Dr
216,38.509468,-89.619476,Plum St/Maple St
246,38.611766,-89.682487,N Main St
185,38.525131,-89.162422,Esther Dr/Murray Dr
185,38.537203,-89.296782,State Rte 161/Monken Rd
216,38.606626,-89.607970,Clinton St/2nd St
246,38.611149,-89.375491,14th St/Fairfax St
160,38.610304,-89.706329,Clinton County Line Rd/US Hwy 50
185,38.542364,-89.686664,State Rte 160
160,38.582952,-89.583272,/Highline Rd
216,38.542782,-89.618997,Oak Tree Dr/Brendel Dr
185,38.510124,-89.622936,Park Ln/E Main St
185,38.531995,-89.612275,Albers Rd
276,38.537566,-89.699751,N 1st St/E Maple St
185,38.536262,-89.692872,N 8th St/E Ash St
216,38.554134,-89.686209,James Ct
246,38.551153,-89.688116,Tanbark Dr/Lilac Dr
276,38.535555,-89.687148,/N 13th St
276,38.616291,-89.518925,N 11th St/Meadowlark Ln
276,38.603879,-89.682237,S Main St/E Missouri St/Missouri St
276,38.551934,-89.540947,Sycamore St/Locust St
276,38.527308,-89.144067,W 2nd St/Clinmar Pl
362,38.559339,-89.197853,/Shattuc Rd
160,38.555757,-89.543786,Clinton St
362,38.609052,-89.673680,E 4th/E 4th St/Pin Oak St
334,38.536283,-89.693898,N 6th St/E Ash St
185,38.655793,-89.324003,/Eldon Hazlet State Park
160,38.520420,-89.143462,S Cherry St
216,38.530442,-89.143183,W Noleman St/James Ave
216,38.566278,-89.533970,Hermeling Ln/Ash Ln
185,38.603105,-89.683474,W Indiana St/S Washington St
160,38.741175,-89.371984,Keysport Rd
185,38.653539,-89.347695,Fisherman Dr
185,38.607063,-89.347074,Sand Ridge Rd
216,38.611163,-89.371537,11th St/Fairfax St
246,38.516101,-89.143500,S Cherry St
160,38.605241,-89.616732,W 4th/Eagle Dr
216,38.544448,-89.612264,N Commercial St/W Dwight/E Dwight
246,38.532767,-89.152283,/W McCord St
185,38.601766,-89.525902,S Walnut St/S 5th St
160,38.604139,-89.440978,W 2nd St/Maddux St
160,38.713115,-89.536971,Ellwood Rd
216,38.614451,-89.520712,N 9th
160,38.555446,-89.156375,Jolliff Bridge Rd
160,38.441906,-89.669192,/River Rd
445,38.605555,-89.681167,E Broadway/N Walnut St/S Walnut St
160,38.653554,-89.348431,Sunset Dr
160,38.536180,-89.413437,State Rte 161
160,38.609017,-89.599646,Briarwood Ln
160,38.536619,-89.156886,Jolliff Bridge Rd
185,38.611331,-89.685177,N Creek Xing/Branch Ct
160,38.561072,-89.683541,Mary Irene Rd
216,38.608773,-89.367653,Railroad St/8th St
160,38.549038,-89.535204,/Hanover St/Lake Park Dr
160,38.615535,-89.607940,US Hwy 50
160,38.521619,-89.143365,W 7th St
185,38.550086,-89.615703,Susan Dr/Delray St
276,38.611209,-89.543338,N 4th St
1046,38.529615,-89.149033,W Broadway
160,38.548392,-89.602685,Lake Park Dr
246,38.607670,-89.527548,N 1st St/N Main St
216,38.599416,-89.682177,S Main St
160,38.701229,-89.372030,State Rte 127
185,38.605816,-89.430047,E 1st St/Hummert St
160,38.539607,-89.611278,/Heimann Rd
390,38.612596,-89.367705,8th St
185,38.605293,-89.692644,W Broadway
160,38.605130,-89.439652,Lincoln St/W 1st St
160,38.609671,-89.494239,Old US Hwy 50
160,38.544410,-89.614941,/W Dwight
185,38.533614,-89.471918,Zuroweste St
185,38.542452,-89.700072,Country Ln/Marcia Blvd
305,38.547961,-89.614555,N Bertha St
160,38.604866,-89.427408,Murray St/E 2nd St
246,38.610226,-89.361215,Franklin St/3rd St
276,38.619212,-89.522966,Pioneer Ct/N Elm St
246,38.555362,-89.541022,Railroad St/Locust St
160,38.708781,-89.294672,Oak Dr/Meg Ln
160,38.534624,-89.468004,S Illinois St/Parker St
185,38.605172,-89.529017,S Clinton St/S 2nd St
185,38.601782,-89.434676,5th St
160,38.604061,-89.442701,Carter St/W 2nd St
160,38.605354,-89.439656,/Lincoln St
246,38.607231,-89.375184,Ridge St
185,38.612051,-89.598586,E Harrison St
216,38.625419,-89.525911,Holy Cross Ln/Jamestown Rd
185,38.614089,-89.378060,16th St/Clinton St
246,38.527485,-89.147063,Washington Blvd/W 2nd St
334,38.620171,-89.371826,Monroe St/11th St
276,38.542476,-89.703525,Joan Dr/Hillside Dr
216,38.556968,-89.535349,Hanover St
552,38.610611,-89.386578,22nd St/Sunset Ct
216,38.539898,-89.689947,Jessica Dr
160,38.582824,-89.630791,Wellen Rd/Highline Rd
216,38.607222,-89.372813,12th St/Ridge St
160,38.603672,-89.384918,Joey Ln
185,38.538712,-89.695821,Walnut Ave
185,38.624891,-89.516839,Holy Cross Ln
216,38.534124,-89.164454,Woodlawn Trailer Park
160,38.616290,-89.530534,N Cherry St/N 10th St
160,38.608914,-89.680164,E 4th St/N Locust St
160,38.542690,-89.686670,State Rte 160
216,38.525706,-89.156002,/W 4th Street Rd
579,38.617044,-89.374210,Abbott St/13th St
160,38.601922,-89.439654,Lincoln
216,38.533175,-89.161995,W McCord St
334,38.530045,-89.154446,/W Broadway
216,38.617727,-89.360852,Sunrise Hill
216,38.509941,-89.638199,Interstate 64
185,38.503482,-89.620936,I- 64
185,38.611224,-89.671161,Timberline Dr/N Burr Oak St
160,38.645742,-89.372504,State Rte 127
246,38.610176,-89.371522,Franklin St/11th St
185,38.532270,-89.701822,S Adams St/W Missouri St
185,38.536523,-89.263848,W 5th St/Broadway St
160,38.547673,-89.263676,Huey Rd
185,38.498361,-89.611842,/Albers Rd
160,38.618025,-89.535118,Mater Dei Dr/Ellwood St
216,38.608872,-89.367656,8th St
305,38.541276,-89.687947,Marsha Ct
185,38.609363,-89.516314,N 3rd St
160,38.536407,-89.459699,Carlyle Rd
185,38.610169,-89.357547,Franklin St
216,38.708740,-89.298174,Oak Dr/Lou Ln
160,38.566723,-89.265289,Huey Rd
246,38.616187,-89.361889,Lake Rd
160,38.536110,-89.498445,State Rte 161
276,38.612070,-89.605468,Harrison St
160,38.554085,-89.156433,/Jolliff Bridge Rd
1020,38.605531,-89.682273,E Broadway/S Main St/W Broadway/N Main St
160,38.534037,-89.703063,W Illinois St/S Franklin St
246,38.553784,-89.542024,Church St/Elm St
160,38.539186,-89.466757,North St/Weber Dr
305,38.620010,-89.522947,Lakeview Dr/N Elm St/Tower Ct
185,38.540188,-89.630274,State Rte 161
160,38.608166,-89.380505,Methodist St/18th St
185,38.557084,-89.535353,Hanover St/Henry St
246,38.614085,-89.376763,15th St/Clinton St
160,38.607564,-89.695860,W 3rd St
216,38.535581,-89.466807,Church St/S Washington St
160,38.537147,-89.458701,Wilshire Dr
185,38.604112,-89.529051,S 3rd St/S Clinton St
305,38.617750,-89.522979,Vossclare Dr/N Elm St
160,38.608664,-89.361172,3rd St
160,38.612082,-89.504986,Prairie Dr
246,38.611701,-89.609693,Walnut Cir
305,38.529903,-89.155299,/Oak Park Dr E
160,38.635692,-89.525893,Jamestown Rd
246,38.515883,-89.150450,Terry St/W 12th St
276,38.552716,-89.535292,Hanover St/Walnut St
216,38.508885,-89.143655,W Peach St/S Cherry St
246,38.612090,-89.609852,Harrison St
160,38.515765,-89.148212,S Brookside Ave/W 12th St
160,38.607657,-89.669025,N Magnolia St/E 2nd St
185,38.611202,-89.361238,3rd St/Fairfax St
160,38.536115,-89.640047,Winter Rd
160,38.544096,-89.698877,Mandy Ln
160,38.600983,-89.685680,W Iowa St/S Jefferson St
276,38.511367,-89.648314,I- 64
160,38.565400,-89.456760,Bartelso Rd/Old Carlyle Rd/Co Rd 1350 E
185,38.613619,-89.681542,New US Highway 50
160,38.632990,-89.360771,Lake Rd
185,38.536842,-89.472559,Lincoln St/S C St
246,38.616658,-89.518964,Meadowlark Ln/N 11th St
185,38.560852,-89.533977,Sunflower Ct
185,38.533233,-89.471667,Maridonna Dr
160,38.549026,-89.532986,Holly St/East St
246,38.608181,-89.672012,N Ash St
185,38.613199,-89.518977,N 7th St
216,38.510260,-89.620289,Hickory/Hickory St
160,38.680149,-89.236780,Lakeview Dr/Mallard Dr
216,38.478403,-89.677831,3rd St/E Walnut St
472,38.627955,-89.372900,State Rte 127/William Rd
185,38.605232,-89.437098,W 1st St/Dora St
160,38.615091,-89.369164,9th St/Mullikin/Mulliken St
185,38.505680,-89.625097,I- 64
160,38.542029,-89.612311,S Commercial St/E Johnson St
160,38.606446,-89.410293,1st Street Rd/Pipeline Rd
160,38.537126,-89.457710,Devonshire Dr
160,38.609684,-89.495262,Old US Hwy 50/Chopper Rd
160,38.601828,-89.439927,5th St
160,38.514388,-89.150502,W 13th St
334,38.537915,-89.688424,E Cedar St/Jillian Dr
418,38.606463,-89.678643,E 1st St/N Cedar St
185,38.600920,-89.530563,S 6th St
216,38.606703,-89.377980,Park Dr
246,38.609235,-89.363815,Washington St/5th St
160,38.535679,-89.514153,/State Rte 161
160,38.569671,-89.163884,Felton Rd
276,38.559958,-89.534013,Sunrise Dr
185,38.537600,-89.464494,N Beckemeyer Rd
216,38.530616,-89.146262,W Noleman St
160,38.606583,-89.603423,S Cleveland St/2nd St
276,38.605165,-89.688113,S Monroe St
160,38.544472,-89.611087,N Francis St/E Dwight
216,38.601835,-89.687599,W Kentucky St
362,38.617053,-89.375075,Abbott St/14th St
160,38.617059,-89.379320,17th St/Abbott St
305,38.548475,-89.613378,N Broadway St
445,38.618551,-89.530556,N Cherry St/N 11th St
216,38.532477,-89.149633,W McCord St
160,38.508931,-89.144622,Jefferson St/W Peach St
276,38.541382,-89.695908,Thouvenot Ln/Plum Ln
246,38.550180,-89.618684,Bradford Dr/Rosewood Ln
185,38.501886,-89.616328,/Interstate 64
160,38.537103,-89.691422,E Birch St
185,38.612029,-89.615468,Old US Hwy 50
185,38.635516,-89.372760,/State Rte 127
160,38.612140,-89.585323,E Harrison St
216,38.554845,-89.546682,Main St
216,38.561628,-89.532337,North
160,38.525788,-89.157746,Janet Dr/W 4th Street Rd
160,38.711051,-89.292777,Sailboat Dr
418,38.612546,-89.363840,5th St
160,38.665219,-89.195074,Shattuc Rd
185,38.608825,-89.358684,1st
362,38.617039,-89.365186,6th St/Wayne St
246,38.538626,-89.701811,N Adams
334,38.536820,-89.464494,N Beckemeyer Rd
160,38.612011,-89.612797,Old US Hwy 50/Russland Rd
246,38.534640,-89.469121,S Clinton St/Parker St
160,38.616343,-89.443633,Nehrt Rd
216,38.524190,-89.151951,W 5th St/Geary St
216,38.725273,-89.595091,Meadow View Rd
552,38.603854,-89.684754,Missouri St/S Adams St
160,38.628572,-89.526740,Tudor Ln
160,38.604963,-89.612548,4th St/S Hull
160,38.610256,-89.676940,N Maple St
276,38.616057,-89.374203,Kane St/13th St
185,38.552056,-89.544504,Leo St/Sycamore St
445,38.606484,-89.677830,E 1st St/N Oak St
160,38.733949,-89.519050,/Keyesport Rd/Main St/Jamestown Rd
160,38.540470,-89.686632,State Rte 160
216,38.611330,-89.383337,Old State Rd
185,38.623656,-89.429425,Old State Rd
160,38.618108,-89.521790,Prairie Ct
216,38.518575,-89.705024,Clinton County Line Rd/I- 64
160,38.537840,-89.488890,Red Fox Rd
276,38.536474,-89.471419,S B St/Carlyle Rd
160,38.619389,-89.615272,Old State Rd
160,38.732812,-89.282221,4th St/Jennings Rd
305,38.603903,-89.680018,S Locust St/E Missouri St
334,38.556249,-89.535325,Hanover St/Mill St
185,38.731443,-89.284355,Pinnacle Rd/Pinnacle Dr
246,38.625418,-89.525898,Holy Cross Ln/Jamestown Rd
185,38.612843,-89.687164,State Rte 160/New US Highway 50
579,38.615102,-89.371571,11th St/Mulliken St
160,38.593301,-89.196903,Shattuc Rd/Sand Ridge Rd
160,38.608024,-89.428920,E Wilson Ave/Harper/Harper St
160,38.609729,-89.396145,Old US Hwy 50
160,38.541466,-89.261366,Main St/Cherry St
160,38.607526,-89.613632,Clover Ct/W 1st St
160,38.509112,-89.623851,Oak St
334,38.606479,-89.435886,Louis St/Railroad St
334,38.603137,-89.678564,E Indiana St/S Cedar St
160,38.609153,-89.453749,Old US Hwy 50
334,38.617054,-89.525846,N Walnut St
390,38.613108,-89.379333,17th St/Livingston St
160,38.510068,-89.616341,E Main St
185,38.601842,-89.438995,Randall St/5th St
160,38.632135,-89.361194,Dam West Campground Rd
305,38.533330,-89.699390,S 1st St/E Indiana St
160,38.623598,-89.616477,Maple Ct
185,38.611328,-89.547515,N 4th St
246,38.733128,-89.514638,4th St/3rd St
246,38.608109,-89.671980,N Ash St/E 3rd St
160,38.553657,-89.535297,Hanover St/Church St/Hanover
246,38.611702,-89.528755,N 5th St/N Clinton St
445,38.614358,-89.525892,N 8th St/N Walnut/N Walnut St
185,38.556141,-89.531014,Laurie
216,38.609679,-89.681271,N Walnut St/E 5th St
362,38.610178,-89.374216,Franklin St/13th St
246,38.553592,-89.592439,State Rte 161/Lake Park Dr
216,38.614187,-89.523013,N 8th St/N Elm St
216,38.623003,-89.517062,Patriot Dr
160,38.563527,-89.186881,College Rd
160,38.611939,-89.572612,E Harrison St/Linden Grove Rd
246,38.558807,-89.612094,Aviston Rd/Purple Martin Dr
499,38.533026,-89.145176,Penn Ave
185,38.599345,-89.682177,S Main St
160,38.612438,-89.692085,US Hwy 50/US Highway 50 on Ramp W
185,38.550628,-89.612152,Aviston Rd
185,38.605091,-89.526267,S Walnut St/S 2nd St
185,38.553651,-89.593323,Court Rd/Grassy Branch Rd
445,38.525325,-89.143304,W 4th Street Rd
276,38.608773,-89.363623,Railroad
160,38.689464,-89.480540,Goodings Ford Rd
334,38.601589,-89.679944,S Locust St/E Iowa St
185,38.612438,-89.523062,N 6th St/N Elm St
160,38.613519,-89.399365,Pembrooke Ct
160,38.585638,-89.479277,Little Prairie Rd
185,38.622169,-89.522279,/US Highway 50 Off Ramp W
160,38.609542,-89.403044,Old US Hwy 50
160,38.502284,-89.686132,State Rte 160
185,38.608174,-89.376840,15th St/Methodist St
418,38.605639,-89.677818,E Broadway/S Oak St/N Oak St
276,38.611222,-89.543741,N 4th St
305,38.536841,-89.699749,N 1st St/E Birch St
160,38.509759,-89.144597,Apple St/Jefferson St
160,38.479771,-89.681562,E Center St
160,38.536391,-89.456737,Carlyle Rd
216,38.542116,-89.698195,Peach Ln/Marcia Blvd
160,38.606246,-89.382255,Corey Rd/Kathy Ln
160,38.602893,-89.427504,E 4th St
246,38.619495,-89.534070,N 12th St/Sunset Dr
246,38.616035,-89.380593,Kane St/18th St
160,38.537136,-89.277868,Koeling Rd/State Rte 161
246,38.610521,-89.521545,N 4th St/Geerdes St
216,38.612524,-89.525920,N 6th St/N Walnut St
160,38.609693,-89.680216,E 6th St/E 5th St
160,38.632939,-89.360772,Lake Rd
305,38.533801,-89.170762,W McCord St
160,38.739435,-89.278605,W Davis St/1st St
246,38.618413,-89.525850,N Walnut St/N 11th St
160,38.612046,-89.601750,E Harrison St
305,38.610485,-89.506311,Bermuda Grass Ct
605,38.610137,-89.385124,Franklin St/21st St
185,38.651584,-89.360487,Oak Dr/Elm Dr
160,38.623373,-89.361292,Carlyle Dam Rd/Sunrise Hill
246,38.551822,-89.536645,Sycamore St/Westfall St
334,38.552210,-89.549590,Lake Park Dr
305,38.522766,-89.146802,Fayette St/W 6th St
1433,38.611619,-89.525934,N 5th St/N Walnut St
185,38.556215,-89.534238,/Mill St
216,38.723760,-89.404308,Elliot Lake Rd
185,38.615333,-89.517109,N 10th St
246,38.551248,-89.619648,Delray St
160,38.510649,-89.143642,S Cherry St
185,38.613456,-89.682516,US Highway 50 on Ramp E
305,38.611164,-89.683587,Branch Ct
160,38.612540,-89.362542,4th St
160,38.627578,-89.526613,Victorian Ln
160,38.621890,-89.520294,US Highway 50 Off Ramp W
276,38.607302,-89.676168,Parkview Dr/E 2nd St
185,38.681501,-89.553486,East St/S 2nd St
160,38.624812,-89.513626,Holy Cross Ln
246,38.612331,-89.682506,N Main St
160,38.536406,-89.459583,Carlyle Rd
160,38.567913,-89.705605,Country Line Rd/Wesclin Rd
185,38.520648,-89.143400,S Cherry St
246,38.606684,-89.527563,S Broadway/S Main St
185,38.595294,-89.373367,Highline Rd
160,38.615640,-89.186743,US Hwy 50/Main St
160,38.539613,-89.609943,Heimann Rd
839,38.616052,-89.373013,Kane St/12th St
216,38.621476,-89.522964,US Highway 50 on Ramp E
246,38.611640,-89.553802,Saint Rose Rd
246,38.536845,-89.698280,N 2nd St/E Birch St
160,38.648786,-89.253378,Coles Creek Rd
185,38.537309,-89.471402,S B St
185,38.535254,-89.661980,/State Rte 161
216,38.534040,-89.175598,W McCord St
276,38.607548,-89.610348,W 1st St
160,38.609229,-89.366393,Washington St/7th St
658,38.616052,-89.371585,Kane St/11th St
160,38.729320,-89.287526,Adair Rd
276,38.536450,-89.463803,Carlyle Rd
276,38.617028,-89.367746,Wayne St/8th St
305,38.616052,-89.375479,Kane St/14th St
160,38.547443,-89.607513,Meadowlark Dr
160,38.521543,-89.148804,W 7th St
246,38.614104,-89.521289,N 8th St/N Gerdes St
185,38.535166,-89.463210,Cherry St
160,38.740734,-89.274316,W Hays St/Main St
160,38.601896,-89.432327,5th St/Randolph St
246,38.616308,-89.531598,N 10th St/N Plum St
185,38.627385,-89.525774,Jamestown Rd
362,38.613530,-89.528758,N Clinton St/N 7th St
246,38.542998,-89.261265,E Park Ave/Cherry St
185,38.616037,-89.378099,Kane St/16th St
246,38.607220,-89.528945,N Broadway/N Clinton St
216,38.611093,-89.539525,N 4th St
216,38.609662,-89.682394,E 5th St/N Main St
185,38.609011,-89.674973,E 4th St/N Olive St
334,38.609680,-89.523135,N 3rd St/N Elm St
605,38.620176,-89.372553,Monroe St
160,38.607521,-89.620245,W 1st St/Westmore Dr
216,38.561315,-89.531792,B St
185,38.616822,-89.514931,Willow Creek
160,38.605056,-89.701960,Federal-Aid Sec 1780
276,38.623470,-89.517048,Liberty Ct
216,38.608872,-89.685881,W 4th St/N Jefferson St
160,38.569690,-89.164209,Felton Rd
216,38.528691,-89.160010,Randolph Dr/Ruth Ann Dr
246,38.606969,-89.437082,Beckemeyer Ave/Dora St
185,38.608879,-89.682385,W 4th St/E 4th St/N Main St
160,38.608120,-89.678650,N Cedar St/E 3rd St
216,38.608700,-89.525853,N Walnut St/N 2nd St
390,38.611201,-89.363841,5th St/Fairfax St
216,38.536136,-89.705160,Clinton St
160,38.619436,-89.531953,N 12th St/Meadowview Dr
216,38.536104,-89.705159,W Ash St/Clinton St
276,38.533276,-89.164907,W McCord St/Clinton Rd
160,38.536363,-89.452942,/Carlyle Rd
276,38.541326,-89.704518,Call Ct
216,38.605742,-89.526250,/S Walnut St
160,38.511310,-89.150139,Brookside Park
362,38.535565,-89.686539,State Rte 160/N 13th St
472,38.525807,-89.143323,S Beech St
185,38.606634,-89.608573,Meadow St/2nd St
160,38.609328,-89.667285,Galen Dr/Emily Ln
160,38.612051,-89.598349,E Harrison St
160,38.538684,-89.698287,N Second
276,38.536972,-89.471413,S B St/Lincoln St
305,38.610343,-89.694387,Tyler St/N Harrison St
160,38.503512,-89.153119,Wilkin Rd
185,38.612110,-89.696465,US Hwy 50
216,38.527944,-89.158922,Bruce Ct
276,38.607929,-89.435916,Wilson St/Louis St
246,38.603125,-89.680007,S Locust St/E Indiana St
334,38.508276,-89.630479,Interstate 64
160,38.609714,-89.677868,E 5th St/N Oak St
160,38.539225,-89.636636,State Rte 161
160,38.539420,-89.633082,State Rte 161
160,38.605978,-89.616759,W 3rd/Eagle Dr
185,38.537116,-89.702771,N Franklin St/W Birch St
160,38.606940,-89.598550,E 1st St/Lohman Dr
160,38.708798,-89.297363,Oak Dr/Mitz Ln
216,38.604974,-89.596108,E 4th St
160,38.650989,-89.346711,Circle Dr
185,38.520874,-89.143333,S Cherry St
334,38.611076,-89.538978,N 4th St
160,38.561070,-89.682476,Mary Irene Rd
160,38.701105,-89.222588,/Boulder Rd
185,38.609841,-89.670257,N Spruce St/E 5th St
579,38.611150,-89.372830,12th St/Fairfax St
160,38.522750,-89.144427,W 6th St/Bond St
216,38.553036,-89.546706,Walnut St/Molitor St
246,38.542111,-89.696895,Roland Ave/Peach Ln
276,38.611145,-89.374229,Fairfax St/13th St
160,38.569647,-89.163371,/Felton Rd
276,38.550355,-89.612157,N Commercial St/Aviston Rd
305,38.616575,-89.534684,N 10th St
185,38.600961,-89.532020,S 6th St/S Plum St/S Plum
276,38.555505,-89.539964,Clinton St/Prairie St
185,38.608664,-89.524519,N 2nd St/N Chestnut St
185,38.535157,-89.688132,N 12th St/E Hanover St
160,38.629114,-89.366194,William Rd
160,38.734584,-89.515360,4th St/Locust St
216,38.516516,-89.672450,I- 64
160,38.681630,-89.236771,Canvasback Dr
160,38.549181,-89.616372,St Bernard/Debra Dr
185,38.680820,-89.237693,Harbor Dr
246,38.564116,-89.197688,Shattuc Rd/College Rd
160,38.611167,-89.610727,Poplar St/W Redwood Dr
246,38.614394,-89.519642,N 9th
276,38.601933,-89.684689,W Kentucky St/S Adams St
362,38.535055,-89.696813,E Hanover St
276,38.618454,-89.519356,Lakeview Dr
160,38.612167,-89.366418,Jefferson St/7th St
246,38.516133,-89.667764,I- 64
185,38.528655,-89.159002,Bruce Ct/Ruth Ann Dr
160,38.614387,-89.687205,State Rte 160
445,38.532089,-89.143556,W McCord St
160,38.605801,-89.380163,17th St
160,38.623286,-89.611742,Mary Ln
160,38.623503,-89.608116,Louise Ln
216,38.547084,-89.605001,E State Rte 161
246,38.541429,-89.688485,Jillian Dr
185,38.612921,-89.682513,N Main St
160,38.577695,-89.612103,Aviston Rd
160,38.513242,-89.150494,Brookside Park
160,38.615118,-89.366372,Mulliken St
216,38.653802,-89.326455,Eldon Hazlet State Park
160,38.536849,-89.701757,N Adams St/N Adams Ave/W Birch St
160,38.617072,-89.362593,Sunrise Hill
160,38.557961,-89.535390,Hanover St/Linda St
160,38.604381,-89.291010,N Railroad St/Collins St
185,38.608090,-89.615759,Royal Ct
185,38.556999,-89.530959,Henry St
160,38.629030,-89.366639,Eula Mae Pkwy/William Rd
185,38.624853,-89.515312,Holy Cross Ln
160,38.523826,-89.580665,Monterey Rd
216,38.612301,-89.683891,Brook Cir/N Creek Xing
185,38.524024,-89.143795,W 5th St/Delores St
160,38.528549,-89.352899,State Rte 127
185,38.536475,-89.469115,S Clinton St/Carlyle Rd
160,38.554733,-89.543091,Green St/Main St
305,38.605592,-89.680037,S Locust St/E Broadway/N Locust St
160,38.604017,-89.526343,S 3rd St/S Walnut St
160,38.598244,-89.372887,State Rte 127
185,38.535690,-89.461751,Walnut St
160,38.602134,-89.533218,S Pine St
185,38.608066,-89.684816,W 3rd St/N Adams St
418,38.609973,-89.536054,N 3rd St
185,38.516765,-89.686420,State Rte 160/Interstate 64
185,38.541443,-89.264134,Main St/N Maple Aly
160,38.726447,-89.556065,Watertower Rd/Saint Rose Rd
216,38.614088,-89.380584,Clinton St/18th St
160,38.546246,-89.691754,Country Lakes Dr/Willowbrook Dr
305,38.615403,-89.518955,N 10th St/Meadowlark Ln
185,38.518857,-89.705026,Clinton County Line Rd/
305,38.488848,-89.595142,/I- 64
160,38.532336,-89.612293,Albers Rd/Sunrise Ln
160,38.734558,-89.515597,4th St/
472,38.619383,-89.372540,Montgomery St
216,38.600846,-89.682155,S Main St
216,38.614141,-89.368986,9th St/Clinton St
216,38.611897,-89.272453,US Hwy 50/Hughes Rd
472,38.602326,-89.682193,W Kentucky St/E Kentucky St/S Main St
334,38.613476,-89.527389,N 7th St/N Main St
305,38.534093,-89.693112,E Illinois St/Bluebell Ln
658,38.620938,-89.372965,/12th St
160,38.511269,-89.149225,Brookside Park
216,38.605319,-89.691242,W Broadway
160,38.607161,-89.509282,Grant Dr
160,38.536379,-89.455246,Carlyle Rd
390,38.607268,-89.680121,E 2nd St/N Locust St
246,38.555553,-89.541009,Clinton St/Locust St
390,38.536118,-89.697161,N 3rd St/E Ash St
276,38.606255,-89.435881,Louis St
160,38.605850,-89.382259,Corey Rd
305,38.601181,-89.681143,S Walnut St/E Front St
276,38.533198,-89.160299,W McCord St
160,38.561058,-89.686998,State Rte 160/Mary Irene Rd
160,38.604143,-89.530438,S 3rd St/S Cherry St
246,38.617053,-89.527373,N Main St
362,38.541471,-89.686649,State Rte 160
185,38.608485,-89.518427,N 2nd St/N Oak St
185,38.537559,-89.464494,N Beckemeyer Rd
276,38.610383,-89.605633,Page St/Oak St
390,38.614147,-89.362819,4th St/Clinton St
362,38.606437,-89.681185,E 1st St/N Walnut St
185,38.609847,-89.669371,White Oak St/E 5th St
246,38.607221,-89.376728,Ridge St
418,38.605536,-89.684784,N Adams St/S Adams St/W Broadway
246,38.603159,-89.677751,S Oak St/E Indiana St
418,38.551874,-89.538503,Munster St/Sycamore St
185,38.607086,-89.433491,Beckemeyer Ave/Elizabeth St
160,38.602781,-89.687619,W Indiana St
160,38.550872,-89.445607,/Oil Field Rd
160,38.517923,-89.149257,W 10th Street Rd/Beacham St
185,38.650394,-89.360529,Elm Dr
160,38.583143,-89.593679,Grassy Branch Rd/Highline Rd
185,38.522755,-89.145628,S Pullen Blvd/W 6th St
216,38.613210,-89.363853,5th St/Livingston St
185,38.607442,-89.442738,Carter Rd
160,38.605033,-89.612549,S Hull
160,38.582607,-89.564755,Highline Rd
472,38.535074,-89.704181,W Hanover St/Lincoln St/W Hanover
185,38.613128,-89.367711,8th St/Livingston St
160,38.608016,-89.509945,Hayes Ct
185,38.542821,-89.688512,Joad Land Dr/Jillian Dr
216,38.548635,-89.687572,Lakeshore Dr/Lilac Dr
216,38.608884,-89.347350,Sand Ridge Rd/Lake Vista Dr
216,38.605757,-89.437080,Dora/Dora St
160,38.596416,-89.535234,S Germantown Rd/Breese Rd
246,38.543231,-89.618095,N Alvina St/W State Rte 161
216,38.544434,-89.613448,W Dwight/N Broadway St
185,38.553748,-89.540982,Church St/Locust St
185,38.609464,-89.407847,Old US Hwy 50
246,38.604635,-89.683517,W Illinois St/S Washington St
390,38.533233,-89.145149,Penn Ave
160,38.542326,-89.156709,Jolliff Bridge Rd
246,38.609209,-89.376779,15th St/Washington St
276,38.612139,-89.381742,Jefferson St
185,38.616643,-89.361678,Sunrise Hill
160,38.604058,-89.527718,S 3rd St/S Main St
390,38.532345,-89.156059,Adrienne Dr
216,38.616326,-89.674364,Linden Ln
160,38.539176,-89.464515,North St/N Beckemeyer Rd
334,38.621806,-89.370725,Madison Dr/Fayette St
246,38.540729,-89.700967,Poplar St/N 1st St
390,38.620472,-89.525817,US Highway 50 on Ramp E/Jamestown Rd/US Highway 50 Off Ramp E
160,38.709503,-89.297184,Anna Ln/Timber Ln
216,38.566243,-89.532605,Ash Ln
216,38.496599,-89.603548,I- 64/Interstate 64
160,38.583330,-89.553668,Drive in Rd
185,38.543254,-89.616958,N Franklin St/W State Rte 161/S Franklin St
160,38.729362,-89.282135,4th St/
216,38.609212,-89.378073,Washington St/16th St
185,38.611158,-89.381956,19th St/Fairfax St
160,38.585537,-89.442693,/Bartelso Rd
185,38.615920,-89.523001,N 10th St/N Elm St
160,38.623496,-89.430207,US Hwy 50
160,38.536187,-89.412993,State Rte 161/Kannal Hill Rd
246,38.613125,-89.374208,13th St/Livingston St
160,38.546217,-89.688829,Twin Lakes Dr/Country Lakes Dr
216,38.530499,-89.144475,W Noleman St
160,38.604680,-89.410279,Pipeline Rd
216,38.545652,-89.607547,Meadowlark Dr/E State Rte 161
185,38.477409,-89.677807,3rd St/Cherry St
160,38.511763,-89.150443,S Brookside Ave
276,38.607268,-89.683607,W 2nd St/N Washington St
216,38.553564,-89.593118,Lake Park Dr/Grassy Branch Rd
216,38.611096,-89.539705,N 4th St
246,38.545319,-89.616882,N Franklin St/W Hendricks
246,38.554572,-89.537661,Market St/Main St
160,38.602187,-89.442687,4th St/Carter St
160,38.532255,-89.705124,S Clinton St/W Missouri St
160,38.477398,-89.677061,S 4th St/Cherry St
246,38.534618,-89.144232,Penco Ave
185,38.552290,-89.552186,Lake Park Dr
160,38.707193,-89.294727,Kate Ln
160,38.653959,-89.348313,Water Tower Rd
185,38.607708,-89.528911,N Clinton St/N 1st St
160,38.535649,-89.688132,N 12th St
605,38.620272,-89.533005,Crestview Dr
305,38.608933,-89.677819,E 4th St/N Oak St
185,38.608209,-89.368969,9th St/Methodist St
185,38.615929,-89.629662,US Hwy 50
276,38.550418,-89.612155,Aviston Rd
305,38.521063,-89.514842,Shady Ln/Hickory Ln
160,38.495425,-89.621859,Airport Rd
334,38.625332,-89.361361,Co Rd 1840 E/Sunrise Hill
160,38.608014,-89.509307,Grant Dr/Hayes Ct
185,38.478372,-89.681066,E Walnut
185,38.611200,-89.365091,6th St/Fairfax St
160,38.541522,-89.689549,Rose Ct
246,38.533533,-89.166018,/W McCord St
605,38.609802,-89.527451,N 3rd St/N Main St
160,38.558907,-89.529422,Old Carlyle Rd
276,38.608695,-89.365185,Railroad/Railroad St/6th St
185,38.609194,-89.380650,Washington St/18th St
362,38.615089,-89.370315,10th St/Mulliken St
1485,38.605541,-89.685831,S Jefferson St/N Jefferson St/W Broadway
160,38.613120,-89.383615,20th St/Livingston St
216,38.513232,-89.150384,Brookside Park
526,38.608183,-89.673537,Pin Oak St/E 3rd St
160,38.521967,-89.156724,W 7th St/Westhaven Dr
390,38.682908,-89.554615,S 1st St/Saint Rose Rd
185,38.609843,-89.668960,E 5th St
185,38.615517,-89.535182,Mater Dei Dr/N 9th St/Ellwood St
334,38.602335,-89.681095,E Kentucky St/S Walnut St
160,38.635192,-89.158487,Brink Rd/Diamond Springs Rd
160,38.617311,-89.682593,Frontage Rd/Old Trenton Rd
418,38.614150,-89.363315,Clinton St/Lake Rd
160,38.616672,-89.679906,Linden Ln
305,38.542486,-89.198376,Shattuc Rd/Hugo Rd
160,38.546089,-89.593122,/Hunter Rd
185,38.609244,-89.365101,Washington St/6th St
160,38.561731,-89.533416,North St/North
160,38.617566,-89.517535,Vossclare Dr
185,38.622995,-89.516799,Patriot Dr
160,38.612059,-89.603475,Harrison St/N Cleveland St/E Harrison St
185,38.588090,-89.372984,State Rte 127/Slant Rd
160,38.609865,-89.394376,Old US Hwy 50
216,38.525373,-89.145591,S Pullen Blvd/W 4th Street Rd
305,38.613098,-89.380589,18th St/Livingston St
185,38.608093,-89.681210,N Walnut St/E 3rd St
216,38.606704,-89.378113,Hill Dr
216,38.556229,-89.532138,Rose Ln/Laurie Ct
160,38.601922,-89.442693,Bartelso Rd/Carter St
160,38.518002,-89.150604,/W 10th Street Rd
334,38.606681,-89.612586,S Hull/W 2nd
185,38.610384,-89.682406,N Main St
160,38.557513,-89.532181,Rose Ln
216,38.535147,-89.688496,Veterans Memorial Pkwy/E Hanover St
216,38.609790,-89.673643,E 5th St/Pin Oak St
185,38.607129,-89.526028,N Walnut St/N Broadway
160,38.712801,-89.328789,Hopewell Rd/Emerald Rd
216,38.608047,-89.685868,W 3rd St/N Jefferson St
216,38.612135,-89.374213,Jefferson St/13th St
160,38.612185,-89.389037,24th St/Old State Rd
160,38.613582,-89.530690,N Cherry St/N 7th St
472,38.614289,-89.525898,N 8th St/N Walnut/N Walnut St
736,38.604616,-89.685802,W Illinois St/S Jefferson St
185,38.686568,-89.372093,/State Rte 127
160,38.604624,-89.289627,East St/N Railroad St
160,38.605832,-89.700059,1st St
160,38.605962,-89.531929,S Plum St/Carlyle Rd
216,38.615052,-89.522997,N Elm St/N 9th St
362,38.610175,-89.379335,Franklin St/17th St
246,38.555450,-89.541028,Locust St
216,38.610363,-89.603433,Oak St/N Cleveland St
246,38.542834,-89.687683,Joad Land Dr
160,38.540701,-89.688422,Jillian Dr
246,38.555491,-89.541007,Locust St
216,38.553952,-89.547945,Church
216,38.601440,-89.684687,W Iowa St/S Adams St
276,38.607273,-89.684821,N Adams St/W 2nd St
160,38.604970,-89.595060,E 4th St
246,38.619695,-89.519698,Lakeview Dr
185,38.534052,-89.612970,Sunshine Ln
185,38.610051,-89.507437,Old US Hwy 50
216,38.607472,-89.347230,Sand Ridge Rd
185,38.539459,-89.198566,Shattuc Rd
160,38.536110,-89.649265,State Rte 161/Billhartz Rd
185,38.550674,-89.544221,Lake Park Dr
160,38.607319,-89.359606,Lakeway Dr/Ridge
390,38.610164,-89.375496,Franklin St/14th St
160,38.623800,-89.612910,Russland Rd
160,38.543300,-89.338749,/Rakers Rd
276,38.607946,-89.435286,Wilson St/Sharp St
160,38.678673,-89.554498,Saint Rose Rd
390,38.612109,-89.607991,Harrison St/Clinton St
445,38.526390,-89.143212,W 3rd St
160,38.516373,-89.148187,S Brookside Ave
216,38.623538,-89.370045,W Lake Dr
160,38.617579,-89.518089,Vossclare Dr
185,38.603811,-89.433506,E 3rd St/Elizabeth St
216,38.552732,-89.536661,Walnut St/Westfall St
160,38.622230,-89.530778,US Hwy 50/US Highway 50 on Ramp W
334,38.612356,-89.365098,6th St
160,38.521632,-89.144444,W 7th St/Bond St
160,38.524101,-89.705063,Clinton County Line Rd
160,38.602011,-89.439654,Lincoln St
246,38.606961,-89.530329,N Cherry St/S Cherry St
160,38.601893,-89.431778,5th St
334,38.603100,-89.681124,S Walnut St/E Indiana St
246,38.537447,-89.464498,N Beckemeyer Rd
216,38.527405,-89.145422,Pullen Blvd/W 2nd St
276,38.602322,-89.683485,W Kentucky St/S Washington St
216,38.619158,-89.369584,Deer Circle Dr
160,38.545341,-89.614576,N Bertha St/W Hendricks
390,38.610827,-89.528782,N 4th St/N Clinton St
160,38.614900,-89.368976,9th St
160,38.593347,-89.609285,Chad St
185,38.510337,-89.144568,W 17th St/Jefferson St
216,38.542452,-89.700264,Country Ln
390,38.535083,-89.691809,S 9th St/N 9th St/E Hanover St
185,38.608859,-89.531801,N 2nd St/N Plum St
185,38.609110,-89.444921,Old US Hwy 50
276,38.533958,-89.173904,W McCord St
160,38.707843,-89.294676,Meg Ln
160,38.623959,-89.419183,William Rd
185,38.553412,-89.646557,/Court Rd
160,38.480334,-89.680439,/Mill St/Church St
445,38.532351,-89.144377,Penco Ave
185,38.552302,-89.552554,Lake Park Dr
160,38.547661,-89.156587,Linn St/Jolliff Bridge Rd
160,38.679182,-89.446607,Stolletown Rd
246,38.546972,-89.616840,Park Ave/N Franklin
185,38.607979,-89.433464,Wilson St/Elizabeth St
160,38.601850,-89.439655,Lincoln/5th St
160,38.610259,-89.326594,US Hwy 50/Southview Dr/Edna Mae Ln
334,38.542067,-89.686658,State Rte 160
216,38.559994,-89.535447,Hanover St/Sunrise Dr
362,38.608439,-89.517283,N 2nd/N 2nd St/N Mine St
160,38.516094,-89.148198,S Brookside Ave
526,38.618584,-89.372980,12th St/Randolph St
216,38.654397,-89.324384,Eldon Hazlet State Park
185,38.613576,-89.681841,US Highway 50 on Ramp E/New US Highway 50
276,38.618185,-89.530559,N Cherry St
160,38.612687,-89.690737,US Highway 50 on Ramp W
185,38.610115,-89.686238,Creekside Dr/N Creek Xing
246,38.607219,-89.376921,Ridge St
445,38.539958,-89.688448,Jessica Dr/Jillian Dr
160,38.614241,-89.516401,Memorial Dr
216,38.550179,-89.620587,Rosewood Ln
160,38.628119,-89.525783,Jamestown Rd
246,38.613130,-89.371546,11th St/Livingston St
246,38.540098,-89.156791,Jolliff Bridge Rd
160,38.609695,-89.679960,E 5th St/N Locust St
334,38.547621,-89.616934,Franklin St//Cherry Dr
160,38.566356,-89.535251,Hanover St/Ash Ln/S Germantown Rd
160,38.550868,-89.446159,/Oil Field Rd/Kohrmann Rd
160,38.728223,-89.281776,Thomas Ln
246,38.614911,-89.519607,N 9th St/N 9th
305,38.606282,-89.530383,S 1st St/S Cherry St
216,38.550376,-89.540966,Locust St
216,38.556167,-89.531665,Laurie/Laurie Ct
160,38.511622,-89.148253,S Brookside Ave
160,38.609540,-89.403227,Old US Hwy 50
185,38.613119,-89.687170,US Hwy 50/State Rte 160
246,38.607230,-89.373993,Ridge St
185,38.604943,-89.603374,4th St/S Cleveland St/S Cleveland
185,38.606929,-89.597235,E 1st St/Park Ave
185,38.543213,-89.618969,W State Rte 161/Brendel Dr
160,38.617592,-89.518617,Vossclare Dr
160,38.701830,-89.222569,Clark Cemetery/Boulder Rd
160,38.621961,-89.531270,US Hwy 50/US Highway 50 Off Ramp E
185,38.604950,-89.602783,4th St
334,38.615067,-89.375482,14th St/Mulliken St
160,38.601848,-89.439522,5th St
160,38.608720,-89.362625,4th St/Railroad
390,38.521715,-89.514842,Shady Ln
160,38.707621,-89.298199,Lou Ln
276,38.537573,-89.694981,N Hickory St/E Maple St
160,38.541236,-89.690895,Joyce Ln
526,38.610107,-89.386584,Franklin St/22nd St/24th St
390,38.622649,-89.372972,12th St/Bond
160,38.727222,-89.537404,Surge Rd/Ellwood Rd
305,38.515689,-89.147014,Dover St/W 12th St
185,38.610248,-89.513859,N 4th St
472,38.610026,-89.536014,N 3rd St
185,38.608084,-89.683590,W 3rd St/N Washington St
246,38.541398,-89.696912,Roland Ave/Plum Ln
216,38.741993,-89.273910,Keyesport Rd/Main St
216,38.614137,-89.368395,Clinton St
160,38.597578,-89.527197,Pinetree Dr
160,38.601037,-89.684743,W Iowa St/S Adams St
160,38.606797,-89.531903,S Broadway/S Plum St
185,38.611207,-89.600047,/E Brook Dr
216,38.530599,-89.145914,W Noleman St
334,38.609729,-89.524498,N 3rd St/N Chestnut St
185,38.501558,-89.616425,I- 64
362,38.536955,-89.470230,Lincoln St/S A St
160,38.619164,-89.535129,Ellwood St
813,38.529525,-89.147747,N Brooks Ave/S Brookside Ave/W Broadway
305,38.506376,-89.625850,Interstate 64
246,38.614511,-89.518945,N 9th St/Meadowlark Ln
445,38.610059,-89.388865,Franklin St/24th
334,38.612100,-89.608898,Harrison St
160,38.723098,-89.300013,Fox Dr/Deer Trl
472,38.529403,-89.145417,N Pullen Blvd/W Broadway
185,38.512506,-89.150376,/S Brookside Ave
246,38.548439,-89.618840,Bradford Dr/Apple Dr
160,38.605402,-89.688673,N Monroe St/W Broadway
160,38.545008,-89.611064,N Francis St
839,38.532384,-89.146290,W McCord St
305,38.612148,-89.376760,15th St/Jefferson St
160,38.540064,-89.469195,N Clinton St/Bach
305,38.611190,-89.542790,N 4th St
216,38.524030,-89.144409,W 5th St/Bond St
216,38.603696,-89.533224,S Pine St/Westbrook Dr
362,38.535055,-89.700628,W Hanover St/N Railway St/S Railway St/E Hanover St
334,38.609037,-89.673561,E 4th/E 4th St/Pin Oak St
160,38.528964,-89.486374,Pioneer Rd
418,38.610060,-89.388732,Franklin St/24th
334,38.617041,-89.376755,15th St/Abbott St
185,38.615004,-89.687220,State Rte 160
160,38.618407,-89.682600,Old Trenton Rd/Pine Lake Dr
418,38.617541,-89.365210,6th St
216,38.536308,-89.705162,Clinton St
216,38.536481,-89.473749,Suhl Rd/Carlyle Rd
185,38.606844,-89.526101,N Walnut St/S Walnut St
216,38.610118,-89.509630,Old US Hwy 50
276,38.478954,-89.680459,/Mill St
160,38.608089,-89.442751,Carter Rd
216,38.515184,-89.143491,S Cherry St/W 12th St
160,38.539973,-89.469192,N Clinton St
185,38.611265,-89.545183,N 4th St
445,38.535070,-89.692856,N 8th St/E Hanover St
185,38.555722,-89.156366,/Jolliff Bridge Rd
631,38.533080,-89.158096,W McCord St
216,38.559834,-89.535449,Hanover St
185,38.610161,-89.357229,Franklin St
160,38.539080,-89.696891,N 3rd St/Roland Ave/Marilyn Dr
160,38.604164,-89.605684,Page St
185,38.539181,-89.465712,North St/
185,38.553084,-89.535290,Hanover St
185,38.621376,-89.533988,N 13th St/Sunset Dr
216,38.615058,-89.374228,13th St/Mulliken St
160,38.599941,-89.531001,S 7th St
334,38.611742,-89.608891,Regal Dr
160,38.728829,-89.284289,/Pinnacle Rd/Pinnacle Dr
185,38.535998,-89.441190,Gross Ln
185,38.607330,-89.531863,N Broadway/N Plum St
216,38.601899,-89.685700,W Kentucky St/S Jefferson St
160,38.548970,-89.616932,Franklin St/Debra Dr
526,38.619388,-89.530907,N Cherry St/N 12th St
160,38.556593,-89.156337,College Rd/Jolliff Bridge Rd
160,38.536844,-89.702796,N Franklin St/W Birch St
362,38.540691,-89.699941,E Oak St
246,38.610510,-89.521327,N 4th St/N Gerdes St
160,38.495462,-89.627207,/Airport Rd
185,38.606037,-89.662915,Federal-Aid Sec 1780
160,38.604963,-89.598851,Rose St/E 4th St
160,38.537359,-89.690568,N 10th St
216,38.606000,-89.663797,Federal-Aid Sec 1780
160,38.536375,-89.454579,Carlyle Rd
160,38.575756,-89.535134,Germantown Rd//S Germantown Rd
185,38.609633,-89.687132,State Rte 160/N Madison St
160,38.540062,-89.469305,Bach
160,38.555737,-89.543107,Green St/Clinton St
185,38.607827,-89.344096,Valley Vw
216,38.608090,-89.614707,Crimson Ct
334,38.529970,-89.145375,/N Pullen Blvd
160,38.536094,-89.498044,State Rte 161/Co Rd 1030 E
160,38.526576,-89.273380,Foster Rd/Hoffman Rd
160,38.634105,-89.555183,/Maple Dr/Old State Rd
185,38.546232,-89.690363,Country Lakes Dr/Bluegill Dr
216,38.543279,-89.614884,/W State Rte 161
216,38.611203,-89.382551,Old State Rd
160,38.506375,-89.430813,Long Lake Rd
185,38.511317,-89.145890,Case St/W 16th St
160,38.539873,-89.694478,Audrey Ln
160,38.512359,-89.624784,Pear St
160,38.535273,-89.653862,State Rte 161/Tank Rd
276,38.538675,-89.689961,Jamie Ct/Pine St
160,38.536399,-89.458827,Carlyle Rd
334,38.537171,-89.470222,S A St
160,38.535300,-89.651667,/State Rte 161
185,38.587958,-89.372962,State Rte 127/Buehler Rd
246,38.601496,-89.683425,W Iowa St/S Washington St
160,38.608730,-89.509305,Grant Dr/Truman Dr
160,38.645755,-89.414767,/Varel Rd
160,38.631842,-89.360788,Lake Rd
160,38.473870,-89.677342,/S 4th St
160,38.652035,-89.508959,Oak Hill Dr
160,38.547644,-89.263295,Bikepath
185,38.511154,-89.620275,Hickory St
216,38.616016,-89.381903,Kane St/19th St
160,38.634223,-89.525878,Woodcrest Pl/Jamestown Rd
334,38.537088,-89.693902,N 6th St/E Birch St
185,38.606886,-89.596177,E 1st St/Kues Ave
160,38.557911,-89.533287,Cindy St/Linda St
216,38.628672,-89.371589,Governors Run
160,38.609189,-89.457771,Old US Hwy 50
216,38.615344,-89.528745,N Clinton St/N 9th St
160,38.528302,-89.571601,/Woodlane Rd
276,38.555338,-89.539959,Railroad St/Prairie St
472,38.604629,-89.684772,W Illinois St/S Adams St
246,38.616009,-89.362012,Lake Rd
216,38.610965,-89.599773,/E Brook Dr
334,38.536282,-89.694929,N Hickory St/E Ash St
334,38.618133,-89.365365,6th
276,38.610475,-89.505402,Johnson Ct
185,38.529275,-89.143212,S James/W Broadway
185,38.537112,-89.703948,N Lincoln St/W Birch St
305,38.609462,-89.534425,Deeben St
160,38.607564,-89.695889,W 3rd St
334,38.538290,-89.702775,N Franklin St/W Cedar St
334,38.603893,-89.681130,E Missouri St/S Walnut St
185,38.608070,-89.669022,Galen Dr/N Magnolia St/E 3rd St
185,38.536098,-89.701738,W Ash St/N Adams Ave
246,38.552254,-89.551034,Lake Park Dr
160,38.557152,-89.157553,College Rd
472,38.610986,-89.534379,N 4th St/Deeben St
160,38.517383,-89.143447,S Cherry St
472,38.529404,-89.145494,S Pullen Blvd/W Broadway
246,38.601802,-89.440462,5th St
160,38.476749,-89.677794,3rd St
305,38.608393,-89.694144,Northland Ct
445,38.535067,-89.703952,W Hanover St/W Hanover/N Lincoln St
185,38.610199,-89.358649,Franklin St/1st St
305,38.479386,-89.680468,E Center St/Mill St
216,38.563839,-89.193394,Keister Dr/College Rd
216,38.542618,-89.613456,/S Broadway St
246,38.607221,-89.376808,15th St/Ridge St
185,38.608717,-89.605652,Logan St/Page St
160,38.555403,-89.543124,/Green St
185,38.540732,-89.628580,State Rte 161
160,38.602028,-89.432339,Randolph St
160,38.552564,-89.560482,Lake Park Dr
334,38.534032,-89.699410,S 1st St/E Illinois St
185,38.543765,-89.618080,N Alvina St
305,38.609100,-89.435895,Old US Hwy 50/Louis St/Hwy 50 E
160,38.606087,-89.662102,/Federal-Aid Sec 1780
334,38.603697,-89.687033,S Madison St/Missouri St
276,38.611186,-89.607987,W Redwood Dr/N Clinton/Clinton St
160,38.606169,-89.527639,S 1st St/S Main St
185,38.605326,-89.690872,W Broadway
246,38.609878,-89.530184,N 3rd St/N Cherry St
185,38.624096,-89.448101,US Hwy 50
185,38.733816,-89.513524,Main St/2nd St
160,38.537904,-89.690639,E Cedar St/Leisure St
305,38.527312,-89.143924,W 2nd St/Clinmar Pl
160,38.553711,-89.539921,Church St/Prairie St
216,38.619195,-89.360402,Sunrise Hill
276,38.626067,-89.372919,12th St/State Rte 127
160,38.596581,-89.525930,S Walnut St
160,38.729715,-89.282945,Pinnacle Rd
160,38.543665,-89.156678,Jolliff Bridge Rd
362,38.541583,-89.686651,State Rte 160
185,38.539489,-89.263842,S Broadway/2nd St
185,38.707665,-89.299073,Pam Ln
185,38.539996,-89.630876,State Rte 161/Thole Rd
185,38.525935,-89.160121,Randolph Dr/W 4th Street Rd
185,38.608781,-89.343862,Lake Vista Dr
334,38.610230,-89.362512,Franklin St/4th St
305,38.600180,-89.679812,E Wisconsin St
472,38.621777,-89.372422,Madison Dr
605,38.608728,-89.527497,N 2nd St/N Main St
160,38.617434,-89.662821,Venhaus Rd
246,38.608405,-89.693324,N Harrison St/Northland Ct
160,38.609839,-89.394689,Old US Hwy 50
216,38.607028,-89.434705,Beckemeyer Ave/Christina
160,38.511448,-89.148246,W 16th St/S Brookside Ave
160,38.621173,-89.614458,Leeward Ct
276,38.611237,-89.605626,Page St/Maple St
160,38.605798,-89.432356,E 1st St/Randolph St
160,38.512675,-89.468739,/Kasten Rd
160,38.608507,-89.386450,24th St
246,38.538669,-89.690637,Pine St/Leisure St
160,38.605123,-89.442713,Carter St
499,38.535073,-89.698244,N 2nd St/E Hanover St
246,38.611164,-89.542042,N 4th St
362,38.532896,-89.154672,W McCord St/Buena Vista Ter
276,38.480079,-89.686670,State Rte 177/State Rte 160/Sand Hill Rd
160,38.555482,-89.544573,/Leo St
334,38.619393,-89.371835,Montgomery St/11th St
160,38.550604,-89.616386,St Bernard
216,38.708776,-89.299019,Oak Dr/Pam Ln
185,38.510397,-89.145914,Case St/W 17th St
276,38.611215,-89.543501,N 4th St/Dorries Dr
185,38.526259,-89.155965,/Oak Park Dr W/Oak Park Dr E
246,38.547069,-89.620037,Cottonwood Ln/Park Ave
246,38.542115,-89.696452,Peach Ln
160,38.537217,-89.282606,State Rte 161/Nottmeyer Rd
216,38.509907,-89.639401,I- 64
472,38.607348,-89.673513,Pin Oak St/E 2nd St
334,38.541900,-89.686655,State Rte 160
160,38.537830,-89.705185,Clinton St
185,38.711753,-89.291886,Robin Ln/Harbor Dr
160,38.610798,-89.600851,/Newport Dr
216,38.510137,-89.621837,E Main St/Cherry St
160,38.539609,-89.610718,Heimann Rd
276,38.548296,-89.686774,State Rte 160
185,38.613020,-89.682514,N Main St
185,38.549073,-89.533629,Holly St
246,38.536924,-89.466812,Lincoln St/S Washington St
160,38.616076,-89.367757,Kane St/8th St
160,38.553454,-89.654063,Tank Rd/Court Rd
160,38.612128,-89.378046,Jefferson St/16th St
362,38.611510,-89.553784,N 4th St/Drive in Rd/Saint Rose Rd/E Harrison St
185,38.537239,-89.466797,Eldon St/S Washington St
160,38.580101,-89.410311,Old Carlyle Rd/Pipeline Rd
160,38.604771,-89.437093,Dora St/E 2nd St
246,38.538292,-89.699736,E Cedar St/N 1st St
160,38.566791,-89.263038,College Rd
160,38.593437,-89.652937,/Rocky Ford Rd
185,38.546907,-89.144909,/Linn St
246,38.612187,-89.381932,19th
185,38.608971,-89.535233,Germantown Rd/N 2nd St
185,38.608218,-89.371553,Methodist St/11th St
216,38.552887,-89.541996,Walnut St/Elm St
160,38.552955,-89.572228,Lake Park Dr/Woodlane Rd
160,38.553861,-89.156441,/Jolliff Bridge Rd
160,38.537440,-89.249875,/State Rte 161
160,38.557935,-89.534333,Linda St/Brenda St
216,38.609972,-89.504875,Old US Hwy 50
185,38.551100,-89.616147,Delray St
216,38.535684,-89.466809,/S Washington St
160,38.525397,-89.146737,Fayette St/W 4th Street Rd
160,38.505922,-89.611919,Albers Rd
160,38.596384,-89.534323,Breese Rd
216,38.559434,-89.531743,B St
160,38.594451,-89.442737,Bartelso Rd/Highline Rd
246,38.550325,-89.533042,Park Rd/East St
185,38.536103,-89.702801,W Ash St/N Franklin St
160,38.517009,-89.143441,W 10th St/S Cherry St
185,38.609542,-89.604412,Clement St/Elm St
185,38.721051,-89.292110,Dove Ln
276,38.608125,-89.677815,N Oak St/E 3rd St
418,38.534128,-89.691828,E Illinois St/S 9th St
185,38.533395,-89.688022,Park St/Veterans Memorial Pkwy
216,38.531058,-89.684110,Bailey Rd
185,38.608688,-89.368940,9th St/Railroad St
305,38.610722,-89.362524,4th St
160,38.650768,-89.358988,Walnut Dr
160,38.607454,-89.652996,/Federal-Aid Sec 1780
160,38.538289,-89.700786,N Railway St/E Cedar St/W Cedar St
160,38.527780,-89.156517,Middle St/Oak Park Dr W
276,38.609501,-89.405567,Old US Hwy 50
246,38.508844,-89.622952,Park Ln/Oak St
276,38.543294,-89.613456,S Broadway St/W State Rte 161/N Broadway St
160,38.605923,-89.424647,E 1st St/1st Street Rd
160,38.540022,-89.467959,Angie St
185,38.609392,-89.358682,Washington St/1st/1st St
246,38.622656,-89.370740,W Lake Ter/Fayette St/Bond St
160,38.607718,-89.234892,Louis St/Clara St
185,38.610200,-89.512244,N 4th St/Old US Hwy 50
246,38.538966,-89.689963,Jamie Ct
160,38.611212,-89.604367,Clement St/Maple St
276,38.608957,-89.676874,N Maple St/E 4th St
160,38.539129,-89.699723,E Poos Dr/N 1st St
160,38.536434,-89.462448,Carlyle Rd
216,38.601514,-89.682193,W Iowa St/S Main St/E Iowa St
216,38.604975,-89.596196,E 4th St/Kues Ave
185,38.555309,-89.686904,State Rte 160/Reeb Rd
418,38.614221,-89.363242,Lake Rd
362,38.535136,-89.689359,N 11th St/E Hanover St
276,38.535565,-89.691801,/N 9th St
276,38.542762,-89.612309,S Commercial St
185,38.600924,-89.530538,S 6th St/S Cherry St
276,38.606425,-89.437096,Railroad St/Dora St
362,38.609986,-89.523123,Gerdes St/N Elm St
216,38.609257,-89.358682,1st
160,38.549266,-89.540981,Lake Park Dr
160,38.608125,-89.382192,Methodist St
160,38.606597,-89.382251,/19th St/Corey Rd
305,38.620728,-89.530465,Sunrise Ct/N 13th St
160,38.601887,-89.432059,5th St
185,38.525374,-89.164065,Esther Dr
185,38.615536,-89.400798,Flat Branch Rd
334,38.636963,-89.372724,State Rte 127/Dorothy Ln
160,38.539486,-89.464519,Bartelso Rd/N Beckemeyer Rd
334,38.510110,-89.619200,E Main St
216,38.534077,-89.352848,State Rte 161/State Rte 127
185,38.548954,-89.533666,Lake Park Dr
472,38.605627,-89.678600,E Broadway/N Cedar St/S Cedar St
246,38.546828,-89.607524,Thomas Dr/Meadowlark Dr
160,38.616968,-89.381875,19th St
390,38.607066,-89.673490,Park Pl/Pin Oak St
445,38.610682,-89.363805,5th St
185,38.536473,-89.472572,S C St/Carlyle Rd
160,38.597743,-89.607829,Aviston Rd/Rocky Ford Rd
185,38.555363,-89.537649,Market St
246,38.543260,-89.700078,Hillside Dr/Marcia Blvd
160,38.604951,-89.612510,4th St
418,38.611746,-89.608005,Clinton St/Regal Dr
185,38.610246,-89.319062,Co Rd 2050 E/US Hwy 50
552,38.610181,-89.378061,Franklin St/16th St
185,38.727256,-89.538592,/Surge Rd
185,38.533245,-89.164013,W McCord St
160,38.629022,-89.505408,Dovercliff Ct
160,38.558185,-89.705453,Country Line Rd
160,38.614019,-89.516386,Memorial Dr
276,38.617723,-89.522073,Vossclare Dr
216,38.611161,-89.382289,Fairfax St/Old State Rd
160,38.629094,-89.366301,William Rd
185,38.611220,-89.603456,N Cleveland St/Maple St
160,38.605335,-89.532999,Westbrook Dr
160,38.566162,-89.239693,Schnitzmeyer Rd/College Rd
445,38.525337,-89.143427,S Beech St/W 4th Street Rd
472,38.620001,-89.374778,13th St
160,38.617600,-89.518901,Vossclare Dr/Meadowlark Ln
185,38.611312,-89.546903,N 4th St
390,38.610011,-89.535255,Germantown Rd/N 3rd St
305,38.607324,-89.674517,Parkview Dr/E 2nd St
216,38.547095,-89.618855,Bradford Dr/Park Ave
305,38.560803,-89.535462,Hanover St/Sunflower Ct
160,38.619425,-89.616231,Old State Rd
160,38.558815,-89.532221,Rose Ln
216,38.536246,-89.687218,N 13th St
185,38.624829,-89.514357,Holy Cross Ln
185,38.653715,-89.327372,/Eldon Hazlet State Park
362,38.609838,-89.528832,N 3rd St/N Clinton St
216,38.533850,-89.171722,W McCord St
160,38.614058,-89.383587,Clinton St/20th St
160,38.615841,-89.624185,US Hwy 50
160,38.649178,-89.516717,Cyber Tel Rd/Jamestown Rd
185,38.526022,-89.162414,Murray Dr/W 4th Street Rd
276,38.537638,-89.263834,Broadway St/W 4th St/S Broadway/E 4th St
160,38.569741,-89.165104,Copple Rd/Felton Rd
276,38.525488,-89.151904,Geary St/W 4th Street Rd
185,38.553281,-89.686872,State Rte 160/Court Rd
160,38.609396,-89.531784,N Plum St
185,38.537087,-89.692875,N 8th St/E Birch St
185,38.561636,-89.532878,C St/North
160,38.651973,-89.346698,Marina Dr
160,38.635423,-89.525890,Saint Vincent Pl/Jamestown Rd
499,38.617088,-89.371747,11th St/Wayne St
216,38.541394,-89.698143,Plum Ln
216,38.510124,-89.620293,Hickory/E Main St
160,38.618702,-89.535010,N 11th St/Ellwood St
185,38.515542,-89.144650,Bond St/W 12th St
160,38.564999,-89.216228,End Rd/College Rd
160,38.537621,-89.273241,State Rte 161/Hoffman Rd
185,38.612060,-89.604348,Clement St/Harrison St
305,38.536453,-89.464063,Carlyle Rd
246,38.537195,-89.305224,State Rte 161
185,38.623513,-89.429004,US Hwy 50/Old State Rd
305,38.609368,-89.530202,N Cherry St/
160,38.609640,-89.690658,Countryside Ln
160,38.586018,-89.197076,Shattuc Rd
185,38.601979,-89.434679,Christina St
246,38.606701,-89.528962,S Broadway/S Clinton St
246,38.533223,-89.703106,W Indiana St/S Franklin St
160,38.632096,-89.360780,Dam West Campground Rd/Lake Rd
334,38.620206,-89.523687,Tower Ct
246,38.546880,-89.616798,N Franklin St/Memorial Dr/N Franklin
362,38.612122,-89.380618,Jefferson St/18th St
185,38.535568,-89.461779,Walnut St
418,38.534136,-89.692024,E Illinois St/S 9th St
216,38.533674,-89.688444,Park St/Veterans Memorial Pkwy
185,38.607270,-89.530308,N Cherry St/N Broadway
276,38.613353,-89.523024,N 7th St/N Elm St
185,38.541231,-89.468619,Jamie
160,38.601845,-89.439248,5th St
185,38.522517,-89.158814,W 7th St
216,38.515613,-89.145814,Case St/W 12th St
185,38.611850,-89.568373,E Harrison St
160,38.533237,-89.701840,W Indiana St/S Adams St
160,38.609079,-89.442772,Old US Hwy 50/Carter Rd/Old US Hwy 50 W
160,38.536631,-89.371551,/State Rte 161
160,38.524048,-89.686466,State Rte 160/Haselhorst Rd
160,38.609273,-89.421119,Old US Hwy 50
160,38.621926,-89.530920,US Hwy 50/US Highway 50 Off Ramp E
276,38.555448,-89.539958,Prairie St
160,38.547646,-89.263677,Huey Rd
160,38.536145,-89.521366,State Rte 161
276,38.609751,-89.525825,N 3rd St/N Walnut St
305,38.504769,-89.622808,Interstate 64
579,38.614121,-89.371576,11th St/Clinton St
185,38.612214,-89.535205,N 5th St/Mater Dei Dr
160,38.609693,-89.680170,E 5th St/N Locust St
185,38.623435,-89.479268,Frogtown Rd/US Hwy 50
216,38.601826,-89.440265,5th St
160,38.607247,-89.371569,Ridge St/11th St
160,38.536136,-89.649230,State Rte 161
160,38.556358,-89.539976,Mill St/Prairie St
185,38.627081,-89.525769,Jamestown Rd
216,38.543286,-89.614609,N Bertha St/W State Rte 161
160,38.536397,-89.457723,Devonshire Dr/Carlyle Rd
216,38.607545,-89.614690,W 1st St/Crimson Ct
305,38.532798,-89.143090,James Ave
160,38.536407,-89.459808,Carlyle Rd
185,38.534880,-89.193431,State Rte 161
390,38.612210,-89.363834,5th St/Jefferson St
216,38.617094,-89.515000,Willow Creek
185,38.606871,-89.442720,Beckemeyer Ave/Carter Rd
216,38.607560,-89.695386,Tyler St/W 3rd St
160,38.605004,-89.616715,Eagle Dr
185,38.611103,-89.540083,N 4th St
160,38.608061,-89.613660,Clover Ct
216,38.726116,-89.594949,Shady Oak Ln/Meadow View Rd
216,38.653535,-89.346965,Lakeview Dr
334,38.620166,-89.370274,Monroe St
246,38.609107,-89.444743,Old US Hwy 50
160,38.506384,-89.611919,Albers Rd
185,38.607640,-89.517293,N Mine St
160,38.610219,-89.512866,Mason Dr/N 4th St
160,38.614908,-89.572567,Lake Branch Rd/US Hwy 50/Linden Grove Rd
185,38.610379,-89.517942,N 4th St/
185,38.651957,-89.348461,Marina Dr/Sunset Dr
216,38.602350,-89.679975,S Locust St/E Kentucky St
160,38.606935,-89.437912,Randall St/Beckemeyer Ave
216,38.603875,-89.683486,S Washington St/Missouri St
185,38.609139,-89.388711,24th
305,38.494711,-89.601855,I- 64
276,38.612565,-89.527391,N 6th St/N Main St
160,38.720618,-89.300003,Deer Trl
160,38.539608,-89.611097,Heimann Rd
185,38.551909,-89.539859,Sycamore St/Prairie St
160,38.538132,-89.703923,N Lincoln St/W Cedar St
216,38.529945,-89.156338,/Oak Park Dr W
185,38.611937,-89.630902,Federal-Aid Sec 1780
160,38.550878,-89.612148,Aviston Rd
160,38.559176,-89.171024,/College Rd
216,38.612057,-89.683676,Brook Cir
216,38.516767,-89.672457,Interstate 64
246,38.610195,-89.366394,Franklin St/7th St
216,38.614132,-89.367695,Clinton St/8th St
185,38.610782,-89.694394,Tyler St
160,38.548686,-89.615560,N Williams St
276,38.536845,-89.699354,N 1st St/E Birch St
160,38.537434,-89.296775,Monken Rd
246,38.616830,-89.522975,N Elm St/N 11th St
216,38.554484,-89.535316,Hanover St/Main St
185,38.538292,-89.695832,E Cedar St/Walnut Ave
160,38.512675,-89.469180,/Twin Levee Rd
445,38.616218,-89.527378,N 10th St/N Main St
216,38.610367,-89.604378,Clement St/Oak St
276,38.606144,-89.435889,Louis St
160,38.680752,-89.553454,Blue Mound Dr/East St
160,38.595700,-89.511877,/Breese Rd
631,38.610159,-89.383662,Franklin St/20th St
276,38.620801,-89.530883,N Cherry St/N 13th St
276,38.510091,-89.617664,Peach St/E Main St
216,38.496770,-89.603770,Interstate 64
160,38.606103,-89.525014,S 1st St/S Chestnut St
160,38.622908,-89.233245,/Carlyle Reservoir/Boulder Rd
334,38.619534,-89.525206,Apple Ln
160,38.612769,-89.397983,Chase Creek Dr
160,38.605978,-89.442734,Carter Rd
160,38.621580,-89.507127,Bluff Rd
185,38.607093,-89.535232,Germantown Rd
216,38.619944,-89.519767,Lakeview Dr
305,38.620988,-89.371847,11th St/Marion St
334,38.628107,-89.369777,W Lake Dr/Eula Mae Pkwy/William Rd
246,38.613787,-89.520416,Merlin Ct
216,38.609567,-89.606751,Spring St/Elm St
246,38.546995,-89.614567,N Bertha St/Memorial Dr
216,38.525135,-89.156037,Westhaven Dr/Easthaven Dr
160,38.604961,-89.612728,4th St
658,38.611153,-89.376777,15th St/Fairfax St
276,38.546706,-89.608594,Thomas Dr
276,38.532266,-89.703124,W Missouri St/S Franklin St
185,38.625106,-89.523074,Holy Cross Ln
185,38.531398,-89.686490,State Rte 160
160,38.606398,-89.442732,Carter Rd
276,38.517180,-89.146961,Dover St/W 10th St
216,38.541518,-89.702372,Joan Dr/Country Ln
305,38.610010,-89.391874,Old US Hwy 50
185,38.623734,-89.429660,Old State Rd
160,38.589550,-89.197006,/Shattuc Rd
160,38.624809,-89.513488,Holy Cross Ln
499,38.619398,-89.530550,N Cherry St/N 12th St
216,38.612320,-89.381933,19th St/19th
216,38.510148,-89.143649,S Cherry St
160,38.611191,-89.609682,W Redwood Dr/Walnut Cir
185,38.603324,-89.438199,Randall St/3rd St
216,38.480278,-89.704590,Clinton County Line Rd/State Rte 177
216,38.611147,-89.382201,19th St/Fairfax St
185,38.545326,-89.615741,N Williams St/W Hendricks
160,38.608397,-89.594007,Schumacher Rd
185,38.603785,-89.438184,Randall St
185,38.454832,-89.676933,/Wittenburg Rd
276,38.514307,-89.149392,Beacham St/W 13th St
160,38.612045,-89.600551,E Harrison St/E Brook Dr
160,38.555602,-89.543108,Green St
216,38.682881,-89.553522,S 1st St/East St
160,38.623419,-89.433378,US Hwy 50/Beckemeyer Rd
362,38.535119,-89.690590,N 10th St/E Hanover St
160,38.623494,-89.608935,Tucker Ct/Louise Ln
185,38.547458,-89.621339,Pin Oak Dr/
160,38.541379,-89.691893,Plum Ln/N 9th St
216,38.553897,-89.545626,Church St/West St
445,38.619599,-89.529972,N 12th St/Sunrise Ln
160,38.632008,-89.369323,Senate Ct/Governors Run
276,38.608143,-89.347288,/Sand Ridge Rd
185,38.603822,-89.430044,Hummert St/E 3rd St
185,38.535254,-89.661913,State Rte 161
160,38.537196,-89.612329,Albers Rd
185,38.517069,-89.144625,Bond St/W 10th St
185,38.604879,-89.605853,4th St
160,38.604809,-89.432343,Randolph St/E 2nd St
390,38.542073,-89.687918,Peach St
216,38.620615,-89.360346,Sunrise Hill
631,38.532232,-89.144861,W McCord St
216,38.561814,-89.535473,North St/Hanover St
216,38.612080,-89.610795,Old US Hwy 50/Harrison St
185,38.537636,-89.254518,State Rte 161/Creek Rd
216,38.609088,-89.365090,6th St
160,38.611193,-89.359951,Fairfax St/2nd St
216,38.623484,-89.518224,Lincoln Dr/Liberty Ct
160,38.593590,-89.686836,State Rte 160/Mill Rd
246,38.609096,-89.436720,Old US Hwy 50/Mc Kinley
276,38.547613,-89.617639,Cherry Dr
216,38.611328,-89.505298,Johnson Ct/Foxtail Dr
160,38.626050,-89.528832,Saint James Ln/Pembrooke Ln
160,38.612099,-89.507227,Koch Ln/Foxtail Dr
216,38.533328,-89.700602,S Railway St/W Indiana St/E Indiana St
334,38.618033,-89.365115,Deer Circle Dr
160,38.539183,-89.466844,North St/N Washington St
658,38.529673,-89.149965,W Broadway
185,38.610413,-89.607976,Oak St/Clinton St
362,38.612147,-89.367700,Jefferson St/8th St
216,38.603409,-89.525882,/S Walnut St
305,38.603936,-89.677781,S Oak St/E Missouri St
445,38.606515,-89.677830,/N Oak St
160,38.598412,-89.525938,Julia Dr/S Walnut St
276,38.610022,-89.391463,Franklin St/Old US Hwy 50
216,38.542454,-89.705241,Hillside Dr/Clinton St
160,38.478853,-89.582419,I- 64
185,38.505309,-89.611919,Albers Rd
160,38.601771,-89.607886,Aviston Rd
246,38.604607,-89.380260,Timber Ridge Ct
185,38.602850,-89.525903,S 4th St/S Walnut St
160,38.553594,-89.535290,Hanover St/Church St/Hanover
216,38.555216,-89.537648,Market St
160,38.536947,-89.345751,/Crocker Rd
788,38.610178,-89.372829,12th St/Franklin St
160,38.519215,-89.273444,/Hoffman Rd
246,38.612038,-89.706352,Clinton County Line Rd
160,38.565010,-89.216450,/College Rd
185,38.614802,-89.687217,US Highway 50 Off Ramp W/State Rte 160/US Highway 50 on Ramp W
160,38.595547,-89.507427,Breese Rd
160,38.684023,-89.552415,Church St/Main St
160,38.601717,-89.442698,Bartelso Rd/5th St
160,38.609092,-89.672036,E 4th St/N Ash St
185,38.728738,-89.596985,Baumann Rd/Saint Rose Rd
160,38.536248,-89.488866,Red Fox Rd/State Rte 161
185,38.546791,-89.686758,State Rte 160
185,38.610857,-89.531694,N 4th St/N Plum St
246,38.488973,-89.596538,I- 64
160,38.624362,-89.391391,William Rd
526,38.529484,-89.146829,Washington Blvd/W Broadway
305,38.617820,-89.371854,Saint Clair St/11th St
472,38.611102,-89.385106,21st St/Fairfax St
305,38.542656,-89.612311,S Commercial St
216,38.624319,-89.517797,President Ct
185,38.567193,-89.530910,Wesclin Rd
185,38.534469,-89.184887,State Rte 161/Noltings Rd
160,38.608877,-89.684832,W 4th St/N Adams St
160,38.593847,-89.609297,Chad St/Catalpa St
246,38.500205,-89.611870,Albers Rd/I- 64
160,38.507534,-89.622927,Park Ln
418,38.531694,-89.143197,James Ave
216,38.603118,-89.535231,S Germantown Rd/S 4th St
160,38.644157,-89.659976,Sportsmen Rd
185,38.583059,-89.606496,Highline Rd
185,38.517138,-89.145756,Case St/W 10th St
185,38.606620,-89.605715,Page St/2nd St
276,38.600160,-89.682173,S Main St/W Wisconsin St/E Wisconsin St
305,38.537067,-89.464500,N Beckemeyer Rd
160,38.550459,-89.263614,Huey Rd
185,38.604192,-89.439638,Lincoln St/W 2nd St
185,38.623038,-89.518230,Lincoln Dr/Patriot Dr
160,38.604801,-89.433506,Elizabeth St/E 2nd St
246,38.480374,-89.686559,State Rte 160/Church Rd
362,38.532150,-89.144225,W McCord St/Penco Ave
185,38.593489,-89.372940,State Rte 127
185,38.516805,-89.417951,Tony Rd
160,38.605067,-89.441110,W 1st St/Maddux St
160,38.655062,-89.325537,Eldon Hazlet State Park
160,38.606357,-89.685838,W 1st St/N Jefferson St
160,38.610543,-89.670260,N Spruce St
276,38.535663,-89.687324,N 13th St
305,38.488267,-89.595684,/I- 64
185,38.522647,-89.159121,W 7th St/Sunset Dr
160,38.608742,-89.379345,17th St
276,38.542494,-89.612313,S Commercial St/E Railroad St
160,38.536377,-89.484211,State Rte 161/Church Stepel/Carlyle Rd
246,38.606869,-89.527566,S Main St/N Main St
160,38.533699,-89.470268,Zuroweste St/S A St
526,38.533178,-89.159871,W Mc Cord/W McCord St/Randolph Dr
276,38.610584,-89.530950,Clintonian Plz
185,38.614497,-89.524423,N Chestnut St
216,38.561621,-89.531796,B St/North
246,38.614852,-89.400802,Flat Branch Rd/Old State Rd
160,38.493267,-89.704732,Clinton County Line Rd
185,38.562716,-89.535480,Hanover St
362,38.536455,-89.464195,Carlyle Rd
160,38.604810,-89.431194,Scoville St/E 2nd St
185,38.608689,-89.366387,Railroad St/7th St
160,38.607511,-89.608566,1st St/Meadow St/W 1st St
160,38.611293,-89.546208,N 4th St
