Estimated daily crossings,Latitude,Longitude,Name
185,41.658435,-90.083812,8th Ave
276,41.656390,-90.079332,8th Ave/Main St
216,41.653757,-90.074701,8th Ave/5th St
160,41.766802,-89.692500,W 16th Rd/5th Ave
185,41.794277,-89.702949,/W 9th St
160,41.765273,-89.708626,14th Ave
246,41.797258,-89.700900,Ave D/W 12th St
216,41.810642,-89.655844,E Lincoln Way
305,41.767387,-89.688125,A Ave
160,41.791866,-90.213658,N Church St/7th Ave N
246,41.810449,-89.688686,E Lynn Blvd
216,41.751475,-89.747462,I- 88
305,41.790019,-89.714403,/W 4th St
216,41.809296,-89.669648,Freeport Rd
216,41.761157,-89.705413,/W 23rd St/12th Ave
185,41.810140,-89.656252,/E Lincoln Way
216,41.802957,-89.709633,Alley
246,41.770831,-89.707191,Bennett Dr/13th Ave
185,41.757692,-89.776378,I- 88
160,41.801415,-89.721827,W Le Fevre Rd
216,41.772407,-89.724149,/W Rock Falls Rd
246,41.814826,-89.648637,40th Ave
160,41.800629,-89.920750,Lyndon Rd
472,41.803713,-89.665599,/Merrill St
445,41.769378,-89.689339,1st Ave/W 13th St
160,41.817796,-89.991624,Garden Plain Rd
276,41.791480,-89.682124,E 3rd St/Broadway Ave
160,41.782375,-89.685175,B Ave/E 3rd St
276,41.656081,-90.082802,/11th St
216,41.789545,-89.708587,Ave I/W 4th St
216,41.771753,-90.010885,/Bunker Hill Rd
185,41.819197,-89.982528,/Lincoln Rd
160,41.867240,-90.146816,/10th Ave/Waller Rd
160,41.779100,-89.697652,7th Ave/W 2nd St
185,41.774416,-89.703477,11th Ave/W 7th St
185,41.783224,-90.228128,S Bluff St/10th Ave S
160,41.671981,-89.932518,Park Ave
160,41.674284,-89.941887,Johnson Dr/Star Rd
160,41.685647,-89.738131,Star Rd
160,41.809647,-89.969397,S Orange St/N Orange St
216,41.657115,-90.086089,/6th Ave
305,41.774639,-89.687416,E 8th St
185,41.663985,-90.072673,Moline Rd/Main St
185,41.591848,-89.987999,Washington Rd
160,41.815250,-89.967429,/N Orange St
160,41.806153,-89.655089,E 20th St/Reno Rd
334,41.856561,-90.151432,14th St/23rd Ave
246,41.763846,-89.684701,E Rock Falls Rd
185,41.791639,-89.693823,/E 6th St
276,41.794335,-89.687137,E 9th St
185,41.778765,-89.685557,B Ave/E 5th St
160,41.787117,-90.223025,S Church St/4th Ave S
246,41.764605,-89.707212,/13th Ave
185,41.767502,-89.691336,/W 15th St
185,41.793863,-89.888529,/Lincoln Rd
390,41.800135,-89.699727,Ave C/W 15th St
216,41.775515,-89.690414,4th Ave/W 7th St
305,41.806039,-89.949873,Sawyer Rd/Lincoln Rd
246,41.864970,-90.164570,/5th St
418,41.807174,-89.975392,W South St/Florence
185,41.809901,-89.656582,E Lincoln Way
305,41.801941,-89.684338,/E Le Fevre Rd
185,41.794280,-89.701612,/W 9th St
216,41.811652,-89.654200,E Lincoln Way
185,41.749477,-89.689628,/Formally Il Rte 88
246,41.863758,-90.154597,12th St/14th Ave
185,41.793206,-90.210500,10th Ave N
160,41.613070,-89.804962,Jersey Rd/Coleta Rd
305,41.763689,-89.689370,W 19th St/1st Ave
160,41.655587,-90.078237,8th Ave/8th St
160,41.751580,-89.670337,I- 88
185,41.803232,-89.715758,Woodburn Ave
185,41.774695,-89.660876,Dixon Ave
160,41.726804,-89.689737,/Formally Il Rte 88
160,41.809103,-89.974275,Florence/W Morris St
305,41.689035,-90.114616,/I- 88
246,41.661203,-90.076930,13th Ave
185,41.778397,-89.672255,Circle Dr/Dixon Ave
160,41.808657,-89.705870,W 23rd St
216,41.837432,-89.669064,Freeport Rd
185,41.887000,-90.130568,Penrose Rd
160,41.785176,-89.681706,/Lincoln St
185,41.631295,-89.787301,W Market St/S Joy St
185,41.794246,-89.720609,/Maple Ln
160,41.779675,-90.207505,Stone Rd
185,41.688770,-90.107234,/I- 88
334,41.803889,-89.678722,/E 18th St
276,41.850064,-90.111536,/Frog Pond Rd
216,41.797204,-89.692161,E 12th St/4th Ave
160,41.789596,-89.720114,/W 3rd St
305,41.811897,-89.965181,/N Genesee St
246,41.864560,-90.163447,13th Ave/6th St
185,41.755638,-89.689563,/State Rte 40
276,41.757265,-89.689551,State Rte 40
160,41.810404,-89.958924,Meadow Ln
813,41.803628,-89.692021,4th Ave/E Miller Rd
160,41.671370,-90.138901,I- 88
472,41.779804,-89.688758,Dixon Ave
185,41.788784,-89.708657,Ave I/W 3rd St
185,41.659205,-90.079965,/East St
185,41.653552,-90.152738,I- 88
160,41.808786,-89.671637,E 23rd St/22nd Ave
160,41.680786,-90.131523,I- 88/Sand Rd
246,41.796267,-89.700906,W 11th St/Ave D
185,41.821121,-89.640336,State Rte 2
160,41.801082,-89.705214,W 16th St/Ave G
160,41.805950,-89.687496,Greenridge Dr/Green Ct
334,41.811733,-89.965282,N Genesee St
276,41.807344,-89.669078,/Northland Park Dr
276,41.865399,-90.162320,7th St/12th Ave
160,41.836083,-90.168537,Diamond Rd/Ward Rd
160,41.884027,-90.062613,Union Grove Rd
185,41.858132,-90.165160,/20th Ave
160,41.778487,-89.708609,W 2nd St/14th Ave
276,41.811753,-89.698556,E 25th St/Locust St
216,41.857756,-90.162928,21st Ave
160,41.754380,-89.734488,French St
160,41.686036,-89.867488,Prophet Rd/Star Rd
246,41.864693,-90.173213,State Rte 136
160,41.721599,-89.970877,I- 88
160,41.797236,-89.705246,Ave G/W 12th St
684,41.788098,-89.695233,E 3rd St
305,41.872835,-90.165674,4th St/3rd Ave
160,41.710870,-89.814928,/Prophet Rd
185,41.654839,-90.075433,/6th St
160,41.804752,-90.176547,Waller Rd/Garden Plain Rd
160,41.814553,-90.166147,Waller Rd
160,41.805024,-90.175880,Waller Rd/Kennedy Rd
160,41.809184,-89.972760,/S Hall St
160,41.789952,-89.699524,W 5th St
160,41.736425,-89.689681,E Thome Rd/Formally Il Rte 88/W Thome Rd
246,41.792882,-89.720518,Maple Ln
362,41.774117,-89.688100,A Ave
185,41.803739,-89.963266,/Park Ct
160,41.646088,-89.689809,Formally Il Rte 88
216,41.726863,-90.147661,Albany Rd
216,41.800142,-89.694089,E 15th St/3rd Ave
185,41.794057,-89.720504,W 9th St/Maple Ln
246,41.809899,-89.669632,E Lynn Blvd/Freeport Rd
185,41.730713,-90.030200,3rd St/Main St
185,41.759550,-89.689503,1st Ave
305,41.804275,-89.964992,/S Clinton St
160,41.805827,-89.769875,/Emerson Rd
160,41.797037,-89.997645,Prairie Center Rd/Henry Rd
305,41.794053,-89.684887,E 6th St/9th Ave
160,41.798219,-89.700888,W 13th St/Ave D
276,41.770772,-89.692499,W 11th St/5th Ave
160,41.870139,-90.161189,6th Ave/8th St
160,41.792416,-89.717010,W 6th St/Griswold Ave
216,41.767732,-89.804976,Coleta Rd
276,41.858626,-90.152048,/20th Ave
160,41.865426,-90.157893,10th St/12th Ave
216,41.774084,-89.681760,/D Ave
185,41.779718,-89.699180,8th Ave/Leroy Ave
160,41.855399,-90.163455,6th St/24th Ave
216,41.796767,-89.702248,Avenue E
185,41.904402,-89.801935,/N Main
185,41.809245,-89.676545,E Lynn Blvd
276,41.814692,-89.978378,Milnes Dr
185,41.764858,-89.843825,Blue Goose Rd/I- 88
160,41.658255,-90.084305,7th Ave/13th St
160,41.802213,-89.668510,North St/Sanborn St/Spring St
276,41.769806,-89.705395,/12th Ave
216,41.802488,-89.671077,/E 17th St
305,41.799395,-89.680854,14th Ave/E 14th St
276,41.793483,-89.711238,Ave K/W 8th St
216,41.668766,-89.932262,/Elm Ct
160,41.733220,-89.708736,/Buell Rd
160,41.771755,-90.016824,Creamery Rd/Bunker Hill Rd
246,41.837842,-90.176775,Clinton Rd
160,41.813657,-89.956347,Glenwood Dr/Christopher St
160,41.778091,-89.691131,W 5th St/3rd Ave
160,41.692729,-90.073281,Ellis Rd
216,41.812265,-89.973820,/W Lincoln Way
216,41.731784,-89.902256,I- 88
216,41.784380,-89.674911,Emmons Ave
160,41.823739,-89.698370,/Pennington Rd
160,41.806809,-89.687363,21st St/8th Ave
160,41.862107,-90.152929,/16th Ave
160,41.930254,-89.831576,Clark Rd
185,41.799158,-89.705235,W 14th St/Ave G
418,41.803626,-89.693808,3rd Ave/E Miller Rd
160,41.733035,-89.689698,Formally Il Rte 88/Knief Rd
216,41.800181,-89.697953,E 15th St/
276,41.794342,-89.688509,/E 9th St
160,41.788016,-90.219550,S Bluff St/1st Ave
185,41.772266,-89.804931,Coleta Rd
246,41.803355,-89.967096,E Winfield St/S Madison St
160,41.665299,-90.111837,/Cordova Rd
160,41.714275,-90.037924,Burns Rd
185,41.793697,-89.686189,8th Ave/E 6th St
418,41.789771,-89.689031,E 3rd St/5th Ave
216,41.857735,-90.165698,4th St/21st Ave
160,41.717233,-89.927393,3rd Ave W
160,41.806528,-90.172373,Waller Rd
246,41.795530,-89.677149,15th Ave/E 4th St
160,41.805338,-89.958760,E Wall St/S Jackson St
276,41.751211,-89.708677,Buell Rd/I- 88
160,41.765351,-89.786408,Troy Rd/State Rte 2
160,41.668673,-90.083472,Albany Rd
526,41.673245,-89.935061,Washington St/W Riverside Dr/E Riverside Dr
160,41.844198,-90.155097,Clinton Rd
185,41.708517,-90.025256,I- 88
276,41.837868,-90.173851,Clinton Rd
362,41.790747,-89.681717,Broadway Ave/E 2nd St
160,41.862412,-90.151694,14th St
160,41.799652,-89.761376,Galt Rd/Emerson Rd
185,41.770816,-89.708627,Bennett Dr/14th Ave
160,41.794019,-89.681646,/E 5th St
185,41.800590,-89.706553,H Ave
605,41.764900,-89.693778,4th Ave/W 18th St
216,41.801581,-89.689026,6th Ave/E Le Fevre Rd
160,41.871958,-90.144651,Cattail Rd
216,41.711072,-89.926455,1st St W/7th Ave W
185,41.868409,-90.163475,/6th St
246,41.809472,-89.679255,16th Ave
160,41.806139,-89.649859,E 20th St/39th Ave
185,41.861521,-90.150400,Elston Rd
160,41.826253,-89.958196,/Norrish Rd
160,41.808766,-89.674961,E 23rd St
160,41.863362,-90.151289,/14th St
185,41.807891,-89.949397,Sunset Dr/Sycamore Dr
216,41.811543,-89.963861,N Cherry St
216,41.777074,-89.702756,/W 5th St
216,41.789068,-89.701555,W 4th St/Ave D
160,41.654535,-90.081055,6th Ave/Main St
246,41.803908,-89.676062,E 18th St
185,41.803470,-89.707314,W 19th St/Shinkle Ave
185,41.786732,-90.225680,6th Ave S/S Main St
216,41.782159,-89.693187,2nd Ave
160,41.791570,-89.715830,W 6th St/Woodburn Ave
246,41.812829,-89.652872,/E Lincoln Way
160,41.862932,-90.152799,15th Ave/16th Ave
160,41.825465,-89.954876,/Norrish Rd
160,41.767933,-89.702043,10th Ave/Suzanne St
160,41.789944,-89.699433,W 5th St
160,41.794582,-89.679707,/13th Ave
788,41.864602,-90.154595,12th St/13th Ave
216,41.765647,-89.833704,I- 88
185,41.830447,-89.649593,Holly Rd/Polo Rd
160,41.777088,-89.708623,W 5th St/14th Ave
216,41.868730,-90.147603,17th St
160,41.607208,-89.689374,/Formally Il Rte 88
160,41.718217,-89.689788,Formally Il Rte 88/Grennan Rd
246,41.722622,-89.912902,Pine Dr
160,41.764079,-89.690915,Lindy Ave
216,41.791823,-89.693142,3rd Ave/E 6th St
185,41.831116,-89.688517,/Hoover Rd
160,41.798883,-89.671890,E 4th St
246,41.792357,-90.210017,10th Ave N/N Bluff St
185,41.849651,-90.155643,/Waller Rd
216,41.657490,-90.086825,6th Ave
185,41.821968,-89.637553,State Rte 2
185,41.818131,-89.641804,45th Ave/
246,41.779920,-89.692812,W 3rd St/3rd Ave
160,41.690864,-90.191013,/Pryor Rd
160,41.849423,-89.687991,Carriage Dr/Hoover Rd
246,41.799752,-89.647558,/E 13th St/Crestview Rd
276,41.872376,-90.157912,4th Ave/10th St
216,41.873735,-90.153135,N 13th St/2nd Ave
526,41.788962,-89.698767,W 4th St/Ave B
160,41.808765,-89.675112,E 23rd St/19th Ave
418,41.799228,-89.698765,State Rte 88/Locust St/E 14th St
216,41.771641,-89.695942,/6th Ave/W 11th St
216,41.798231,-89.969279,Genesee Ave/Zachery Ln
334,41.806463,-89.952121,/E Lincolnway
276,41.762413,-89.705416,W 21st St/12th Ave
185,41.781567,-89.706227,Ave G/12th Ave
185,41.799564,-89.666390,/Windsor Rd
334,41.808288,-89.658709,/E Lincoln Way
160,41.806356,-89.701360,Ave D
160,41.757478,-89.776866,I- 88
160,41.791435,-89.727126,W Lincolnway
185,41.760577,-89.770764,Front St
362,41.856076,-90.154089,Waller Rd
160,41.784258,-90.226228,S Bluff St/8th Ave S
246,41.789751,-89.704174,/Ave F
160,41.872884,-90.156205,3rd Ave/N 11th St
246,41.868724,-90.148643,16th St
445,41.800174,-89.696329,E 15th St/
160,41.789105,-90.215968,4th Ave N/N Lime St
418,41.809367,-89.968011,N Base St/W Market St
276,41.791405,-89.677831,12th Ave
185,41.850132,-90.155525,/Waller Rd
160,41.791515,-89.727848,/W Lincolnway
160,41.717060,-89.989801,I- 88
216,41.774091,-89.683496,/C Ave
160,41.792338,-90.213971,7th Ave N
160,41.827651,-89.678044,E 41st St/19th Ave
160,41.728520,-89.973777,Black Rd
185,41.637593,-89.689723,/Formally Il Rte 88
185,41.770277,-89.695140,B Ct/W 12th St
185,41.861658,-90.154624,12th St
276,41.805865,-89.974700,W Winfield St/S Hall St
160,41.790805,-89.721328,W 4th St
362,41.800159,-89.695533,E 15th St/2nd Ave
216,41.863782,-90.149880,/14th Ave
160,41.761415,-89.705415,12th Ave
185,41.792998,-89.699957,Ave C/W 8th St
246,41.665634,-90.116301,/Jdk Rd/Cordova Rd
334,41.806095,-89.688945,E 19th St/6th Ave/Greenridge Dr
160,41.815611,-89.862225,Yorktown Rd/Hazel Rd
160,41.797087,-89.672617,/E 3rd St
246,41.812635,-89.652868,E Lincoln Way
305,41.872338,-90.165679,4th Ave/4th St
499,41.803121,-89.679393,/16th Ave
160,41.779942,-89.699169,8th Ave
160,41.787104,-90.223050,S Church St/4th Ave S/W Church St
917,41.810128,-89.964686,N Cherry St/E Knox St
276,41.670889,-89.935265,/E 3rd St
160,41.769378,-89.698744,/8th Ave
160,41.862922,-90.154602,12th St/15th Ave
216,41.760162,-89.634930,/I- 88
216,41.774635,-89.689382,E 8th St/1st Ave
185,41.778684,-89.703505,11th Ave/W 2nd St
276,41.762611,-89.693815,4th Ave
160,41.764150,-89.708635,W 19th St/14th Ave
160,41.656518,-90.082409,7th Ave/11th St
246,41.812169,-89.698546,Locust St
276,41.797954,-89.675351,/E 5th St
216,41.668649,-90.140556,I- 88
160,41.795163,-89.985989,/Shelly Dr/Dixie Dr
216,41.787737,-89.692691,2nd Ave/E 2nd St
160,41.792048,-89.708280,Ave I/
246,41.753058,-89.761944,I- 88
246,41.799219,-89.697966,/E 14th St
736,41.863279,-90.165703,4th St
160,41.782880,-89.667493,Swallow St/Canary St
160,41.857585,-90.153670,Waller Rd/21st Ave
160,41.793889,-89.679794,/E 4th St
185,41.840460,-90.163818,Clinton Rd
216,41.791695,-89.729390,S Lynn Blvd/W Lincolnway
160,41.798526,-89.730866,Harvey Dr
160,41.901542,-90.121091,Lock Rd
160,41.804725,-89.942766,Lincoln Rd
185,41.651675,-90.079418,5th Ave
246,41.788985,-89.705947,/Ave G
185,41.666267,-89.942699,/Jackson St/8th St
246,41.771607,-89.690978,Civic Plaza Rd
390,41.805928,-89.681505,E 21st Pl/14th Ave
305,41.802200,-89.669186,Spring St
185,41.808781,-89.672821,E 23rd St/21st Ave
185,41.791650,-89.709669,W 6th St/Ave J
276,41.865812,-90.164567,5th St
185,41.776478,-89.688102,A Ave/E 7th St
160,41.786235,-90.036036,Hillside Rd/Harvey Rd
185,41.812431,-89.961339,E High Rd/E High St
160,41.725600,-90.146694,Albany Rd
160,41.887514,-90.087769,/Penrose Rd
305,41.763707,-89.705405,/12th Ave
246,41.863333,-90.154601,12th St/
185,41.762393,-89.707214,W 21st St/13th Ave
216,41.777816,-89.681758,E 6th St/D Ave
526,41.802345,-89.666376,E Lincoln Way
160,41.662742,-90.096533,Kelly Ct
216,41.803789,-89.968389,E Winfield St/S Cherry St
362,41.791504,-89.700086,Ave C/
160,41.805141,-89.656950,E 19th St/32nd Ave
185,41.674633,-89.941943,Grove St/W Riverside Dr/Star Rd
160,41.796736,-89.671348,19th Ave
160,41.837801,-90.183283,US Hwy 30
160,41.670789,-89.939274,Lincoln St/Locust St
305,41.800177,-89.697141,E 15th St/1st Ave
185,41.868424,-90.162312,/7th St
216,41.784633,-89.674969,/Lincoln St/Emmons Ave
305,41.804170,-89.693804,/3rd Ave
185,41.793119,-89.701714,/W 8th St
246,41.790783,-89.697329,State Rte 40/W 6th St/Locust St
160,41.753719,-89.689584,/State Rte 40
216,41.668007,-89.946118,Buttercup Ln/Esta Dr
185,41.863771,-90.149479,Larry's Ln/State Rte 136/14th Ave
305,41.799169,-89.691438,/E 14th St
216,41.718449,-89.984023,/I- 88
216,41.806668,-89.660788,/E Lincoln Way
334,41.799385,-89.682061,13th Ave/E 14th St
246,41.804519,-89.963276,Park Ct/E Park St
276,41.787792,-90.223730,S Main St/4th Ave S
160,41.862112,-90.150415,16th Ave/Elston Rd
160,41.777144,-89.668392,Dixon Ave/Luke Ln
160,41.808815,-89.969883,S Orange St/W Wall St
160,41.649863,-90.093385,12th St/Moline Rd
185,41.793830,-90.205431,N Bluff St
216,41.763702,-89.707213,/13th Ave
160,41.726159,-89.950581,/I- 88
246,41.791992,-89.696345,E 7th St/1st Ave
246,41.865566,-90.147226,17th St/Waller Rd
216,41.802746,-89.681285,Long Ct
185,41.658255,-90.084239,13th St
185,41.728423,-89.930077,I- 88
276,41.794247,-89.697188,E 9th St/1st Ave
246,41.866753,-90.161197,/8th St
1278,41.809129,-89.965205,N Cherry St
246,41.790165,-89.715829,W 4th St/Woodburn Ave
185,41.797255,-89.694110,E 12th St/3rd Ave
917,41.817893,-89.645984,43rd Ave/State Rte 2
216,41.808206,-89.973331,/S Hall St
185,41.771341,-89.781210,/US Hwy 30
216,41.764489,-89.843835,Blue Goose Rd/I- 88
305,41.805959,-89.698672,/Locust St
185,41.801448,-89.718160,Dillon Ave/W Le Fevre Rd
418,41.657548,-90.081454,Depot St/11th St
160,41.772335,-89.714094,/W Rock Falls Rd
160,41.637626,-90.173300,I- 88
185,41.791869,-89.680960,/E 3rd St
185,41.761763,-89.632902,I- 88
185,41.669507,-89.927551,E 3rd St
160,41.792003,-90.213781,E Main St/7th Ave N/State Rte 84
605,41.788735,-89.696894,W 4th St
216,41.789225,-89.850126,White Oaks Rd
276,41.775738,-89.693928,/W 6th St
865,41.800997,-89.667828,Leewayne Plaza Rd
185,41.802975,-89.669803,Freeport Rd
185,41.804388,-89.961949,Ash Ave/
160,41.869039,-90.157030,/11th St
185,41.867228,-90.150300,10th Ave
160,41.789552,-89.862402,Yorktown Rd/Lincoln Rd
185,41.751274,-89.650948,I- 88/Polo Rd
185,41.843039,-90.157804,Clinton Rd
216,41.808607,-89.712542,/W 23rd St
305,41.811712,-89.966629,N Base St/W North St
160,41.789600,-89.840353,/Lincoln Rd
276,41.777217,-89.692828,W 5th St
185,41.669562,-89.927285,E 3rd St
185,41.760157,-89.673628,/E Rock Falls Rd
246,41.787052,-89.693993,1st Ave
276,41.733166,-89.688127,/Knief Rd/Calhoun Dr
185,41.685852,-90.124392,Star Rd
160,41.779021,-89.978305,Lister Rd
499,41.768455,-89.689348,W 14th St/1st Ave
216,41.770295,-89.692513,W 12th St/5th Ave
185,41.813672,-89.688802,6th Ave/27th St
276,41.751557,-89.689451,/I- 88
185,41.799164,-89.665717,Park Dr
216,41.767926,-89.759348,Walnut St/Indian Ridge Rd
216,41.751150,-89.742535,I- 88
246,41.800134,-89.700340,W 15th St
305,41.863291,-90.163447,/6th St
185,41.761954,-89.707213,/13th Ave
160,41.801360,-89.729381,W Le Fevre Rd
216,41.793032,-89.700513,W 8th St
334,41.809679,-89.656876,/E Lincoln Way
160,41.835381,-90.028491,/Hillside Rd
160,41.758075,-89.659920,Walnut St/E Rock Falls Rd
185,41.868442,-90.157878,/10th St
160,41.658387,-90.080683,11th St/Albany St/Albany Rd
160,41.789103,-90.215972,4th Ave N/N Lime St
185,41.809728,-89.679252,16th Ave
334,41.657883,-90.082781,12th St/8th Ave
160,41.797171,-89.751394,Howard St/Emerson Rd
160,41.868480,-90.152939,/13th St
160,41.899533,-89.802113,S Main/Scott St
160,41.787934,-89.711468,Ave K
418,41.782938,-89.692072,E 1st St/1st Ave/W 1st St
246,41.771341,-89.707645,/W Rock Falls Rd
499,41.863718,-90.166686,State Rte 136/14th Ave
160,41.642580,-90.144676,/Fargo Rd
216,41.843356,-90.157083,Waller Rd/Clinton Rd
305,41.775961,-89.704782,W 6th St/Grace Ave
185,41.792324,-89.683450,/E 4th St
216,41.731899,-89.902780,I- 88
160,41.769288,-89.708625,Wolf Creek Dr/14th Ave
160,41.667110,-89.941591,/W 7th St
185,41.772056,-89.711455,W Rock Falls Rd
185,41.772514,-89.683480,E 10th St/C Ave
216,41.811763,-89.654320,E Lincoln Way
246,41.772397,-89.725862,W Rock Falls Rd
526,41.803417,-89.712500,Ave L/W 19th St
160,41.768539,-89.685444,/E 14th St
216,41.688812,-90.097051,I- 88/Albany Rd
216,41.779687,-89.676652,/Dixon Ave
160,41.793537,-89.708101,Ave I/W 8th St
160,41.812455,-89.970802,Leroy St/Towne St
185,41.761384,-89.775318,Stone St
185,41.758106,-89.636932,/I- 88/E Rock Falls Rd
160,41.782333,-89.693346,2nd Ave/W 1st St
362,41.801562,-89.698752,W Le Fevre Rd/E Le Fevre Rd/Locust St
160,41.789876,-89.836842,/Lincoln Rd
246,41.863142,-90.167771,2nd St
160,41.762919,-89.692564,W 20th St/3rd Ave
160,41.898911,-89.726072,/Hickory Hills Rd
246,41.789811,-89.714964,/Ave M
246,41.729794,-89.688682,Don Juan Dr/Buena Vista Dr
160,41.769290,-89.709949,Breckinridge Dr/Wolf Creek Dr
185,41.862899,-90.159550,9th St/15th Ave
185,41.786070,-90.224956,6th Ave S/S Church St
160,41.627688,-89.783135,E Kimball St/S Fremont St
216,41.791044,-89.723563,W 4th St/W 3rd St/W Lincolnway
246,41.789591,-89.685790,7th Ave/E 2nd St
160,41.808782,-89.669663,E 23rd St/Freeport Rd
160,41.843739,-89.655556,Fulfs Rd
362,41.762865,-89.681749,/E Rock Falls Rd
216,41.863949,-90.149057,17th St/
305,41.806121,-89.967025,S Cherry St
185,41.789834,-89.692939,/E 4th St/Brink Cir
246,41.792635,-89.681806,/E 4th St
160,41.632305,-89.787308,W 2nd St/N Joy St
160,41.810387,-89.706952,Katey Ct/Florence Ln
334,41.800512,-89.687748,/7th Ave
185,41.799571,-89.665830,/Asbury Ave
160,41.734644,-89.711682,Brass St/Morris St
185,41.781758,-89.689253,/E 3rd St
216,41.714362,-89.929974,6th Ave W/6th Ave N
160,41.895009,-89.937926,/Spring Valley Rd
305,41.799220,-89.684386,11th Ave/E 14th St
216,41.794738,-89.703595,Ave F
216,41.812880,-89.953466,/N Jackson St/Randall Dr
246,41.862041,-90.161199,16th Ave/8th St
160,41.807863,-90.171469,Ebson Rd
160,41.607098,-89.689374,Arrow Rd/Formally Il Rte 88/Hoover Rd
246,41.873278,-90.157894,/10th St
160,41.808627,-89.709750,W 23rd St/Ave J
185,41.720190,-89.920316,E 5th Ave/5th Ave E/E Commercial St
160,41.748200,-89.743840,/Ridge Rd
305,41.805624,-89.967319,E Park St/S Cherry St
246,41.861130,-90.164668,Deerview Ln
160,41.775901,-89.676875,Marty Ave/Louis Ln
160,41.790639,-89.709793,W 5th St/Ave J
605,41.865378,-90.165701,4th St/12th Ave
160,41.794250,-89.692859,E 9th St/Johnson Ave
160,41.790737,-89.720718,W 4th St
160,41.796447,-89.673640,/E 3rd St
160,41.761412,-89.639519,Melvin Dr
160,41.791120,-89.724258,/W Lincolnway
472,41.791081,-89.701320,W 6th St/Ave D
216,41.779263,-89.685538,/B Ave
216,41.797849,-89.673473,/E 4th St
160,41.902675,-90.119321,Railroad Ln
160,41.669176,-89.936783,Bishop Rd/Washington St/E Railroad St
160,41.774590,-89.673700,Mark Dr
185,41.857592,-90.152026,/21st Ave
185,41.794212,-90.204699,/Waller Rd
917,41.817808,-89.645839,43rd Ave/State Rte 2
362,41.791450,-89.690614,/E 5th St
246,41.723181,-89.912926,Pine Dr
216,41.808779,-89.679268,E Lynn Blvd/16th Ave
246,41.771608,-89.691526,/Civic Plaza Rd
631,41.765167,-89.693779,4th Ave
160,41.853710,-90.165676,4th St
160,41.685530,-89.775141,Star Rd
160,41.869487,-90.157018,7th Ave/11th St
185,41.804698,-89.690673,Thome Dr/5th Ave
472,41.767544,-89.689362,1st Ave/W 15th St
160,41.669766,-89.935028,Short Ave/Market St
160,41.759087,-89.689519,1st Ave
362,41.856568,-90.150834,23rd Ave
185,41.747542,-89.689594,/Formally Il Rte 88/Duden Rd
216,41.667656,-89.932883,Woodlawn Dr/A St
246,41.809825,-89.682294,E 24th St/12th Ave
185,41.787368,-89.692471,/2nd Ave
160,41.819163,-89.982484,Liberty/Lincoln Rd/Harmony St
160,41.670180,-89.924570,E 3rd St
160,41.794276,-89.700382,W 9th St
185,41.791451,-89.694519,2nd Ave/E 6th St
216,41.872373,-90.159534,/9th St
246,41.801578,-89.692736,Johnson Ave/E Le Fevre Rd
185,41.792370,-89.705538,W 7th St/Ave G
216,41.803609,-89.700848,W Miller Rd/Ave D
185,41.803946,-90.126338,/Parker Rd
246,41.801463,-89.716391,/W Le Fevre Rd
994,41.866283,-90.165700,11th Ave/4th St
276,41.779265,-89.681777,/Alleyway/D Ave
160,41.773179,-89.692451,Hudson Dr/5th Ave
246,41.863713,-90.163443,6th St/14th Ave
276,41.793344,-89.696192,E 8th St
216,41.800432,-89.646139,Bradley Ct
160,41.750989,-89.659615,/Duden Rd
160,41.804746,-89.672904,18th Pl/21st Ave
246,41.797061,-89.678870,E 6th St/15th Ave
160,41.876427,-90.157034,N 10th St/Maple Ln
334,41.797902,-89.685055,/E 13th St
216,41.810706,-89.706966,Katey Ct
334,41.804757,-89.964714,/E Park St/S Clinton St
185,41.789023,-89.691793,3rd Ave/E 3rd St
185,41.859272,-90.161186,8th St
246,41.799214,-89.697154,1st Ave/E 14th St
526,41.789031,-89.695678,/E 4th St
418,41.782973,-89.692003,E 1st St
185,41.698328,-89.935850,/Bishop Rd
160,41.642058,-89.992639,Springhill Rd
160,41.823052,-89.729539,Science Ridge Rd
185,41.795767,-89.674714,E 3rd St
246,41.777060,-89.693908,W 5th St/
160,41.626699,-90.147212,Moline Rd
305,41.861430,-90.160211,16th Pl
160,41.806135,-89.950383,E Lincolnway/Lincoln Rd
185,41.758105,-89.637391,I- 88/E Rock Falls Rd
276,41.796475,-89.674595,/17th Ave
216,41.787617,-90.222103,S Church St/3rd Ave S
216,41.774615,-89.681757,E 8th St/D Ave
160,41.712869,-90.131534,Sand Rd
160,41.736086,-89.893567,/I- 88
160,41.691391,-90.074078,Ellis Rd
305,41.800999,-89.686402,8th Ave/E 16th St
185,41.777384,-89.681750,Willy Ln/D Ave
276,41.790898,-89.698865,Ave B/W 6th St
185,41.814218,-89.679162,E 28th St/16th Ave
160,41.917535,-90.109761,Waller Rd
216,41.799715,-89.667907,Asbury Ave
216,41.866748,-90.163438,/6th St
499,41.800676,-89.669881,/Freeport Rd
418,41.651695,-90.073751,7th Ave
160,41.811045,-89.660023,31st Ave
362,41.802749,-89.683664,Long Ct/11th Ave
160,41.814614,-89.679153,16th Ave
160,41.697421,-90.131616,Sand Rd
362,41.790755,-89.704049,/Ave F
160,41.793119,-89.692161,4th Ave/E 7th St
160,41.655452,-90.076671,/7th St
216,41.788837,-89.692481,/E 3rd St
160,41.803875,-89.656953,32nd Ave
160,41.668233,-89.931192,East St/East Ave
185,41.810241,-89.656391,/E Lincoln Way
305,41.864158,-90.159543,9th St
276,41.856905,-90.165682,/4th St/22nd Ave
185,41.868859,-90.161184,8th Ave/8th St
160,41.829142,-90.160573,Ebson Rd/Waller Rd
216,41.812908,-89.652765,/E Lincoln Way
216,41.840893,-90.157769,/Waller Rd
185,41.790700,-89.693373,/E 5th St
185,41.793323,-89.704583,/W 8th St
160,41.770232,-89.685469,E 12th St/Hattie St
185,41.748114,-89.870024,I- 88
160,41.719623,-90.217960,/Fuller Rd
160,41.810382,-89.707809,Megan Ct/Florence Ln
185,41.776120,-89.704132,W 6th St
216,41.779666,-89.676516,/Dixon Ave
160,41.828746,-89.727237,/Hickory Hills Rd
276,41.797513,-89.673998,E 4th St/18th Ave
216,41.791820,-89.685305,8th Ave/E 4th St
216,41.762561,-89.631563,I- 88
185,41.795252,-89.695561,E 10th St/2nd Ave
246,41.866751,-90.162320,7th St
246,41.798227,-89.699744,Ave C/W 13th St
246,41.864271,-90.151283,14th St
334,41.805278,-89.679346,E 20th St/16th Ave
160,41.778815,-89.688074,A Ave/E 5th St
499,41.863508,-90.166663,3rd St
160,41.660078,-90.076064,Main St/12th Ave
160,41.772352,-89.737636,W Rock Falls Rd
216,41.720605,-89.973686,I- 88
185,41.797716,-89.705237,/Ave G
684,41.862447,-90.165702,/4th St
334,41.789731,-89.711260,W 4th St/Ave K
276,41.867988,-90.165696,4th St/9th Ave
216,41.751580,-89.694155,/I- 88
160,41.807385,-89.763257,Deets Rd
185,41.775255,-89.662558,/Dixon Ave
185,41.800602,-90.186658,/Waller Rd
185,41.792668,-89.702455,/Avenue E
160,41.817792,-89.991755,Garden Plain Rd
185,41.662323,-90.076127,12th St/13th St
390,41.780771,-89.691134,/W 3rd St
160,41.853862,-90.165676,4th St
160,41.816394,-89.980168,/W Lincoln Way
246,41.789832,-89.697893,W 5th St
216,41.791992,-89.700046,Ave C/W 7th St
160,41.810132,-89.980653,W Park St/Oak
631,41.808259,-89.965748,Railroad Ave/S Cherry St
246,41.792505,-89.700000,/Ave C
160,41.780506,-89.691663,W 3rd St/2nd Ave
305,41.791633,-89.697719,State Rte 40/E 7th St/Locust St
362,41.673543,-89.935779,/W Riverside Dr
216,41.871148,-90.154568,12th St
276,41.772390,-89.730966,/W Rock Falls Rd
160,41.804040,-90.174776,/Garden Plain Rd
246,41.790663,-89.702709,/Avenue E
362,41.793150,-89.697670,/E 8th St
160,41.865615,-90.151262,14th St/12th Ave
160,41.865489,-90.151263,/14th St
160,41.813317,-89.964259,N Genesee St/E High St
362,41.861513,-90.164672,Deerview Ln
605,41.760335,-89.704385,24th St/W 24th St
305,41.777071,-89.706059,W 5th St/12th Ave
160,41.815763,-89.785654,Tampico Rd/Hazel Rd
160,41.725124,-89.689746,/Formally Il Rte 88
276,41.872841,-90.164535,5th St/3rd Ave
160,41.655870,-90.081187,7th Ave
305,41.806860,-89.975569,/Florence
160,41.793577,-89.680287,E 4th St/12th Ave
276,41.793122,-89.684431,E 5th St/9th Ave
185,41.785467,-89.666715,Minkel St
185,41.811132,-89.708898,/W Lynn Blvd
334,41.809413,-89.683435,11th Ave/E Lynn Blvd
185,41.776314,-89.709908,/15th Ave
334,41.866323,-90.154583,12th St/11th Ave
246,41.816803,-89.649475,30th St
160,41.783817,-89.667493,Thomas St/Gafield St
185,41.753765,-89.763221,I- 88
185,41.797686,-89.907220,Lincoln Rd
658,41.862035,-90.165703,4th St/16th Ave
160,41.874558,-90.156216,N 11 St/1st Ave/N 11th St
185,41.753435,-89.763213,I- 88
216,41.802918,-89.965784,E Winfield St/S Clinton St
216,41.778238,-89.681765,Alleyway/D Ave
216,41.867990,-90.167929,1st St/9th Ave
472,41.802860,-89.696928,1st Ave
160,41.772543,-89.716529,Prophet Rd
160,41.783752,-89.706369,Ave G
185,41.790630,-89.681320,Broadway Ave
185,41.807280,-89.972332,S Grape St/W Park St
710,41.803630,-89.690680,E Miller Rd/5th Ave
160,41.797191,-89.691445,E 12th St
185,41.790497,-89.700175,Ave C/
160,41.790502,-89.707788,/W 5th St
160,41.797005,-89.993709,Prairie Center Rd
334,41.651808,-90.076434,6th Ave/5th St
334,41.863734,-90.159545,9th St/14th Ave
160,41.901475,-89.638442,Pilgrim Rd
185,41.689853,-90.082976,I- 88
246,41.811871,-89.972516,W Lincoln Way
276,41.762141,-89.690924,W 21st St/Lindy Ave
185,41.858659,-90.150318,20th Ave/Elston Rd
305,41.802011,-89.680554,/E Le Fevre Rd
160,41.802022,-89.707335,/Shinkle Ave
216,41.805702,-89.965713,/S Madison St
160,41.778805,-89.687390,/E 5th St
160,41.627685,-89.783833,/E Kimball St
160,41.798799,-89.672019,E 4th St/20th Ave
160,41.774710,-89.674365,Mark Dr/Wiker Dr
160,41.662534,-90.075565,12th St/
160,41.761499,-89.638847,Melvin Dr
160,41.776465,-89.687425,E 7th St
216,41.804208,-89.969678,E Winfield St/S Genesee St/W Winfield St
160,41.792407,-89.715820,W 6th St/Woodburn Ave
276,41.651270,-90.073683,4th St/7th Ave
160,41.768987,-89.759970,Walnut St
160,41.805150,-89.656301,E 19th St
246,41.795225,-89.692167,4th Ave/E 10th St
445,41.789961,-89.688323,/E 3rd St
216,41.804697,-89.667001,Merrill St/Crandall St
305,41.796517,-89.675580,/E 4th St
362,41.803431,-89.664983,/E Lincoln Way
216,41.759515,-89.671668,E Rock Falls Rd
160,41.764348,-89.776496,Como Rd
216,41.784025,-89.674878,/Emmons Ave
160,41.795214,-89.671437,E 1st St/18th Ave
160,41.796307,-89.685345,/Broadway/E 11th St
246,41.793262,-89.693651,/E 8th St
160,41.859618,-90.152725,Waller Rd/18th Ave
185,41.768436,-89.691321,/W 14th St
185,41.804151,-89.688984,6th Ave/
160,41.867244,-90.148644,10th Ave/16th St
160,41.785251,-89.759510,/State Rte 2
185,41.796029,-90.204717,Vans Rd
216,41.820949,-89.679051,E 35th St/16th Ave
185,41.869057,-90.149624,15th St/8th Ave
246,41.792922,-89.692886,E 7th St
246,41.804175,-89.736304,Westwood Dr
246,41.774514,-89.709218,Prophetstown Rd
362,41.800024,-89.669691,E 13th St/E Lincoln Way/Freeport Rd
160,41.733706,-89.708738,/Buell Rd
246,41.764142,-89.707213,W 19th St/13th Ave
160,41.782883,-89.667950,Swallow St
160,41.819215,-89.642091,45th Ave
246,41.777830,-89.703514,Kane St/11th Ave
334,41.803738,-89.964578,/Portland Ave
160,41.593229,-90.089435,/Springhill Rd
185,41.865413,-90.159542,9th St/12th Ave
160,41.865072,-89.881596,Elm Rd
160,41.874554,-90.157866,10th St/N 10th St/1st Ave
305,41.808387,-89.968581,S Base St/W Wall St
390,41.809440,-89.682333,12th Ave
216,41.840661,-90.163351,Clinton Rd/Bridge Approach Rd
160,41.793596,-89.715818,/Woodburn Ave
160,41.629514,-89.787322,S Joy St/Glassburn St
445,41.862078,-90.156259,11th St/16th Ave
160,41.658640,-90.084220,8th Ave/13th St
160,41.828199,-89.678029,19th Ave
160,41.792408,-89.718204,Dillon Ave/W 6th St
160,41.808333,-90.170661,Ebson Rd
160,41.862117,-90.150581,/16th Ave
185,41.791134,-90.206849,Garret St/Kickapoo Ct
185,41.751082,-89.757178,/Bottom Rd
305,41.801020,-89.684216,11th Ave/E 16th St
185,41.784443,-90.227892,9th Ave S/S Church St
160,41.790331,-89.686938,/E 3rd St
160,41.812746,-89.971695,Towne St
418,41.798701,-89.699741,Ave C
160,41.766607,-89.705428,Roberts St/12th Ave
185,41.813483,-89.952450,N Jackson St
160,41.790271,-90.210236,Riverview Dr
185,41.857581,-90.153166,/21st Ave
185,41.786515,-90.226922,Water St/7th Ave S
276,41.793021,-89.693735,3rd Ave
216,41.807517,-89.965932,/E Wall St
160,41.666482,-89.931715,Frontier Hollow
216,41.787342,-90.218920,/1st Ave
185,41.858733,-90.114374,/Fulton Rd
216,41.778157,-89.671520,Heinze Dr/Dixon Ave
185,41.781595,-89.689571,E 3rd St
216,41.773486,-89.692453,W 8th St/5th Ave
160,41.796260,-89.732094,Douglas Dr
160,41.775420,-89.706596,/Prophetstown Rd/W 6th St
216,41.776261,-89.672587,Heinze Dr
185,41.796051,-89.680481,/E 6th St
185,41.777809,-89.689442,State Rte 40/E 6th St/1st Ave
216,41.763855,-89.780881,Como Rd
246,41.797274,-89.697991,/E 12th St
216,41.664605,-90.072097,Moline Rd
160,41.795296,-89.679619,/E 5th St
160,41.846141,-89.649566,/Polo Rd
185,41.863747,-90.156254,11th St/14th Ave
160,41.781163,-89.686405,Goodell Ct/E 4th St
334,41.797933,-89.679897,E 13th St/15th Ave
160,41.736417,-89.690558,/W Thome Rd
160,41.656832,-90.083736,12th St
185,41.766511,-89.691965,W 16th St/W 16th Rd
216,41.812856,-89.955256,Coralyn Dr
305,41.807710,-89.973621,W Park St/S Hall St
246,41.756247,-89.771474,I- 88
362,41.799999,-89.689072,E 15th St/6th Ave
160,41.859387,-90.152890,Waller Rd/13th St
246,41.793069,-89.701077,W 8th St/Ave D
185,41.805742,-89.687076,Greenridge Dr/Ellen Way
160,41.874527,-90.164371,N 5th St/1st Ave
160,41.795260,-89.698798,E 10th St/Ave B/W 10th St
246,41.787153,-89.694803,/E 2nd St
185,41.789397,-89.686483,/E 2nd St
246,41.769255,-89.702047,10th Ave
160,41.790717,-89.720544,W 4th St/Maple Ln
160,41.795244,-89.705275,W 10th St/Ave G
246,41.805837,-89.676009,E 19th St
472,41.767241,-89.694881,W Rock Falls Rd/5th Ave
160,41.795757,-89.703586,/Ave F
418,41.801562,-89.696322,/E Le Fevre Rd
160,41.760690,-89.675206,Industrial Park Rd/E Rock Falls Rd
160,41.867185,-90.159540,9th St/10th Ave
160,41.809468,-89.773174,Willow Ct/Empire Ave
246,41.802514,-89.704895,/W 18th St/Ave G
216,41.803985,-89.664278,E Lincoln Way
160,41.761638,-89.678048,/E Rock Falls Rd
276,41.791375,-89.705654,W 6th St/Ave G
276,41.723366,-89.911913,Cedar Ln
552,41.780196,-89.689929,W 4th St/E 4th St/1st Ave
472,41.809638,-89.967836,N Base St/W Main St
305,41.803789,-89.664529,/E Lincoln Way
185,41.770757,-89.708627,Bennett Dr/14th Ave
160,41.858474,-90.163411,6th St
216,41.783308,-89.682400,Ada St/D Ave
160,41.900903,-90.120098,/Waller Rd
160,41.878066,-90.159516,9th St/Valley View Dr
276,41.755951,-89.771618,I- 88
216,41.796260,-89.702254,Avenue E/W 11th St
160,41.930044,-89.628907,County Line Rd/W Elm Rd
185,41.810342,-89.656254,/E Lincoln Way
160,41.795324,-89.673330,17th Ave/E 2nd St
160,41.802281,-89.783029,/Emerson Rd
160,41.805663,-89.656953,32nd Ave
445,41.797305,-89.686437,E 12th St/8th Ave
160,41.771883,-89.968065,Bunker Hill Rd
160,41.769014,-89.709955,/Breckinridge Dr
160,41.867186,-90.157882,10th St/10th Ave
160,41.790152,-90.210705,Riverview Dr
160,41.766443,-89.707211,13th Ave
160,41.874576,-90.153085,N 13th St/1st Ave
160,41.899256,-89.802124,/S Main
246,41.795232,-89.692848,E 10th St/Johnson Ave
160,41.735225,-89.693993,Flock Dr/Woodside Dr
160,41.812230,-89.693841,E 25th St/3rd Ave
160,41.732742,-89.733211,/Knief Rd
185,41.800615,-89.700869,/Ave D
472,41.766055,-89.689364,/1st Ave
246,41.807274,-89.669711,/Freeport Rd
185,41.758114,-89.643278,E Rock Falls Rd
305,41.767921,-89.704633,Flock Ave/Suzanne St
276,41.817283,-89.644689,/43rd Ave
160,41.815240,-90.114606,Hazel Rd
160,41.815036,-89.949639,N Jackson St/Hazel Rd
185,41.808440,-90.059467,/Garden Plain Rd
334,41.655386,-90.080241,7th Ave/Main St
305,41.816767,-89.967610,Norrish Rd
246,41.868081,-90.147591,17th St/9th Ave
276,41.751244,-89.689594,/State Rte 40/Formally Il Rte 88/I- 88
160,41.845672,-90.058365,/Lincoln Rd
305,41.773714,-89.692453,Stanley Ct/5th Ave
160,41.672461,-89.932297,/Park Ave/E Riverside Dr
185,41.868427,-90.161186,8th St
185,41.768585,-89.698910,8th Ave/W Rock Falls Rd
185,41.793539,-89.694755,/E 8th St
216,41.754487,-89.765635,/I- 88
160,41.867600,-90.161213,/8th St
334,41.788468,-89.693856,/E 3rd St
160,41.801387,-89.724922,W Le Fevre Rd
185,41.806279,-89.975945,/W Winfield St
216,41.772197,-89.692489,Edon Park Dr/5th Ave
216,41.797904,-89.684396,11th Ave/E 13th St
216,41.772406,-89.724811,W Rock Falls Rd
160,41.811274,-90.167504,/Waller Rd
160,41.812589,-89.963242,N Cherry St
160,41.797947,-89.969283,Genesee Ave/S Genesee St
362,41.780439,-89.689424,/E 4th St
160,41.798711,-89.671698,E 3rd St
216,41.779549,-89.675905,/Dixon Ave
276,41.806430,-89.686511,21st St/Ellen Way/9th Ave
160,41.735468,-89.711681,Larson St/Brass St
246,41.859713,-90.163421,6th St/18th Ave
246,41.870168,-90.159530,6th Ave/9th St
160,41.810495,-89.970452,N Grape St/W Main St
418,41.808010,-89.964360,S Madison St/N Madison St
160,41.781168,-89.687626,E 4th St/Smith Ct
160,41.828976,-90.161061,Ebson Rd
160,41.780901,-89.930436,Feldman Rd
216,41.789375,-89.705903,W 4th St/Ave G
246,41.777970,-89.682878,Mason Ave
185,41.772455,-89.804921,Troy Rd/Coleta Rd
445,41.865854,-90.154586,12th St/
276,41.872374,-90.158982,4th Ave/
579,41.867144,-90.167084,/10th Ave
418,41.791758,-89.703931,Ave F
160,41.821702,-89.639066,State Rte 2
216,41.774627,-89.683489,C Ave/E 8th St
160,41.867242,-90.147259,10th Ave
185,41.801089,-89.674481,20th Ave
160,41.772394,-89.727384,/W Rock Falls Rd
160,41.838578,-90.168420,Clinton Rd
160,41.781939,-89.667428,Canary St/Verio Ct
276,41.798693,-89.700877,/Ave D
305,41.801945,-89.684188,11th Ave/E Le Fevre Rd
160,41.858553,-89.713755,Quinn Rd/Pennington Rd
216,41.665315,-89.944822,Sunset Ln
276,41.800985,-89.687735,7th Ave/E 16th St
160,41.871905,-90.156142,4th Ave/11th St
362,41.788136,-89.698898,W 3rd St/Ave B
160,41.843732,-89.654989,/Fulfs Rd
185,41.790320,-89.690863,4th Ave/E 4th St
160,41.606650,-89.896293,Yager Rd
160,41.930240,-89.831162,Clark Rd
216,41.759769,-89.672460,E Rock Falls Rd
160,41.825994,-89.669294,/Freeport Rd
160,41.808773,-89.673976,E 23rd St/20th Ave
160,41.817362,-89.980849,/Lincoln Rd/W Lincoln Way
160,41.780511,-89.687626,/Smith Ct
160,41.887303,-89.676362,Penrose Rd
160,41.672957,-89.939182,Ferry St/W 2nd St/W 2nd Ave
185,41.716333,-89.928335,4th Ave W/W Commercial St
334,41.807505,-89.957458,N Jackson St/E Lincolnway
185,41.812199,-89.961623,E High Rd
160,41.716849,-89.928650,4th Ave N/4th Ave W
185,41.685417,-90.094260,Albany Rd/Star Rd
246,41.863328,-90.157908,10th St
160,41.781971,-90.228392,Ridge St/11th Ave S
185,41.813312,-89.958799,Keith Dr
160,41.805639,-89.974028,W Winfield St
160,41.794893,-89.731698,Douglas Dr
445,41.806096,-89.690040,E 19th St/Thome Dr
185,41.794818,-89.685237,9th Ave
160,41.800958,-90.131883,/Garden Plain Rd
160,41.768624,-89.725978,Prophet Rd/Yates St
160,41.803102,-89.957466,/Maple Ave
160,41.854314,-90.072066,/Lincoln Rd
160,41.822646,-89.988014,Carroll Rd/
216,41.766991,-89.690910,/Lindy Ave
160,41.804758,-89.671689,18th Pl/22nd Ave
185,41.689121,-90.097306,I- 88/Albany Rd
658,41.809265,-89.966711,E Main St/W Main St/N Genesee St
160,41.778758,-89.679768,Avenue E/E 5th St
160,41.799811,-89.968449,Academic Dr
684,41.808375,-89.961964,/E Lincolnway
276,41.800141,-89.693388,E 15th St/
160,41.795191,-89.711563,/W 10th St
246,41.868842,-90.164575,8th Ave/5th St
160,41.796627,-89.930494,/Feldman Rd
390,41.652651,-90.075681,7th Ave/5th St
160,41.777823,-89.684217,C Ave/E 6th St
160,41.808770,-89.653733,/E 23rd St
185,41.868861,-90.157872,10th St/8th Ave
216,41.780682,-89.693509,/3rd Ave
185,41.803150,-90.183251,/Vans Rd
246,41.798229,-89.694781,/E 13th St
216,41.754209,-89.765819,/I- 88
160,41.769376,-89.696492,W 14th St/W 13th St
185,41.801933,-89.715766,Woodburn Ave
526,41.862867,-90.164567,5th St/15th Ave
160,41.685441,-90.083716,Star Rd/Poplar Rd
334,41.779631,-89.693370,W 3rd St
160,41.815111,-89.957898,Anthony Ct
185,41.795259,-89.699769,Ave C/W 10th St
334,41.809160,-89.682479,E Lynn Blvd
160,41.810123,-89.652985,River Ridge Rd
276,41.797261,-89.695549,E 12th St/2nd Ave
276,41.793653,-90.207000,Waller Rd/Garret St/E Main St
684,41.867145,-90.166658,3rd St/10th Ave
160,41.796363,-89.901348,/Lincoln Rd
160,41.803473,-89.704884,W 19th St/Ave G
185,41.860531,-90.160695,17th Ave
216,41.652410,-90.077607,6th Ave/6th St
160,41.799314,-89.671131,/E 4th St
305,41.864548,-90.165705,4th St/13th Ave
276,41.814523,-89.978368,W Lincoln Way
160,41.788148,-90.221151,S Church St/2nd Ave S
216,41.751584,-89.665395,McNeil Rd/I- 88
276,41.776949,-89.693363,/Culver St/5th Ave
160,41.720448,-89.966830,/Crosby Rd
216,41.789962,-89.684418,8th Ave/E 2nd St
305,41.794261,-89.694071,E 9th St/3rd Ave
216,41.860113,-90.161196,/8th St
246,41.795758,-89.699770,Ave C
160,41.762410,-89.703552,11th Ave/W 21st St
160,41.666803,-89.930149,Woodlawn Dr/Maple St
334,41.788038,-89.697497,A Ave/W 3rd St
216,41.871061,-90.156244,11th St
185,41.813638,-89.958064,Christopher St
160,41.865842,-90.157890,/10th St
160,41.718419,-89.651235,Polo Rd/Grennan Rd
185,41.871964,-90.159528,9th St
246,41.867987,-90.166670,3rd St/9th Ave
276,41.792074,-89.701201,W 7th St/Ave D
246,41.871654,-90.157900,10th St
216,41.804525,-89.962649,E Park St
185,41.678115,-89.941560,Mosher Dr/Grove St
305,41.805827,-89.678033,E 19th St/17th Ave
160,41.808758,-89.655674,E 23rd St
246,41.803407,-89.683470,11th Ave/E 18th St
276,41.794254,-89.696369,E 9th St
276,41.787898,-89.692069,/E 2nd St
552,41.867154,-90.165701,4th St/10th Ave
185,41.879931,-90.142691,Schafer Rd/Cattail Rd
216,41.864602,-90.156250,13th Ave/11th St
305,41.796170,-89.689648,Wilson Ave/E 11th St
185,41.864227,-90.170052,State Rte 136
418,41.800250,-89.679453,E 15th St/16th Ave
185,41.685909,-90.094743,/Albany Rd
839,41.807563,-89.961197,Bartlet/E Main St
418,41.776480,-89.688774,/E 7th St
160,41.680326,-90.131533,I- 88/Sand Rd
216,41.763692,-89.692557,W 19th St/3rd Ave
246,41.772472,-89.696470,6th Ave/W 10th St
246,41.797616,-89.675888,E 5th St/17th Ave
276,41.808973,-89.681743,E Lynn Blvd
762,41.805846,-89.671662,E 19th St/22nd Ave
276,41.688838,-90.090084,I- 88
160,41.809610,-89.684186,E Lynn Blvd
390,41.860521,-90.164653,Deerview Ln/17th Ave
160,41.772354,-89.740551,/W Rock Falls Rd
160,41.785850,-89.683376,/Sewards Park Rd
334,41.797898,-89.682114,E 13th St/13th Ave
185,41.771365,-89.781143,US Hwy 30/Lincoln Rd/Como Rd
160,41.867174,-90.162325,10th Ave/7th St
276,41.631289,-89.784576,S Benton St/E Market St/N Benton St
276,41.806392,-89.966071,E Morris St
185,41.789499,-89.700213,Ave C
160,41.869495,-90.157866,10th St/7th Ave
160,41.671823,-89.931820,High St
445,41.797891,-89.685708,E 13th St/Waters Ct
305,41.778823,-89.688729,/E 5th St
472,41.808616,-89.710857,/W 23rd St
160,41.823661,-89.688617,/Hoover Rd
160,41.808983,-89.775305,/Highland Dr/Empire Ave
160,41.862162,-90.151652,14th St/16th Ave
160,41.861627,-90.150403,Elston Rd
160,41.689261,-90.084479,/I- 88
185,41.771650,-89.692497,W 11th St/5th Ave
160,41.862296,-90.151886,16th Ave
160,41.778076,-89.670089,Martin Rd
276,41.803610,-89.699704,Ave C/W Miller Rd
276,41.839570,-90.158088,Waller Rd
160,41.832247,-89.729188,/Timber Dr
246,41.769793,-89.703522,/11th Ave
160,41.733080,-89.732938,/Riverdale Rd
160,41.775618,-89.651562,/E Hill Dr
160,41.810487,-89.959929,Oakland Ave
390,41.783155,-89.691569,E 1st St
185,41.809128,-89.956574,N Jackson St
160,41.811976,-89.963607,N Cherry St/Johnson St
160,41.761255,-89.693819,/4th Ave
185,41.812141,-89.679198,/16th Ave
160,41.808267,-89.971749,S Grape St/W Morris St
185,41.664744,-90.142487,Cordova Rd/I- 88
216,41.791066,-89.723763,/W Lincolnway
185,41.689088,-90.107227,I- 88
276,41.767505,-89.691632,/W 15th St
276,41.810431,-89.698576,W Lynn Blvd/E Lynn Blvd/Locust St
305,41.803636,-89.688983,6th Ave/E Miller Rd
160,41.799165,-89.703550,W 14th St/Ave F
216,41.708177,-90.025262,/I- 88
246,41.770823,-89.707893,/Bennett Dr
160,41.814483,-89.648212,40th Ave
160,41.782702,-89.677366,/Haskell Ave
185,41.812049,-89.969513,N Grape St/Towne St
185,41.803972,-90.126114,Yale Rd/Parker Rd
246,41.862042,-90.149266,/16th Ave
216,41.807157,-89.964859,E Wall St/S Madison St
160,41.927352,-90.104711,Waller Rd
160,41.813514,-89.970190,Leroy St/Greenwood Dr/Prospect St
160,41.804807,-89.958787,Pine St/S Jackson St
216,41.769369,-89.700539,/9th Ave
334,41.794339,-89.687834,E 9th St/7th Ave
216,41.815417,-89.698488,Locust St
246,41.810059,-89.969159,N Orange St/W Main St
160,41.730899,-89.688707,Don Juan Dr/Terra Vista Dr
160,41.790711,-89.685542,/E 3rd St
185,41.667451,-89.932974,A St
160,41.790625,-89.719744,/W 4th St
185,41.716181,-89.929992,4th Ave N/6th Ave N
160,41.867178,-90.161205,10th Ave/8th St
160,41.812880,-89.959467,Badger Ct
334,41.799649,-89.700872,/Ave D
160,41.801355,-89.729995,W Le Fevre Rd
246,41.811235,-89.966904,/N Base St
185,41.670180,-89.939553,W Railroad St/Locust St
160,41.845135,-90.152657,/Clinton Rd
160,41.858865,-90.163414,6th St/19th Ave
160,41.788883,-89.710004,W 3rd St/Ave J
216,41.779264,-89.686886,Allen Ave
160,41.832316,-89.727145,Timber Dr/Hickory Hills Rd
160,41.800007,-89.711520,/W 15th St
160,41.772993,-89.655736,Dixon Ave/Hoffman Dr
185,41.801562,-89.699728,Ave C/W Le Fevre Rd
185,41.805127,-89.713602,/Oak Grove Ave
276,41.862878,-90.162337,15th Ave/7th St
160,41.785840,-89.670054,/Martin Rd
160,41.857940,-89.687860,Hoover Rd
185,41.792645,-89.709636,W 7th St/Ave J
160,41.868085,-90.147081,9th Ave
160,41.887316,-89.678650,Penrose Rd
185,41.789579,-90.214832,5th Ave N/N Lime St
526,41.805592,-89.696762,/1st Ave
160,41.627470,-89.843667,Blue Goose Rd/Hahnaman Rd
160,41.781760,-89.685181,/B Ave
526,41.865381,-90.166655,/3rd St/12th Ave
160,41.884029,-90.062311,/Union Grove Rd
246,41.792391,-89.687135,7th Ave/E 5th St
160,41.791744,-90.214859,E Main St
160,41.770542,-89.726066,A St/Yates St
160,41.811268,-89.681331,E 25th St
246,41.786478,-89.711643,Ave K
246,41.654803,-90.079871,/7th Ave
185,41.770781,-89.690818,/W 11th St
216,41.777070,-89.703512,11th Ave/W 5th St
216,41.772435,-89.760812,US Hwy 30
185,41.809942,-89.679250,16th Ave
246,41.798260,-89.697960,E 13th St
185,41.784969,-90.226935,S Church St/8th Ave S
216,41.784674,-89.670049,Lincoln St/Martin Rd
160,41.807647,-89.762983,/Deets Rd
160,41.868561,-89.668495,Freeport Rd
216,41.807827,-89.684638,10th Ave
160,41.808851,-89.977068,Orchard Ln/W Park St
160,41.801541,-89.706781,W Le Fevre Rd
276,41.770514,-89.703512,/11th Ave
185,41.667601,-90.083313,Albany Rd
305,41.671232,-89.936730,/W 3rd St
160,41.770019,-89.688701,/E 12th St
334,41.808774,-89.698616,E 23rd St/W 23rd St/Locust St
216,41.773511,-89.689343,E 9th St/1st Ave
160,41.805289,-89.958349,S Jackson St
160,41.813023,-89.688817,6th Ave
160,41.785476,-89.664867,Minkel St
216,41.668445,-89.942538,W 6th St/Emery St
216,41.633160,-89.687683,Deer Valley Dr
185,41.868016,-90.161199,9th Ave/8th St
160,41.711172,-89.928109,2nd St W
246,41.812154,-89.653513,/E Lincoln Way
160,41.800714,-89.676855,18th Ave
185,41.672636,-89.933015,E Riverside Dr
216,41.779219,-89.761166,Galt Rd
216,41.811773,-89.697905,E 25th St
160,41.808626,-89.690576,/5th Ave
160,41.756616,-89.662340,Walter St/Kauffman St
185,41.887032,-90.132024,Penrose Rd
185,41.803895,-89.678063,17th Ave/E 18th St
160,41.629989,-89.787312,/S Joy St
276,41.808799,-89.680376,E Lynn Blvd/15th Ave
185,41.773481,-89.696491,6th Ave/W 8th St
216,41.781904,-89.706245,/Ave G Island/Ave G
185,41.772504,-89.646267,Parkview Dr/Middle Rd
185,41.791131,-89.709728,/Ave J
216,41.857334,-90.163405,/6th St
216,41.810448,-89.688853,6th Ave/E Lynn Blvd
216,41.768050,-89.700530,9th Ave
160,41.810384,-89.707515,Strotton Dr/Florence Ln
160,41.818553,-89.966183,/Norrish Rd
216,41.777682,-89.709892,15th Ave
246,41.803624,-89.696810,E Miller Rd/1st Ave
160,41.773864,-90.178749,/Kennedy Rd
160,41.792811,-89.712239,W 7th St/Ave L
216,41.784746,-89.692875,1st Ave
216,41.791174,-89.702654,Avenue E/W 6th St
246,41.762863,-89.703551,/11th Ave
334,41.786051,-89.693494,1st Ave
160,41.765525,-89.707211,/13th Ave
185,41.666208,-89.942730,/Jackson St/8th St
160,41.795386,-89.964391,Crosby Rd
305,41.723425,-89.911211,Oak Dr/Cedar Ln
216,41.789776,-89.685109,E 2nd St
185,41.671907,-89.937205,/Lafayette St
276,41.796245,-89.694762,/E 11th St
160,41.788554,-89.705244,/W 3rd St
305,41.865400,-90.161192,8th St/12th Ave
160,41.760405,-89.693913,4th Ave
246,41.779805,-89.682947,/Dixon Ave
390,41.856571,-90.150262,23rd Ave/Elston Rd
160,41.804889,-89.764579,/Emerson Rd
160,41.590898,-89.988002,/Washington Rd
276,41.792575,-89.701141,/Ave D
390,41.799672,-89.699733,Ave C/
276,41.826501,-89.680091,40th St
216,41.811036,-89.689651,E 24th St
246,41.811944,-89.972758,Olive St/W Lincoln Way
631,41.801018,-89.668494,/North St
160,41.789162,-89.702899,W 4th St/Avenue E
185,41.599138,-89.689293,/Formally Il Rte 88
185,41.809107,-89.705655,Coventry Ct
276,41.868816,-90.166653,3rd St/8th Ave
276,41.866326,-90.152951,11th Ave/13th St
246,41.772482,-89.697534,7th Ave/W 10th St
185,41.783725,-89.723556,Ave G Island
246,41.781054,-89.693850,3rd Ave/W 2nd St
305,41.865817,-90.163442,/6th St
276,41.797879,-89.687789,E 13th St/7th Ave
160,41.786599,-90.224011,S Church St/5th Ave S/W Church St
160,41.854891,-90.153109,12th St
418,41.778541,-89.694853,/5th Ave
160,41.869958,-89.721496,Maple Dr/Ada St
160,41.794513,-89.678778,E 4th St
160,41.862114,-90.151513,16th Ave
216,41.775906,-89.706712,/Not A St Private Dr
185,41.801095,-89.700860,W 16th St/Ave D
160,41.730967,-89.791694,/Prophet Rd
968,41.808183,-89.960933,Bartlet/E Lincolnway
160,41.693062,-90.099867,Stropes Rd/Albany Rd
216,41.784663,-89.673061,Lincoln St/Kloss St
160,41.677441,-89.943384,North St/Birch St
185,41.685852,-90.124862,/Star Rd
276,41.790255,-89.704118,W 5th St/Ave F
276,41.864570,-90.161186,13th Ave/8th St
839,41.808430,-89.965640,N Cherry St/S Cherry St
185,41.666988,-90.074921,Fairview Ct
526,41.781800,-89.691378,/1st Ave
305,41.803451,-89.709623,W 19th St
185,41.770941,-89.687457,E 11th St
160,41.792761,-89.711338,W 7th St
160,41.815155,-89.949424,Hazel Rd
185,41.794250,-89.706633,H Ave/W 9th St
246,41.788877,-90.221877,S Main St/2nd Ave S
185,41.781625,-89.689506,A Ave/E 3rd St
160,41.793078,-89.807957,Emerson Rd
276,41.770845,-89.693736,A Ct
185,41.806542,-89.968316,/S Genesee St
246,41.863739,-90.157905,10th St/14th Ave
160,41.789640,-89.720618,/W 3rd St
185,41.799059,-89.727792,S Lynn Blvd
216,41.858700,-90.148705,20th Ave
185,41.776460,-89.683706,/C Ave/E 7th St
185,41.797283,-89.676427,/E 5th St
160,41.667807,-90.073236,Sunny Shore Ct
216,41.779657,-89.676455,Dixon Ave
246,41.815785,-89.979643,/W Lincoln Way
499,41.779766,-89.689667,1st Ave/Dixon Ave
246,41.714391,-89.931330,6th Ave W/W Commercial St
160,41.770749,-89.712620,Bennett Dr
160,41.804266,-89.940308,Bishop Rd/Lincoln Rd
160,41.805074,-89.764112,/Mill St
185,41.779803,-89.684223,C Ave/Dixon Ave
160,41.793938,-89.736336,W 9th St/Oak Ave
160,41.681175,-90.131525,Sand Rd
160,41.750988,-89.659296,Duden Rd
160,41.809586,-89.684093,E Lynn Blvd
185,41.787138,-90.213297,4th Ave N/Shady Acres/Sycamore St
185,41.723288,-89.963863,I- 88
160,41.794121,-90.211094,10th Ave N/N Water St
160,41.775614,-89.652161,/E Hill Dr
185,41.776459,-89.683808,E 7th St
160,41.768609,-89.708227,/14th St
160,41.796350,-89.732093,Douglas Dr
185,41.799094,-89.677527,/E 13th St/17th Ave
185,41.775215,-89.760715,/Galt Rd
216,41.813672,-89.955186,Coralyn Dr/Christopher St
216,41.806243,-89.963850,/S Clinton St
216,41.864995,-90.159539,/9th St
246,41.759331,-89.782972,/I- 88
216,41.729790,-89.689727,Buena Vista Dr/Formally Il Rte 88
160,41.772512,-89.684073,E 10th St/C Ave
160,41.630393,-89.787275,/S Joy St
160,41.751242,-89.684200,I- 88
160,41.751266,-89.659335,I- 88
160,41.771425,-89.717564,Prophet Rd
185,41.758106,-89.642498,Melvin Rd/E Rock Falls Rd
160,41.789956,-89.835872,/Lincoln Rd
160,41.794247,-89.692624,/E 9th St
160,41.815269,-89.949196,/Hazel Rd
160,41.732769,-89.736653,Knief Rd
160,41.655127,-90.085273,12th St/Highway Ct
246,41.809128,-89.688883,6th Ave/Grobe Rd
160,41.800939,-90.129783,/Garden Plain Rd
160,41.807221,-89.688281,7th Ave
160,41.790273,-90.206688,Chippewa Trl/Garret St
185,41.866785,-90.156228,/11th St
246,41.790057,-90.213627,N Lime St/6th Ave N
160,41.869508,-90.154574,12th St/7th Ave
160,41.660817,-90.078556,12th St/12th Ave
305,41.869497,-90.159531,9th St/7th Ave
160,41.794224,-89.716996,W 9th St/Griswold Ave
185,41.868067,-90.151275,14th St/9th Ave
418,41.803692,-89.713605,Oak Grove Ave
160,41.790251,-90.215399,5th Ave N/N Bluff St
160,41.795175,-89.683802,11th Ave
160,41.775575,-89.707357,13th Ave/W 6th St
160,41.866771,-90.159544,9th St/
160,41.789252,-89.704234,W 4th St/Ave F
246,41.790642,-90.209355,10th Ave N/Riverview Dr
305,41.792004,-89.692451,E 6th St
445,41.808495,-89.962530,N Clinton St/E Lincolnway
445,41.859715,-90.149180,16th St/18th Ave
216,41.870574,-90.154563,6th Ave/12th St
160,41.867599,-90.159538,/9th St
185,41.790886,-89.688771,E 4th St
216,41.778816,-89.676641,Marsha Ln/Louis Ln
160,41.753001,-89.643386,I- 88
246,41.767911,-89.705410,Suzanne St/12th Ave
216,41.817206,-89.698452,Locust St
185,41.791734,-89.711007,W 6th St/Ave K
160,41.875761,-90.156636,Maple Ln
185,41.866349,-90.150296,11th Ave//Suncrest Dr
185,41.667346,-89.942238,Jackson St/Emery St
216,41.756761,-89.773204,I- 88
216,41.868893,-90.152934,8th Ave/13th St
160,41.692955,-90.216478,/Stropes Rd
160,41.726451,-89.950750,/I- 88
185,41.845566,-90.151403,/Clinton Rd
160,41.796322,-89.671769,E 2nd St
160,41.819809,-89.645993,30th St
160,41.805719,-89.768979,Emerson Rd
445,41.815386,-89.649402,40th Ave/E Lincoln Way/State Rte 2/Polo Rd
658,41.801639,-89.666402,E 15th St/
246,41.793245,-89.696934,E 8th St/1st Ave
276,41.862584,-90.147526,/Waller Rd
334,41.806664,-89.965145,S Madison St
160,41.630170,-89.787290,/S Joy St
160,41.783444,-89.667514,Thomas St
185,41.780490,-89.686385,Goodell Ct
305,41.801093,-89.684218,11th Ave/E 16th St
185,41.759464,-89.689506,/1st Ave
160,41.862907,-90.157902,10th St/15th Ave
216,41.767317,-89.705417,/12th Ave
246,41.649935,-90.077007,5th Ave
185,41.795108,-89.675774,/E 3rd St
472,41.799179,-89.699739,Ave C/W 14th St
246,41.812729,-89.652746,/E Lincoln Way
185,41.816714,-89.643431,/43rd Ave
185,41.688788,-90.102197,/I- 88
160,41.771757,-90.017830,/Bunker Hill Rd
160,41.779275,-89.674941,Emmons Ave/Dixon Ave
185,41.807929,-89.693736,3rd Ave
185,41.664836,-90.142911,Cordova Rd/I- 88
160,41.722514,-89.967101,I- 88/Crosby Rd
185,41.794342,-89.686483,E 9th St/8th Ave
160,41.806335,-89.695401,2nd Ave
472,41.791582,-89.701263,/Ave D
216,41.668165,-89.946742,Esta Dr
216,41.630813,-89.787293,/S Joy St
185,41.810454,-89.701648,W Lynn Blvd/Ymca Way
160,41.812934,-89.963037,N Cherry St//E High St
305,41.862886,-90.161208,15th Ave/8th St
160,41.668830,-89.948882,/Springhill Rd/Star Rd
246,41.812719,-89.653021,E Lincoln Way
185,41.685474,-90.094311,Albany Rd
160,41.804682,-89.967874,E South St/S Cherry St
160,41.776369,-89.760840,/Galt Rd
160,41.793905,-89.689229,6th Ave/E 7th St
160,41.733583,-89.901162,/Yager Rd/Black Rd
216,41.794345,-89.689141,E 9th St/6th Ave
160,41.866298,-90.159542,9th St/11th Ave
276,41.801096,-89.694755,/E 16th St
160,41.606833,-89.689160,/Deer Rd
160,41.795987,-89.672282,18th Ave/E 2nd St
185,41.805212,-89.713600,Oak Grove Ave
216,41.629850,-89.785989,/S Main St
160,41.795429,-89.675257,16th Ave/E 3rd St
160,41.780755,-89.658204,Riverview Rd
160,41.774464,-89.697888,W 7th St/7th Ave
160,41.789346,-89.859800,Lincoln Rd
160,41.649859,-89.683316,/Yates Rd
334,41.795317,-89.687126,/E 10th St
276,41.794181,-89.684429,E 6th St
246,41.799568,-89.669385,E 13th St/Leewayne Plaza Rd
185,41.770846,-89.695143,B Ct
216,41.785177,-89.681070,Lincoln St/Avenue E
276,41.665292,-89.943115,Jackson St/W 9th St
160,41.696416,-90.131605,Sand Rd
160,41.815184,-90.030075,Garden Plain Rd/Hazel Rd
160,41.877913,-90.164679,N 4th St/
526,41.778231,-89.693753,/W 4th St
305,41.789049,-89.712686,W 3rd St/Ave L
160,41.794619,-89.980606,Vegter Dr/
160,41.822282,-89.988835,/Lincoln Rd
160,41.790828,-89.721524,/W 4th St
216,41.865013,-90.156247,/11th St
160,41.868478,-90.154584,N 12th St/
160,41.699891,-89.935859,Bishop Rd
246,41.864564,-90.162329,13th Ave/7th St
216,41.811549,-89.654341,E Lincoln Way/35th Ave
160,41.802453,-89.672795,/E 17th St
216,41.808679,-89.693722,E 23rd St/3rd Ave
305,41.773717,-89.690657,Stanley Ct
160,41.764142,-89.705401,W 19th St/12th Ave
160,41.773041,-89.683485,/C Ave
160,41.790033,-90.218123,N Church St/3rd Ave N
305,41.864139,-90.162337,/7th St
276,41.793951,-89.683950,E 6th St/Broadway Ave
216,41.796273,-89.699770,Ave C/W 11th St
305,41.796317,-89.687801,7th Ave/E 11th St
216,41.751578,-89.673134,/I- 88
185,41.854653,-90.151240,/25th Ave
631,41.800978,-89.668463,North St/
185,41.639661,-90.169083,I- 88
160,41.774973,-89.784933,/Lincoln Rd
160,41.762422,-89.700524,W 21st St/9th Ave
276,41.825965,-89.726772,/Hubbard St
160,41.848682,-89.650587,Rodeo Dr
160,41.781076,-89.667438,Canary St/Quail Ct
246,41.660925,-90.076244,13th Ave
305,41.763680,-89.684204,E Rock Falls Rd
160,41.772415,-89.716627,Prophet Rd/W Rock Falls Rd
246,41.803613,-89.695459,E Miller Rd/2nd Ave
305,41.802201,-89.669824,Freeport Rd/Spring St
160,41.808807,-89.696721,E 23rd St/1st Ave
160,41.867614,-90.157880,/10th St
246,41.773576,-89.688090,A Ave/E 9th St
160,41.803286,-90.180114,Waller Rd
185,41.665538,-90.115045,/Cordova Rd
160,41.810388,-89.706786,Florence Ln
185,41.778773,-89.686883,/E 5th St/Allen Ave
305,41.763963,-89.685051,E Rock Falls Rd
185,41.791264,-89.687371,E 4th St
160,41.811052,-89.980158,Oak/W Morris St
160,41.855888,-90.162910,/23rd Ave
160,41.798703,-89.730862,Woodside Ave/Harvey Dr
185,41.812555,-89.961754,/E High St
160,41.788858,-89.687010,6th Ave
160,41.795921,-89.968738,Meadowbrook Dr
216,41.799180,-89.694779,/E 14th St
276,41.756271,-89.772681,I- 88
185,41.806361,-89.951565,/E Lincolnway
185,41.658244,-90.083738,8th Ave
185,41.814405,-89.956346,Glenwood Dr/Anthony St
160,41.818597,-89.966102,/Norrish Rd
216,41.805521,-89.713594,W 20th St/Oak Grove Ave
160,41.799269,-89.673275,/E 5th St
891,41.808558,-89.965559,N Cherry St/E Market St
185,41.773409,-89.656973,E Humphrey Ave/Dixon Ave
160,41.809729,-89.708113,Village
246,41.864972,-90.162322,/7th St
185,41.667329,-89.942226,W 7th St/Jackson St
160,41.799675,-89.957111,Klinstra Ct
160,41.613298,-89.753213,Jersey Rd
160,41.865002,-90.157896,10th St/
334,41.866273,-90.168232,11th Ave//1st St
160,41.811870,-89.691181,E 25th St/25th St
216,41.777062,-89.673585,Selmi Ln/Wiker Dr
160,41.791022,-89.811717,Lincoln Rd/Emerson Rd
216,41.856930,-90.162794,22nd Ave
499,41.808130,-89.964288,E Market St/N Madison St
160,41.854656,-90.151489,25th Ave/14th St
390,41.808116,-89.974849,Florence/W Park St
276,41.819017,-89.682315,Heritage Ln
246,41.801508,-89.686394,/8th Ave
216,41.790201,-89.691670,E 4th St
246,41.803227,-89.966712,/E Winfield St
216,41.797255,-89.694775,E 12th St/
160,41.712530,-89.747800,Ridge Rd
185,41.796210,-89.691468,E 11th St
216,41.811498,-89.963887,N Cherry St/
334,41.794211,-89.711572,/W 9th St
605,41.864570,-90.152652,13th Ave
305,41.803611,-89.699239,W Miller Rd
216,41.806047,-89.968608,S Genesee St/W Park St/E Park St
216,41.872856,-90.159526,9th St/3rd Ave
305,41.773621,-89.688088,A Ave/E 9th St
160,41.766080,-89.675134,/E 17th St/Industrial Park Rd
276,41.774380,-89.709610,Prophet Rd/Prophetstown Rd/15th Ave
160,41.629515,-89.787969,Glassburn St
160,41.804464,-89.941367,Lincoln Rd
160,41.793353,-90.208218,E Main St
160,41.839016,-90.045674,Lincoln Rd
305,41.801590,-89.669841,Freeport Rd
216,41.807036,-89.968033,S Genesee St/W Morris St/E Morris St
216,41.856090,-90.165677,4th St/23rd Ave
305,41.799171,-89.690759,E 14th St/5th Ave
185,41.750751,-89.650950,Duden Rd/Polo Rd
185,41.762697,-89.768443,Grove St/Front St
185,41.809888,-89.661408,E Lynn Blvd
160,41.686037,-89.866938,/Star Rd
185,41.916608,-90.110238,Waller Rd
160,41.658234,-90.083474,8th Ave
185,41.810590,-90.001508,Cross Creek Ct
185,41.793662,-89.693126,Park Pl
160,41.656182,-90.084307,6th Ave/12th St
276,41.765326,-89.834402,I- 88
160,41.804169,-89.669773,Freeport Rd
160,41.880357,-90.160082,/Sharon Ln
160,41.673118,-89.690073,Formally Il Rte 88
160,41.763691,-89.690917,W 19th St/Lindy Ave
216,41.796726,-89.679406,E 6th St
334,41.862872,-90.163453,6th St/15th Ave
185,41.653545,-90.152212,I- 88
185,41.672776,-89.938400,W 2nd St/Locust St
160,41.825461,-89.954352,/Norrish Rd
160,41.781165,-89.686986,/E 4th St
160,41.765569,-89.803048,I- 88
362,41.778690,-89.707330,13th Ave/W 2nd St
216,41.768860,-89.699717,/W Rock Falls Rd
185,41.687479,-90.095915,Albany Rd
160,41.779110,-89.692068,W 4th St/3rd Ave
160,41.791266,-89.695201,E 6th St
246,41.770826,-89.707639,Bennett Dr
305,41.802978,-89.708497,Bushman Ave
160,41.810533,-89.961350,N Clinton St
160,41.858361,-90.095841,Lincoln Rd
160,41.677776,-89.938543,Ferry St/Mosher Dr
160,41.823046,-89.742302,Science Ridge Rd
160,41.668337,-89.934071,/Park Ave
216,41.775239,-89.688084,/A Ave
160,41.793055,-90.209436,/E Main St
246,41.789898,-89.698868,W 5th St/Ave B
305,41.802486,-89.669817,E 17th St/Freeport Rd
160,41.722528,-89.910979,Moline Rd/Oak Dr
160,41.868039,-90.157879,10th St/9th Ave
160,41.796663,-89.671267,E 2nd St/19th Ave
185,41.766861,-89.707211,13th Ave/16th St
216,41.771571,-89.708623,W Rock Falls Rd/14th Ave
185,41.765416,-89.690927,Lindy Ave
472,41.810138,-89.966205,/N Genesee St
160,41.833517,-90.022549,Lincoln Rd/Hillside Rd
185,41.799197,-89.695537,2nd Ave/E 14th St
160,41.799452,-89.669720,E 3rd St
246,41.826492,-89.679317,40th St
246,41.801504,-89.684201,/11th Ave
160,41.848713,-89.920353,Lyndon Rd
185,41.767530,-89.690155,/W 15th St
160,41.779805,-89.686283,/Dixon Ave
160,41.793170,-89.702410,Avenue E/W 8th St
160,41.789607,-89.709491,W 4th St
160,41.780109,-89.694660,4th Ave
334,41.809161,-89.961657,/E Knox St
160,41.678306,-90.088252,Wilder Rd/Albany Rd
216,41.777095,-89.709895,W 5th St/15th Ave
160,41.868058,-90.152941,13th St/9th Ave
216,41.860530,-90.163431,6th St/17th Ave
276,41.800132,-89.700868,W 15th St/Ave D
185,41.776133,-89.683699,/C Ave
418,41.792927,-89.698845,Ave B/W 8th St
185,41.866739,-90.164555,5th St
185,41.799764,-89.650425,E 13th St/E 39th Ave
216,41.819642,-89.983231,/Lincoln Rd
185,41.632316,-89.783876,/E 2nd St
334,41.800003,-89.686411,E 15th St/8th Ave
160,41.789685,-89.710627,/W 4th St
246,41.798222,-89.692745,E 13th St/Johnson Ave
160,41.877951,-90.154026,N 12th St
445,41.863727,-90.161216,14th Ave/8th St
390,41.789116,-90.220411,N Church St/1st Ave
160,41.821148,-89.683115,E 35th St/14th Ave
216,41.816886,-89.698458,/Locust St
216,41.803572,-90.125896,Yale Rd
160,41.655838,-90.073345,5th Street Ct/10th Ave
185,41.783243,-90.228094,S Bluff St/10th Ave S
362,41.794278,-89.694790,E 9th St/
276,41.795257,-89.702267,Avenue E/W 10th St
246,41.751546,-89.704803,I- 88
276,41.807821,-89.966024,/S Cherry St
418,41.859715,-90.148719,18th Ave
185,41.793954,-89.698803,Ave B/Locust St
246,41.786083,-90.217643,1st Ave
185,41.658249,-90.083859,8th Ave/13th St
185,41.796273,-89.697990,/E 11th St
276,41.790131,-89.715535,W 4th St/Ave M
160,41.767424,-89.697141,15th St/7th Ave
160,41.801097,-89.787174,/Emerson Rd
160,41.809589,-89.703598,Florence Ln
334,41.671773,-89.934150,Market St/E 2nd St
160,41.808737,-89.656546,E 23rd St
160,41.797173,-89.690781,E 12th St/5th Ave
160,41.736431,-89.689042,/E Thome Rd
160,41.787238,-90.224734,S Main St/5th Ave S
160,41.795243,-89.731999,Douglas Dr
185,41.790061,-89.755580,W Lincolnway/Anna St/State Rte 2
216,41.785933,-89.667502,Thomas St
276,41.860897,-90.150374,Waller Rd/Elston Rd
216,41.794256,-89.673961,/16th Ave
185,41.788089,-89.691352,3rd Ave/E 2nd St
160,41.768529,-89.708623,14th Ave
160,41.804826,-89.961962,Ash Ave/Pine St
160,41.879900,-90.155830,Melody Hls
334,41.797878,-89.688470,/E 13th St
579,41.806949,-89.697935,Manfield Rd/Reins St
526,41.809699,-89.963367,E Knox St/N Madison St
185,41.869095,-90.149415,/8th Ave
246,41.765307,-89.681668,New High St
305,41.767513,-89.692508,W 15th St/5th Ave
246,41.789400,-89.694293,/E 4th St
216,41.785093,-89.671193,Hilltop Dr
160,41.771948,-89.710785,W Rock Falls Rd
246,41.787432,-90.217661,2nd Ave N
216,41.784196,-89.681044,Garfield St/Avenue E
334,41.805255,-89.680337,E 20th St/15th Ave
160,41.630274,-89.787283,S Joy St
160,41.806156,-89.667153,E 19th St
160,41.801561,-89.702173,Avenue E/W Le Fevre Rd
160,41.780628,-89.714393,Ave G Island
552,41.863695,-90.165706,4th St/14th Ave
185,41.722198,-89.967061,I- 88/Crosby Rd
276,41.778760,-89.682869,Mason Ave/E 5th St
362,41.809062,-89.657949,E 23rd St/E Lynn Blvd/E Lincoln Way
185,41.868011,-90.162320,7th St/9th Ave
216,41.805298,-89.683219,11th Ave/E 20th St/12th Ave
160,41.791106,-90.217517,4th Ave N/E Main St/State Rte 84
246,41.815746,-89.979610,W Lincoln Way
472,41.862859,-90.166644,3rd St/15th Ave
216,41.804045,-89.969167,Genesee Ave/E Winfield St
160,41.796191,-89.690802,E 11th St/5th Ave
160,41.797142,-89.673563,/18th Ave
185,41.768030,-89.698917,/8th Ave
305,41.796185,-89.676107,E 4th St/16th Ave
160,41.829122,-89.963526,Tanglewild Dr
160,41.813695,-89.964092,N Genesee St
185,41.631725,-89.787324,/S Joy St
216,41.729257,-89.901014,/Moline Rd
276,41.790509,-89.690163,E 4th St
185,41.767832,-89.780088,/Como Rd
216,41.809178,-89.673669,20th Ave
160,41.807008,-89.954927,/E Lincolnway
185,41.801361,-90.184813,Waller Rd
185,41.801725,-89.965528,Markland Dr
276,41.770944,-89.688119,A Ave/E 11th St
160,41.794744,-89.705277,/Ave G
305,41.766890,-89.693826,W Rock Falls Rd
160,41.788310,-89.701653,W 3rd St/Ave D
185,41.651880,-90.079702,5th Ave
160,41.815558,-89.947383,Ridgewood Dr/Hazel Rd
185,41.770285,-89.693743,6th Ave/A Ct/W 12th St
160,41.794658,-89.674394,16th Ave/E 2nd St
185,41.720280,-89.919620,/E Commercial St
160,41.766387,-89.707211,17th St/13th Ave
160,41.855295,-90.165681,4th St/24th Ave
891,41.866280,-90.166651,11th Ave/3rd St
839,41.866278,-90.166956,11th Ave
390,41.862847,-90.167187,15th Ave
334,41.763718,-89.703573,/11th Ave
160,41.781946,-89.668683,Verio Ct/Meadowlark Ln
246,41.792399,-89.682823,E 4th St/Broadway Ave
552,41.760362,-89.703554,11th Ave/W 24th St
305,41.799399,-89.679905,15th Ave/E 14th St
390,41.782664,-89.692706,W 1st St
334,41.778126,-89.694476,5th Ave
185,41.811033,-89.693837,E 24th St/3rd Ave
472,41.764589,-89.689363,1st Ave
185,41.766465,-89.690916,W 16th St/Lindy Ave
246,41.862027,-90.148848,/16th Ave
185,41.755269,-89.690193,/State Rte 40
160,41.830189,-90.150280,Holly Rd/Elston Rd
160,41.810150,-89.961563,N Clinton St/E North St
160,41.811268,-89.681096,/E 25th St
185,41.794780,-89.682513,/E 6th St
185,41.809885,-89.958044,Oakwood Dr
160,41.662767,-90.082329,/Albany Rd
216,41.801095,-89.693395,E 16th St
185,41.760934,-89.700698,9th Ave
160,41.613698,-89.689450,Formally Il Rte 88
418,41.776482,-89.689426,3rd Ave/E 7th St/1st Ave
160,41.672442,-89.936976,W 2nd St/Lafayette St
160,41.716734,-89.989777,I- 88
185,41.692958,-90.074163,I- 88
276,41.760102,-89.784429,I- 88
276,41.840096,-89.724153,J St
185,41.801737,-89.964472,Markland Dr/Portland Ave
216,41.799939,-89.676674,18th Ave
305,41.799304,-89.684211,11th Ave/E 14th St
160,41.790388,-89.830492,Lincoln Rd
185,41.805618,-89.947611,/Lincoln Rd
216,41.772439,-89.699588,/W 10th St
160,41.686298,-89.866913,/Prophet Rd
185,41.799171,-89.693393,/E 14th St
216,41.812178,-89.961915,N Madison St
160,41.757675,-89.777734,/I- 88
160,41.670720,-89.934597,Market St/E 3rd St
160,41.775728,-89.698296,/W 6th St
160,41.862092,-90.154611,12th St/16th Ave
160,41.874502,-90.165683,N 4th St/4th St
160,41.663342,-89.942074,Victoria Dr
552,41.778683,-89.706045,W 2nd St/12th Ave
305,41.802814,-89.695469,/2nd Ave
246,41.861429,-90.158767,16th Pl
216,41.657768,-90.077176,/10th Ave
216,41.811880,-89.688831,6th Ave/25th St
185,41.794261,-89.703610,W 9th St/Ave F
160,41.685444,-90.084044,/Star Rd
185,41.758141,-89.777859,/I- 88
160,41.649345,-90.076189,5th Ave
305,41.792429,-89.731527,/Douglas Dr
185,41.783089,-90.226554,9th Ave S
160,41.787291,-89.670077,Shore Acres Rd/Martin Rd
160,41.796616,-89.677478,/E 5th St
276,41.810004,-89.656700,E Lincoln Way
185,41.803758,-90.178941,/Waller Rd
160,41.671397,-89.937438,W 3rd St/Lafayette St
579,41.806954,-89.696739,Reins St/1st Ave
185,41.796581,-89.986246,Prairie Center Rd/Dixie Dr
185,41.779813,-89.687827,/Dixon Ave
216,41.801494,-89.687744,/7th Ave
216,41.818173,-89.698434,Locust St
631,41.818511,-89.646835,43rd Ave/30th St
185,41.758501,-89.779043,I- 88
216,41.806091,-89.693750,E 19th St/3rd Ave
276,41.805835,-89.676745,E 19th St/18th Ave
305,41.808819,-89.682461,/12th Ave
216,41.808625,-89.691973,/4th Ave/E 23rd St
160,41.801287,-89.742343,W Le Fevre Rd/McCue Rd
160,41.877977,-90.155435,N 10th St
160,41.799126,-89.678206,/E 13th St/17th Pl
472,41.795199,-89.689111,6th Ave/E 10th St
160,41.779718,-90.208806,Stone Rd
216,41.800616,-89.677486,E 15th St
160,41.666719,-89.932272,Strive St
276,41.631292,-89.783861,/E Market St
334,41.793066,-89.698430,E 8th St/Locust St
276,41.772393,-89.730450,/W Rock Falls Rd
216,41.811192,-89.968483,W Knox St/N Orange St
216,41.866790,-90.152952,13th St
160,41.857050,-89.668683,Freeport Rd
160,41.765626,-89.824103,I- 88/Matznick Rd
160,41.903553,-89.801967,N Main/Summit St
246,41.759495,-89.783530,/I- 88
216,41.796323,-89.686444,8th Ave/E 11th St
185,41.821267,-89.640391,/State Rte 2
185,41.762338,-89.680172,/E Rock Falls Rd
334,41.777901,-89.694503,/Galt Ave/W 4th St
305,41.806674,-89.953229,E Lincolnway
216,41.812007,-89.962013,/N Madison St
216,41.668523,-90.140186,I- 88
185,41.902131,-89.802018,E Grove Rd/S Main/N Main/W Grove Rd
160,41.797722,-89.703573,/Ave F
160,41.829161,-90.160607,Ebson Rd/Waller Rd
160,41.658587,-90.079744,11th St/East St
216,41.668104,-89.933573,/Woodlawn Dr/East Ave
246,41.860619,-90.151330,Waller Rd
160,41.780610,-89.714601,/Ave G Island
160,41.826500,-89.674649,21st Ave/E 40th St
160,41.802371,-89.674283,E 17th St/Calvary Ct
185,41.715441,-89.930018,W Commercial St/6th Ave N
160,41.802445,-89.983055,/Schipper Ln
160,41.786681,-89.707979,Wallace St
246,41.798595,-89.674320,/E 5th St
334,41.869519,-90.152215,7th Ave
160,41.806317,-89.713573,W 21st St/Oak Grove Ave
216,41.793954,-89.733924,Ash Ave/W 9th St
160,41.799384,-89.659417,Mineral Springs Rd
276,41.772399,-89.725703,/W Rock Falls Rd
362,41.808010,-89.967453,E Wall St/S Genesee St/W Wall St
334,41.790231,-89.711191,Ave K
160,41.868856,-90.162319,8th Ave/7th St
160,41.870881,-90.144177,Waller Rd
216,41.789580,-89.693615,2nd Ave/E 4th St
160,41.783694,-89.674867,Emmons Ave
390,41.799382,-89.682702,E 14th St
160,41.861933,-90.150410,Elston Rd
160,41.769026,-89.708625,14th Ave
185,41.797380,-89.970594,/S Genesee St/Genesee Ct
684,41.779438,-89.704471,Leroy Ave/Grace Ave
246,41.862460,-90.162348,/7th St
160,41.798176,-89.672962,E 4th St/19th Ave
160,41.771756,-90.017230,Bunker Hill Rd
246,41.810450,-89.688512,E Lynn Blvd
185,41.791817,-89.689224,/E 5th St
334,41.862032,-90.163453,6th St/16th Ave
160,41.794204,-89.679290,13th Ave/E 4th St
160,41.815560,-89.947097,Hazel Rd
185,41.768535,-89.688067,A Ave/E 14th St
658,41.808149,-89.965282,Railroad Ave
216,41.768525,-89.698739,8th Ave/W Rock Falls Rd
160,41.853251,-90.165678,4th St
185,41.770277,-89.695925,6th Ave/W 12th St
246,41.868176,-90.167853,1st St
160,41.775733,-89.697634,7th Ave/W 6th St
160,41.771905,-89.717031,/Prophet Rd
305,41.805531,-89.698679,/Locust St
160,41.798245,-89.660102,Mineral Springs Rd
160,41.798916,-89.730881,Woodside Ave
160,41.729319,-89.922971,Black Rd
362,41.811024,-89.964166,N Cherry St/E North St
160,41.800089,-89.971214,Fairview Dr/Carolee Ln
160,41.592730,-89.689207,Formally Il Rte 88
160,41.758083,-89.662602,E Rock Falls Rd
276,41.862807,-90.147497,Waller Rd
185,41.822119,-89.637497,Prairieville Rd/State Rte 2
216,41.861114,-90.148806,/Waller Rd
160,41.794275,-89.700936,W 9th St/Ave D
362,41.797314,-89.685955,E 12th St
605,41.862452,-90.164572,/5th St
185,41.791680,-89.702591,/Avenue E
246,41.751482,-89.742579,I- 88
160,41.846738,-90.147826,Clinton Rd
362,41.804028,-89.708414,W 20th St
160,41.801408,-89.722545,Eastwood Dr/W Le Fevre Rd
160,41.767928,-89.703540,11th Ave/Suzanne St
499,41.788988,-89.699549,/W 4th St
185,41.689114,-90.102352,/I- 88
160,41.774462,-89.697662,W 7th St/7th Ave
276,41.858407,-90.102865,Lincoln Rd
362,41.804530,-89.679353,E 19th St/16th Ave
216,41.790545,-90.219935,2nd Ave N
246,41.671605,-89.933434,/E 2nd St
160,41.732249,-90.157830,/Albany Rd
185,41.801599,-89.964462,/Portland Ave
185,41.704451,-89.747835,/Ridge Rd
160,41.801755,-90.130518,/Sand Rd
305,41.807894,-89.968871,/S Base St
216,41.799170,-89.692117,4th Ave/E 14th St
185,41.689131,-90.092342,I- 88
216,41.668212,-89.931671,East Ave
276,41.756551,-89.772483,I- 88
160,41.606668,-89.689374,Formally Il Rte 88
185,41.788966,-89.711342,W 3rd St/Ave K
216,41.664732,-89.941828,Washington St/Locust St
160,41.660563,-90.075621,13th Ave/Main St
216,41.779891,-89.672484,Division St
185,41.795299,-89.732732,East Ave
185,41.655309,-90.075015,6th St/9th Ave
276,41.791908,-89.731537,W Lincolnway/Douglas Dr
246,41.764522,-89.696028,W 18th St
762,41.865019,-90.154598,/12th St
526,41.791865,-89.697844,State Rte 40/W 7th St/Locust St
552,41.792432,-89.698848,/Ave B
160,41.802214,-89.959546,Elm St
246,41.798257,-89.697155,E 13th St/1st Ave
160,41.668758,-89.933891,/Park Ave
185,41.796275,-89.698798,W 11th St/Ave B/E 11th St/Locust St
185,41.802888,-89.715758,Woodburn Ave
305,41.864980,-90.161189,/8th St
305,41.786443,-89.693762,/Wallace St
160,41.673310,-89.938182,/Locust St
216,41.849493,-90.111533,Frog Pond Rd
185,41.774522,-89.760630,/Galt Rd
276,41.790149,-89.683721,E 2nd St
305,41.855479,-90.153084,12th St/24th Ave
216,41.805814,-89.679340,E 19th St/16th Ave
185,41.794271,-89.698815,E 9th St/Ave B/W 9th St
185,41.791008,-89.815790,Lincoln Rd
160,41.814066,-89.698518,Locust St
305,41.797315,-89.688472,E 12th St/
160,41.791417,-89.679581,11th Ave//E 2nd St
216,41.811668,-89.654449,/E Lincoln Way/35th Ave
276,41.672231,-89.938623,/Locust St
246,41.807425,-89.660070,/E Lincoln Way
160,41.758570,-89.672086,Megli Ct
160,41.720400,-89.670428,Freeport Rd
185,41.809587,-89.679253,E 24th St/16th Ave
185,41.793325,-89.683198,/E 5th St/Broadway Ave
276,41.789210,-89.695009,E 4th St/1st Ave
334,41.865822,-90.162317,/7th St
216,41.785092,-89.671256,Hilltop Dr
185,41.868467,-90.156231,/11th St
185,41.666123,-89.941994,/8th St
362,41.795243,-89.694768,/E 10th St
246,41.856584,-90.154375,22nd Ave
160,41.906157,-89.764684,Luther Rd
160,41.798689,-89.702226,/Avenue E
216,41.815971,-89.698475,W 29th St/E 29th St/Locust St
160,41.654435,-90.077596,7th St/School Ct
160,41.830705,-89.871914,Holly Rd/Round Grove Rd
160,41.788284,-89.690651,/E 2nd St
160,41.678116,-89.940140,/Mosher Dr
185,41.808395,-89.975683,/W Park St
246,41.666790,-90.116183,Jdk Rd
276,41.751558,-89.689593,State Rte 40/I- 88
418,41.808002,-89.962808,N Clinton St/E Main St
160,41.713558,-90.131608,Albany Rd/Sand Rd
160,41.843843,-89.688115,Fulfs Rd/Hoover Rd
160,41.794230,-89.709661,W 9th St/Ave J
276,41.769621,-89.702044,10th Ave/W Rock Falls Rd
246,41.864170,-90.156253,/11th St
246,41.778763,-89.681772,E 5th St/D Ave
160,41.785467,-89.665036,Minkel St
472,41.782522,-89.690954,A Ave/E 2nd St
160,41.806956,-89.700011,Manfield Rd
160,41.758080,-89.656889,E Rock Falls Rd/Spruce St
160,41.787391,-89.796996,Lincoln Rd
160,41.786228,-89.659279,Riverview Rd
839,41.865446,-90.154592,12th St/12th Ave
160,41.795672,-89.732117,/Douglas Dr
216,41.754429,-89.765440,I- 88
160,41.823219,-89.698375,E 37th St/Pennington Rd/W Science Ridge Rd/Locust St
684,41.788841,-89.696437,W 4th St/E 4th St/Locust St
160,41.671009,-90.083937,Albany Rd
185,41.798223,-89.694109,E 13th St/3rd Ave
160,41.778622,-89.670080,Martin Rd
246,41.763860,-89.824134,Matznick Rd
362,41.764850,-89.692527,3rd Ave/W 18th St
185,41.810350,-89.655963,/E Lincoln Way
160,41.836879,-90.159258,Ward Rd
160,41.779904,-90.233846,Waller Rd
160,41.633242,-89.684334,Deer Path Ln
246,41.792607,-89.681866,/E 4th St
185,41.800877,-90.186861,/Vans Rd
160,41.796409,-89.657908,Sinnissippi Rd
334,41.808079,-89.957194,E Knox St/N Jackson St
160,41.855309,-90.165170,24th Ave
216,41.668259,-89.947065,Esta Dr
185,41.820120,-89.680469,15th Ave/Candlelight Ln
185,41.860539,-90.161202,17th Ave/8th St
246,41.798669,-89.706572,/H Ave
499,41.768546,-89.689346,1st Ave/E 14th St
185,41.808187,-89.709759,/Ave J
185,41.787055,-90.225076,S Park Ave/S Main St
185,41.731154,-90.029525,Fenton Rd
185,41.810250,-89.691899,4th Ave/E Folkers Rd
160,41.797913,-89.680893,E 13th St/14th Ave
216,41.840702,-90.163250,Clinton Rd/Bridge Approach Rd
185,41.777902,-89.696254,6th Ave/W 4th St
160,41.806990,-89.650391,39th Ave
185,41.790239,-89.692379,3rd Ave/Brink Cir
216,41.797734,-89.699749,Ave C/
185,41.808261,-89.709758,Ave J
160,41.764164,-89.779764,Como Rd
185,41.810542,-89.978610,Willow St/W Morris St
305,41.794261,-89.695571,E 9th St/2nd Ave
185,41.778137,-89.704881,/Grace Ave
160,41.872899,-90.154572,12th St/3rd Ave
362,41.791406,-89.682995,/E 3rd St
246,41.714433,-89.931288,6th Ave W/W Commercial St
445,41.864183,-90.154593,12th St/
160,41.764174,-89.698918,8th Ave/W 19th St
185,41.731282,-90.029632,Fenton Rd
445,41.815287,-89.649274,40th Ave/E Lincoln Way/State Rte 2
185,41.758046,-89.689553,1st Ave
246,41.794258,-89.684164,E 6th St/Broadway Ave
362,41.806465,-89.974349,S Hall St
185,41.769374,-89.693769,6th Ave/W 13th St
390,41.778832,-89.689439,W 5th St/E 5th St/1st Ave
216,41.819822,-89.983582,Lincoln Rd
160,41.735649,-89.689685,/Formally Il Rte 88
246,41.801587,-89.686749,E Le Fevre Rd
362,41.777269,-89.689448,/1st Ave
160,41.722249,-89.911395,Moline Rd
216,41.794225,-89.710290,/W 9th St
160,41.805404,-89.772114,Emerson Rd
160,41.815769,-89.862224,Yorktown Rd/Hazel Rd
160,41.826705,-89.961041,/Norrish Rd
305,41.803608,-89.964574,E South St/Portland Ave
499,41.865380,-90.165277,/12th Ave
276,41.805749,-89.964144,E Morris St/S Clinton St
276,41.792036,-89.732790,W Lincolnway/East Ave
160,41.815999,-89.642660,45th Ave/43rd Ave
160,41.862479,-90.157897,10th St/
160,41.751483,-89.741883,French St/I- 88
160,41.651988,-90.078016,/6th St
499,41.765759,-89.689364,/1st Ave
160,41.644614,-90.161850,I- 88
185,41.689119,-90.097434,I- 88/Albany Rd
160,41.814460,-89.698509,Locust St
246,41.797309,-89.687786,E 12th St/7th Ave
499,41.801147,-89.669852,Freeport Rd/E 7th St
216,41.791074,-89.691996,E 5th St/Park Ave
185,41.807409,-89.969158,W Morris St/S Base St
276,41.777044,-89.693460,W 5th St/5th Ave
160,41.788862,-89.704271,/Ave F
216,41.764614,-89.687008,E Rock Falls Rd
216,41.728810,-89.930908,/Black Rd
160,41.668384,-89.934223,E Railroad St
246,41.793439,-89.695486,2nd Ave/E 8th St
160,41.792911,-90.211692,9th Ave N
216,41.808603,-89.713534,W 23rd St/Oak Grove Ave
185,41.803426,-89.669791,Freeport Rd
160,41.758111,-89.634497,/E Rock Falls Rd
160,41.862506,-90.154604,12th St/
185,41.774512,-89.689390,4th Ave/1st Ave
160,41.791384,-89.726642,W Lincolnway
362,41.855534,-90.150230,24th Ave/Elston Rd
185,41.760283,-89.674004,E Rock Falls Rd
305,41.770952,-89.689341,E 11th St/1st Ave
160,41.620963,-89.785898,/S Main St
276,41.792931,-89.681308,11th Ave/E 4th St
160,41.887239,-89.664986,Penrose Rd
185,41.801887,-90.185283,Vans Rd
160,41.775737,-89.692440,W 6th St/5th Ave
216,41.861993,-90.147962,/16th Ave
160,41.770299,-89.699582,/W 12th St
160,41.785112,-89.670049,Martin Rd/Hilltop Dr
160,41.760634,-89.675040,E Rock Falls Rd
246,41.802476,-89.711333,Ave K/W 18th St
185,41.761576,-89.705417,12th Ave/Not A Street Parking Lot
246,41.762538,-89.680780,New High St/E Rock Falls Rd
216,41.826362,-89.727293,/Hickory Hills Rd
160,41.763735,-89.697203,W 19th St/7th Ave
160,41.809468,-89.671443,22nd Ave
418,41.778677,-89.704892,W 2nd St/Grace Ave
160,41.887104,-90.135594,Penrose Rd/Cattail Rd
216,41.837819,-90.180283,Clinton Rd
246,41.774639,-89.688791,/E 8th St
216,41.812807,-89.652637,/E Lincoln Way
185,41.869458,-90.165684,4th St/7th Ave
276,41.774430,-89.702768,W 7th St
276,41.802677,-89.713606,Oak Grove Ave
160,41.670606,-89.923367,E 3rd St
216,41.665797,-89.940643,Washington St/8th St
246,41.797739,-89.700895,Ave D
160,41.801983,-89.964496,/Portland Ave
305,41.671594,-89.935746,/Bishop Rd
865,41.805850,-89.674006,E 19th St/20th Ave
246,41.784191,-89.681714,Garfield St
246,41.713998,-90.002402,I- 88
216,41.811473,-89.963902,N Cherry St/
160,41.799110,-89.751370,Howard St/Grimes St
276,41.751550,-89.708679,14th Ave/Buell Rd/I- 88
160,41.867225,-90.151273,10th Ave/14th St
160,41.811674,-89.953326,Melody Ct
160,41.807778,-89.972038,S Grape St/
552,41.787335,-89.695712,W 2nd St/Locust St/E 2nd St
216,41.798230,-89.698786,State Rte 88/W 13th St/Locust St
160,41.809668,-89.972478,S Hall St/W Wall St
216,41.837805,-90.182417,US Hwy 30/Clinton Rd
216,41.653014,-90.078824,6th Ave/7th St
246,41.797268,-89.699754,Ave C/W 12th St
216,41.812830,-89.958801,Keith Dr/Barden St
185,41.865826,-90.159541,9th St/
160,41.751188,-89.722357,I- 88
160,41.815975,-89.705930,W 29th St
160,41.720288,-89.670429,/Freeport Rd
185,41.777798,-89.691692,W 5th St/
216,41.792015,-89.684590,/E 4th St
160,41.784666,-89.665412,Lincoln St
276,41.688717,-90.114583,/I- 88
185,41.658502,-90.083938,8th Ave
216,41.800607,-89.679446,E 15th St/16th Ave
216,41.764144,-89.707914,/W 19th St
362,41.657124,-90.081271,Depot St/8th Ave
160,41.819616,-89.947348,Ridgewood Dr/Jenny Ln
216,41.657166,-90.078649,Main St/9th Ave
160,41.795673,-89.672769,E 2nd St
185,41.770877,-89.695932,6th Ave
160,41.792312,-89.712295,/Ave L
160,41.751996,-89.650940,Polo Rd
185,41.626661,-89.689592,Formally Il Rte 88
216,41.797726,-89.677814,E 6th St/16th Ave
185,41.651387,-90.079025,5th Ave
160,41.790771,-90.218704,E Main St/3rd Ave N
160,41.802224,-89.961910,Ash Ave/Elm St
160,41.583921,-90.045878,Banks Rd/Osage Rd
216,41.680862,-90.090405,/Albany Rd
185,41.778692,-89.698962,8th Ave/W 2nd St
160,41.819000,-89.641917,45th Ave/
334,41.810863,-89.965794,N Genesee St
276,41.864167,-90.157902,/10th St
216,41.789097,-89.685551,/7th Ave
160,41.889440,-90.126801,Balk Ln/James Ct
160,41.777073,-89.694515,W 5th St/Galt Ave
390,41.761589,-89.703560,11th Ave/Not A Street Parking Lot
276,41.810638,-89.968819,N Orange St/W Lincoln Way
160,41.792498,-89.679942,/E 3rd St
160,41.850294,-89.708028,Pennington Rd
216,41.867992,-90.167501,9th Ave/2nd St
216,41.650850,-90.074599,6th Ave/4th St
305,41.847555,-89.650900,/Tanner Dr
246,41.762476,-89.680595,E Rock Falls Rd
216,41.759556,-89.783739,/I- 88
160,41.679040,-89.941248,Grove St/Meadow Ln
362,41.859362,-90.149175,16th St
185,41.806152,-89.651721,E 20th St/38th Ave
305,41.800093,-89.969270,Genesee Ave/Carolee Ln
160,41.722879,-89.910455,Moline Rd
160,41.807587,-89.976650,W South St/S Heaton St
362,41.805943,-89.949372,Lincoln Rd/Sycamore Dr
334,41.862459,-90.163455,/6th St
445,41.810143,-89.967532,N Base St/W Lincoln Way
246,41.807376,-89.659867,/E Lincoln Way
185,41.801475,-89.715261,W Le Fevre Rd
160,41.856119,-90.163415,6th St/23rd Ave
216,41.801564,-89.664916,E 15th St/
246,41.794568,-89.672441,E 1st St/17th Ave
160,41.807447,-89.976223,/W South St
579,41.760864,-89.689489,/1st Ave
185,41.751474,-89.748199,I- 88
160,41.671451,-89.932736,Park Ave/E 2nd St
160,41.770496,-89.783470,State Rte 2
160,41.862568,-89.885130,/Round Grove Rd
160,41.887710,-90.131008,/Waller Rd
185,41.850814,-90.111550,/Frog Pond Rd
160,41.804938,-89.773759,Emerson Rd
276,41.800240,-89.682043,E 15th St/13th Ave
185,41.790375,-89.692432,/3rd Ave
216,41.768638,-89.697621,7th Ave
185,41.761456,-89.633021,/I- 88
160,41.765057,-89.705399,W 18th St/12th Ave
276,41.655908,-90.078861,/8th Ave
160,41.753182,-89.643665,I- 88
246,41.779807,-89.681782,D Ave/Dixon Ave
362,41.651453,-90.073553,7th Ave
160,41.764859,-89.690913,W 18th St/Lindy Ave
216,41.866281,-90.164561,11th Ave/5th St
216,41.790269,-90.221259,S Water St/Water St/1st Ave
305,41.786977,-89.711579,Wallace St/Ave K
362,41.809130,-89.682367,E Lynn Blvd/12th Ave
160,41.776421,-89.694520,Pleasant St/Galt Ave
160,41.793703,-89.682148,11th Ave/E 5th St
160,41.899030,-89.802134,S Main
185,41.843503,-90.156701,/Clinton Rd
185,41.651165,-90.078717,6th St/5th Ave
305,41.797263,-89.696349,E 12th St/
579,41.808612,-89.711601,W 23rd St
185,41.800109,-89.706553,H Ave/W 15th St
160,41.803601,-89.736405,Westwood Dr
362,41.790984,-89.700129,Ave C/W 6th St
185,41.656000,-90.073199,/5th Street Ct
160,41.900769,-90.120219,/Waller Rd
160,41.803593,-89.703464,Ave F/W Miller Rd
160,41.775901,-89.707343,13th Ave/Not A St Private Dr
246,41.797371,-89.678374,E 6th St
160,41.786843,-89.665332,Franklin St/Ann St
216,41.708393,-90.025759,I- 88
185,41.794249,-89.706770,W 9th St
160,41.787719,-90.213902,Spring Creek Ct
246,41.790509,-89.694074,2nd Ave/E 5th St
334,41.801562,-89.695513,2nd Ave/E Le Fevre Rd
276,41.670079,-89.936401,Short Ave/Bishop Rd
160,41.793205,-89.730485,Prosperity Dr
160,41.802444,-89.982956,/Schipper Ln
334,41.633210,-89.688579,Deer Valley Dr
526,41.797886,-89.686420,E 13th St/8th Ave
160,41.791320,-90.217601,4th Ave N/Old Main
246,41.802249,-89.678102,17th Ave/E Le Fevre Rd
305,41.650420,-90.077676,5th St/5th Ave
499,41.788280,-89.694590,1st Ave/E 3rd St
160,41.637366,-90.173036,I- 88
216,41.772453,-89.698948,8th Ave/W 10th St
160,41.804686,-89.942558,/Lincoln Rd
216,41.768913,-89.692515,/5th Ave
216,41.800469,-89.675521,19th Ave
185,41.801526,-89.650869,E 15th St
160,41.631717,-90.045248,Lyman Rd/Banks Rd
160,41.766598,-89.703534,11th Ave/Roberts St
160,41.796229,-89.692167,4th Ave/E 11th St
216,41.786223,-90.226644,7th Ave S/S Main St
445,41.768540,-89.688681,E 14th St
246,41.710561,-90.015309,I- 88
216,41.804151,-89.939696,Lincoln Rd
788,41.817942,-89.645919,State Rte 2
216,41.706618,-90.042908,/I- 88
246,41.723067,-89.963391,I- 88
185,41.689546,-90.082900,I- 88
185,41.802507,-89.964540,Portland Ave
185,41.802509,-89.703485,Ave F/W 18th St
362,41.808194,-89.658830,/E Lincoln Way
185,41.794265,-89.704496,/W 9th St
185,41.719820,-89.920304,/E 5th Ave/5th Ave E
185,41.706596,-90.046314,I- 88
185,41.663652,-90.082636,16th Ave/Albany Rd
160,41.810200,-89.959927,Oakland Ave/Oakwood Dr
216,41.656252,-90.074175,10th Ave/6th St
418,41.800229,-89.684236,E 15th St/11th Ave
216,41.804987,-89.713602,Oak Grove Ave
160,41.831919,-89.727155,/Hickory Hills Rd
216,41.800615,-89.677407,/E 15th St/18th Ave
160,41.802439,-89.983189,/Schipper Ln
216,41.772474,-89.695926,6th Ave/W 10th St
185,41.802230,-89.668439,Spring St/Sanborn St
246,41.864540,-90.151277,14th St
418,41.798784,-89.969274,Genesee Ave/
499,41.779962,-89.690397,/W 4th St
390,41.859712,-90.165167,/18th Ave
160,41.803908,-89.675421,E 18th St/19th Ave
216,41.804818,-89.683879,E 19th St/11th Ave
160,41.770849,-89.680571,E 11th St/Ave D
362,41.856496,-90.153984,Waller Rd/22nd Ave
160,41.764162,-89.700514,W 19th St/9th Ave
334,41.792013,-89.732538,/W Lincolnway
185,41.812539,-89.961703,N Madison St/E High St
216,41.794282,-89.702287,Avenue E/W 9th St
994,41.802848,-89.692050,4th Ave
216,41.719507,-89.978238,I- 88
276,41.855461,-90.154241,Waller Rd/24th Ave
160,41.771191,-89.681419,E 11th St
216,41.762670,-89.631561,I- 88
160,41.800834,-89.650396,E 39th Ave
160,41.764588,-89.697418,W 18th St
246,41.803427,-89.711330,W 19th St/Ave K
362,41.788661,-89.693133,2nd Ave/E 3rd St
1329,41.809253,-89.964833,/E Lincolnway
276,41.791227,-89.711068,/Ave K
216,41.803201,-89.964570,Maple Ave/Portland Ave
276,41.868826,-90.165675,4th St/8th Ave
246,41.834285,-90.031062,/Lincoln Rd
246,41.665157,-89.942406,/W 9th St
160,41.789825,-89.700217,Ave C/W 5th St
185,41.651548,-90.079246,/5th Ave
160,41.861881,-90.147714,Waller Rd
160,41.767898,-89.696864,W Rock Falls Rd
305,41.861440,-90.159551,9th St/16th Pl
160,41.828112,-89.722733,Meadows Dr
276,41.807270,-89.956287,/E Lincolnway
216,41.861138,-90.148701,Waller Rd
276,41.766866,-89.693753,4th Ave/W Rock Falls Rd
160,41.898651,-89.726013,/Hickory Hills Rd
472,41.863291,-90.164569,/5th St
216,41.652694,-90.078191,6th Ave/
216,41.765565,-89.804944,Coleta Rd/I- 88
160,41.792558,-89.737545,W Lincolnway/West Ave
160,41.795438,-89.980614,Vegter Dr/Shelly Dr
552,41.796313,-89.688469,E 11th St
160,41.732771,-89.737232,Knief Rd
276,41.869461,-90.164568,7th Ave/5th St
160,41.868874,-90.154577,N 12th St/12th St/8th Ave
276,41.793562,-90.207374,E Main St
246,41.657444,-90.076549,10th Ave/8th St
418,41.672320,-89.933914,/Market St
362,41.789789,-89.696854,W 5th St/E 5th St/Locust St
216,41.720946,-89.973688,I- 88
160,41.631772,-89.788645,/N Lincoln St
185,41.868849,-90.163460,8th Ave/6th St
185,41.809901,-89.664869,E Lynn Blvd
160,41.800121,-89.703538,W 15th St/Ave F
185,41.879981,-90.142640,Schafer Rd/Cattail Rd
185,41.774426,-89.694545,Galt Ave/W 7th St
160,41.863329,-90.156252,11th St
418,41.790318,-89.683085,9th Ave/E 2nd St
216,41.812296,-89.973921,Lincolnway Ct/W Lincoln Way
216,41.764128,-89.780395,Como Rd
160,41.816070,-89.642801,/43rd Ave
160,41.786809,-89.670058,Franklin St/Martin Rd
579,41.782156,-89.691698,W 2nd St/1st Ave/E 2nd St
160,41.796703,-89.692165,4th Ave
160,41.794218,-89.717569,/W 9th St
160,41.663647,-90.081853,16th Ave
185,41.771645,-89.703519,/11th Ave
216,41.869507,-90.152924,7th Ave/13th St
160,41.713015,-89.693966,Winter St/Summer St
390,41.778814,-89.692642,/W 4th St
334,41.800151,-89.692745,E 15th St/Johnson Ave
185,41.873721,-90.156220,2nd Ave/N 11th St
216,41.762118,-89.693817,4th Ave/W 21st St
246,41.791810,-89.697037,E 7th St
246,41.805882,-89.682604,E 21st Pl/12th Ave
160,41.606865,-89.689375,Formally Il Rte 88/Hoover Rd/Deer Rd
185,41.798237,-89.695541,E 13th St/2nd Ave
160,41.792009,-90.213755,E Main St/7th Ave N/State Rte 84
216,41.794314,-89.685724,E 9th St
246,41.706295,-90.042914,I- 88
160,41.775570,-89.707979,W 6th St
276,41.650747,-90.078130,5th Ave
216,41.759938,-89.672972,/E Rock Falls Rd
216,41.866315,-90.156235,11th Ave/11th St
185,41.793084,-89.715815,W 7th St/Woodburn Ave
160,41.768543,-89.726208,Prophet Rd/Teresa St
216,41.863487,-90.147437,State Rte 136/Waller Rd/Fulton Rd
160,41.798441,-89.715764,Woodburn Ave
160,41.805256,-89.765859,Deets Rd/Emerson Rd
160,41.718881,-89.689779,Formally Il Rte 88
185,41.795600,-89.671853,/18th Ave
160,41.795846,-89.984743,Shelly Ct
216,41.775594,-89.706070,/W 6th St/12th Ave
185,41.777949,-89.670924,Dixon Ave
276,41.796175,-89.689956,/E 11th St
160,41.810546,-89.980433,Oak
160,41.835351,-90.169051,Diamond Rd
185,41.813137,-89.698537,Locust St
305,41.794216,-89.711256,W 9th St/Ave K
185,41.806901,-89.688797,/21st St
216,41.801324,-89.736733,/W Le Fevre Rd
390,41.788321,-90.222792,S Main St/3rd Ave S
160,41.758429,-89.748512,Prophet Rd/
185,41.857600,-90.151460,21st Ave/14th St
160,41.872062,-90.156214,4th Ave/N 11th St
160,41.718158,-89.966569,Mohawk Rd/Crosby Rd
216,41.649849,-89.684578,Yates Rd
246,41.801567,-89.694756,/E Le Fevre Rd
216,41.751153,-89.694902,/I- 88
216,41.778785,-89.698296,/W 2nd St
160,41.791122,-89.747113,W Lincolnway
160,41.783086,-89.706321,Ave G
216,41.766603,-89.704199,Roberts St
160,41.796104,-89.674180,17th Ave/E 3rd St
276,41.825971,-89.727303,Hubbard St/Hickory Hills Rd
246,41.785462,-89.667500,Minkel St/Thomas St
216,41.859740,-90.160572,/18th Ave
216,41.793264,-89.683935,E 5th St
160,41.668879,-89.937112,Bishop Rd
160,41.804766,-89.942984,Lincoln Rd
216,41.857587,-90.152596,21st Ave/13th St
216,41.767987,-89.697135,7th Ave/W Rock Falls Rd
216,41.799208,-89.696335,/E 14th St
160,41.791670,-90.217933,4th Ave N/N Water St
160,41.782369,-90.225822,9th Ave S/S Cherry St
216,41.792876,-89.705473,/Ave G
276,41.689237,-90.087746,I- 88
390,41.651610,-90.076058,6th Ave
216,41.760327,-89.705297,/24th St
160,41.806509,-89.701789,W 21st St
216,41.809560,-89.679253,16th Ave
185,41.817045,-89.643892,/43rd Ave
216,41.778660,-89.689977,W 5th St/2nd Ave
160,41.751233,-89.696335,I- 88
216,41.769850,-89.692515,/5th Ave
216,41.770934,-89.703518,11th Ave
185,41.814695,-89.698504,Locust St
579,41.802554,-89.666104,E Lincoln Way
216,41.707947,-90.026192,Lynch Rd/I- 88
362,41.799172,-89.689087,6th Ave/E 14th St
160,41.766531,-89.751461,Front St/Lawrence Rd
185,41.795198,-89.689675,E 10th St/Wilson Ave
276,41.866291,-90.161193,11th Ave/8th St
160,41.789658,-89.720808,W 3rd St
552,41.765259,-89.688981,/E Rock Falls Rd
185,41.779656,-89.843523,Blue Goose Rd/Matthew Rd
185,41.784193,-89.680390,/Garfield St
160,41.672410,-89.932335,Park Ave
185,41.751112,-89.685218,I- 88
160,41.792348,-89.683359,/E 4th St
305,41.672272,-89.936247,/W 2nd St
185,41.777498,-89.692267,4th Ave/W 5th St
246,41.805842,-89.675371,E 19th St/19th Ave
160,41.800932,-90.129116,/Garden Plain Rd
276,41.805880,-89.695431,2nd Ave
160,41.800858,-89.788003,/Emerson Rd
185,41.776761,-89.709906,/15th Ave
185,41.781670,-89.689420,E 3rd St
160,41.901588,-90.121250,Lock Rd
276,41.795232,-89.693376,/E 10th St
246,41.763690,-89.689464,W 19th St/1st Ave
160,41.790313,-89.717007,W 4th St/Griswold Ave
185,41.808782,-89.672691,E 23rd St
160,41.779457,-89.761198,/Galt Rd
246,41.865549,-90.156244,/11th St
246,41.796395,-89.679935,E 6th St/14th Ave
160,41.819612,-89.946580,Jenny Ln
185,41.809095,-89.774595,Empire Ave
185,41.659524,-90.079775,12th St/10th Ave
185,41.793064,-89.708170,Ave I
160,41.802302,-89.674533,E 17th St
185,41.669416,-89.928401,E 3rd St/Dale Ave
305,41.802761,-89.698734,Locust St
362,41.797881,-89.689100,/6th Ave/E 13th St
472,41.791950,-89.699446,/W 7th St
160,41.778385,-89.690562,W 5th St/
160,41.663538,-90.076539,/16th Ave
185,41.810374,-89.708868,Florence Ln
185,41.659885,-90.079418,12th St
185,41.859662,-90.152073,/18th Ave
605,41.672651,-89.935319,/Washington St
185,41.801525,-89.646232,E 15th St
160,41.797249,-89.693394,E 12th St/
185,41.666226,-90.125105,/Cordova Rd
185,41.787701,-89.691157,3rd Ave
185,41.776975,-89.688085,A Ave/
472,41.810400,-89.966056,E Knox St/W Knox St/N Genesee St
160,41.858507,-90.160195,9th St/
276,41.792011,-89.688527,6th Ave/E 5th St
216,41.860187,-90.161197,8th St
276,41.812271,-89.966301,/N Base St
160,41.830188,-90.150471,Holly Rd
160,41.805150,-89.656572,E 19th St
160,41.665061,-89.941704,Locust St
185,41.798796,-89.732069,Woodside Ave/Douglas Dr
246,41.765347,-89.682857,New High St
160,41.813231,-89.974874,Hillandale Ct/Lincolnway Ct
160,41.796004,-89.964393,Crosby Rd/Meadowbrook Dr
305,41.798273,-89.674838,E 5th St/18th Ave
499,41.779804,-89.688948,/Dixon Ave
185,41.780711,-89.706170,12th Ave
160,41.787252,-90.226234,6th Ave S/Water St
160,41.783321,-89.681726,Ada St
246,41.799151,-89.706566,H Ave/W 14th St
216,41.788166,-90.218222,N Lime St/2nd Ave N
160,41.685441,-90.083604,/Star Rd
276,41.793503,-90.207610,E Main St
160,41.821410,-89.637738,Country Club Ln
185,41.790187,-89.691560,/E 4th St/Park Ave
185,41.776457,-89.684031,E 7th St
246,41.792190,-89.691748,4th Ave/E 6th St
276,41.868863,-90.159533,9th St/8th Ave
216,41.789723,-89.693147,E 4th St
160,41.692829,-90.073666,I- 88
246,41.661612,-90.077710,12th St/13th Ave
305,41.767745,-89.705411,W 15th St/12th Ave
160,41.808699,-89.973043,W Morris St/S Hall St
185,41.685852,-90.124364,Star Rd
185,41.766878,-89.705424,16th St/12th Ave
216,41.798058,-89.677293,/E 6th St
160,41.736349,-89.893805,I- 88
160,41.783804,-89.686830,Ada St
276,41.801553,-89.703499,W Le Fevre Rd/Ave F
305,41.792208,-89.687828,E 5th St
418,41.803882,-89.679365,E 18th St/16th Ave
160,41.808659,-89.705656,/W 23rd St
216,41.793974,-89.673343,/E 1st St/16th Ave
160,41.762833,-89.707214,/13th Ave
216,41.671242,-89.934366,/Market St
246,41.801101,-89.692742,Johnson Ave/E 16th St
160,41.806852,-89.971028,S Orange St/W Park St
160,41.758601,-89.780529,/I- 88
160,41.677427,-89.944111,North St
185,41.794859,-89.678213,E 4th St/14th Ave
160,41.877353,-90.159521,/9th St
160,41.771787,-89.978304,Lister Rd/Bunker Hill Rd
160,41.801444,-90.130516,/Sand Rd
160,41.758079,-89.657364,E Rock Falls Rd/Maple Ln
185,41.769380,-89.697588,7th Ave/W 13th St
276,41.794336,-89.687224,/E 9th St
246,41.791264,-89.691300,4th Ave/E 5th St
185,41.688893,-90.088048,I- 88
160,41.770289,-89.698744,8th Ave/W 12th St
216,41.801116,-89.679437,E 16th St/16th Ave
216,41.650813,-90.078222,5th Ave
216,41.858639,-90.151467,14th St/20th Ave
246,41.769133,-89.700535,W Rock Falls Rd/9th Ave
246,41.850601,-90.111545,Indian Hills Dr/Frog Pond Rd
334,41.808082,-89.659219,E Lincoln Way
160,41.823155,-89.711612,W Science Ridge Rd
160,41.804253,-89.966572,S Madison St/E South St
160,41.672301,-89.932395,Park Ave
631,41.864182,-90.152951,/13th Ave
216,41.811312,-89.974530,S Heaton St/N Heaton St
276,41.864974,-90.163449,/6th St
160,41.811655,-89.968214,N Orange St
160,41.866980,-90.146921,Waller Rd
246,41.801950,-89.683663,11th Ave/E Le Fevre Rd
499,41.801763,-89.667860,Spring St
160,41.808356,-89.977341,Orchard Ln
185,41.810452,-89.978344,W Morris St
418,41.807685,-89.962996,N Clinton St/E Market St
305,41.791634,-89.689926,E 5th St/5th Ave
246,41.794252,-89.693114,E 9th St
216,41.631291,-89.785296,E Market St
418,41.795235,-89.694065,E 10th St/3rd Ave
276,41.657555,-90.079485,/9th Ave
216,41.774452,-89.701249,/W 7th St
160,41.809986,-89.960961,E North Rd/E North St
160,41.788695,-89.707307,W 3rd St/Ave H
276,41.865875,-90.152947,/13th St
160,41.801345,-89.731469,/W Le Fevre Rd
160,41.690481,-90.098451,/Albany Rd
362,41.801576,-89.665989,E 15th St/
246,41.771902,-89.692495,Edon Park Dr/5th Ave
160,41.828121,-89.725761,Noel Rd/Meadows Dr
160,41.793260,-89.680790,/E 4th St
276,41.790799,-89.697252,State Rte 40/E 6th St/Locust St
160,41.792753,-89.689670,E 6th St
246,41.790139,-89.687648,6th Ave/E 3rd St
246,41.790935,-89.699496,/W 6th St
160,41.799046,-89.711511,/W 14th St
160,41.765992,-89.966110,Crosby Rd
160,41.805507,-89.715504,W 20th St/Strawberry Ln
160,41.791071,-89.688090,6th Ave/E 4th St
499,41.808854,-89.966957,S Genesee St/N Genesee St
160,41.849348,-89.707681,/Pennington Rd
216,41.868783,-90.167888,8th Ave
246,41.795308,-89.686470,E 10th St/8th Ave
185,41.792553,-89.708223,Ave I/W 7th St
216,41.801532,-89.647541,E 15th St/Crestview Rd
160,41.888150,-90.121425,Steamer Dr
445,41.790575,-89.701377,/Ave D
185,41.751152,-89.747463,I- 88
276,41.796863,-89.675029,E 4th St/17th Ave
276,41.801458,-89.716949,W Le Fevre Rd/Griswold Ave
246,41.796319,-89.687118,/E 11th St
305,41.790328,-89.694741,/E 5th St
305,41.797316,-89.689109,E 12th St/6th Ave
160,41.801988,-89.674165,Calvary Ct
246,41.801544,-89.704909,W Le Fevre Rd/Ave G
185,41.789859,-89.705839,/Ave G
216,41.779490,-89.675677,/Dixon Ave
185,41.809331,-89.706106,Coventry Ln/Coventry Ct
160,41.837402,-90.165203,Dakin Rd
185,41.789530,-89.692031,/3rd Ave
185,41.790621,-89.693661,E 5th St
472,41.862034,-90.164577,5th St/16th Ave
216,41.712662,-89.925098,5th Ave W
160,41.819410,-89.642271,/45th Ave
216,41.781858,-89.706650,/Ave G Island
246,41.788606,-89.705990,W 3rd St/Ave G
276,41.794221,-89.710939,W 9th St/Ave K
185,41.770294,-89.689342,/1st Ave/W 12th St
160,41.808194,-89.950525,Scenic St
246,41.653237,-90.076861,7th Ave/6th St
185,41.792601,-89.708961,/W 7th St
216,41.810439,-89.691889,E Lynn Blvd
160,41.876590,-90.155176,Baker St/Valley View Dr
216,41.674641,-89.940419,W Riverside Dr
185,41.771765,-89.709667,W Rock Falls Rd
305,41.861041,-90.149232,Waller Rd/16th St
185,41.810240,-89.656115,/E Lincoln Way
185,41.792846,-90.210298,10th Ave N/E Main St
216,41.859737,-90.161186,18th Ave/8th St
605,41.864120,-90.165707,/4th St
160,41.789199,-89.687187,6th Ave/E 2nd St
160,41.766445,-89.705427,/12th Ave
160,41.713212,-89.927894,6th Ave W/3rd St W
160,41.823073,-89.736872,Science Ridge Rd
246,41.872875,-90.157907,10th St/3rd Ave
160,41.764040,-89.680545,Bourbon St/New High St
185,41.771269,-89.781408,US Hwy 30/Lincoln Rd/Como Rd/State Rte 2
160,41.751256,-89.670341,I- 88
185,41.795099,-89.681999,E 6th St/12th Ave
160,41.804472,-90.175297,Kennedy Rd/Garden Plain Rd
788,41.864578,-90.152965,13th Ave
160,41.792561,-90.211467,E Main St/9th Ave N
160,41.843697,-89.649506,Fulfs Rd/Polo Rd
160,41.808750,-89.656136,/E 23rd St
185,41.840286,-90.165308,/Co Hwy 36
185,41.805016,-89.972119,S Orange St/W Winfield St
418,41.808283,-89.658961,/E Lincoln Way
334,41.790972,-89.679099,11th Ave
185,41.792183,-89.695637,/E 7th St
160,41.866779,-90.157885,10th St
276,41.862052,-90.159547,9th St/16th Ave
160,41.796297,-89.748772,Wilson St/Emerson Rd
160,41.787734,-90.219289,N Lime St/1st Ave
160,41.834168,-90.028122,Lincoln Rd
418,41.805582,-89.686241,Greenridge Dr/8th Ave
185,41.798692,-89.665086,/E 13th St
216,41.842712,-90.065126,Millard Rd
160,41.659814,-90.076304,Main St/12th Ave
526,41.801578,-89.690714,E Le Fevre Rd/5th Ave
160,41.814588,-89.688779,/6th Ave
305,41.808838,-89.960340,Oakland Ave/E Knox St
418,41.800526,-89.684233,/11th Ave
160,41.806344,-89.972879,S Grape St/W South St
160,41.781076,-89.666067,Quail Ct
216,41.797890,-89.683342,E 13th St/12th Ave
185,41.858130,-90.165708,4th St/20th Ave
160,41.780262,-90.233547,Waller Rd/S Main St
418,41.815917,-89.649884,Polo Rd
865,41.805850,-89.674124,E 19th St/20th Ave
246,41.792860,-89.693118,Park Pl/E 7th St
185,41.767841,-89.779769,/Como Rd
160,41.788469,-90.219702,1st Ave
160,41.802631,-89.715759,Woodburn Ave
185,41.803835,-89.669777,Freeport Rd
246,41.772400,-89.725445,W Rock Falls Rd
