Estimated daily crossings,Latitude,Longitude,Name
160,42.808203,-95.740307,490th St/G Ave
160,42.741506,-95.546469,Hyland Ave/Sequoia Dr
160,42.814787,-95.713963,N Campbell Ave
160,42.795247,-95.534537,/Old 21 Rd
160,42.816732,-95.802129,E Highland Dr
305,42.753825,-95.541726,Saratoga Ave/Summit Ave
185,42.779643,-95.554011,/US Hwy 59
160,42.785835,-95.552131,/US Hwy 59
276,42.716602,-95.439117,W 6th St/Maple St
246,42.749377,-95.556560,S 6th St/Bishmart/W Maple St
246,42.751208,-95.557921,/N 7th St
216,42.813981,-95.805807,/Holmes St/Ridgeway Dr
185,42.713067,-95.439114,W 1st St/Maple St
418,42.757778,-95.542311,Clark St/Dakota Ave
246,42.859593,-95.546920,S Pine St
160,42.808669,-95.819654,C Ave
305,42.764785,-95.553076,/Centennial Dr
185,42.692013,-95.812097,/570th St
246,42.752256,-95.556477,/N 6th St
305,42.748091,-95.554657,W Elm St
445,42.757915,-95.551245,N 2nd St
160,42.821666,-95.810629,W 1st Ave/S Walnut St
160,42.851926,-95.746122,/460th St
362,42.825300,-95.800948,E Cedar St/N Beech St
160,42.797114,-95.641925,L Ave
160,42.633301,-95.780446,610th St/E Ave
185,42.714343,-95.554516,555th St/US Hwy 59
160,42.751346,-95.544695,N Roosevelt Ave
160,42.737664,-95.548970,/Hickory St
185,42.749698,-95.798111,/530th St
160,42.756622,-95.537391,E Spruce St
160,42.837163,-95.799528,Ames Ave/470th St/D Ave
185,42.823372,-95.803978,E Spruce St/N Elm St
160,42.630297,-95.780467,E Ave
185,42.811579,-95.805521,Golf Course Rd
160,42.769425,-95.661995,K Ave
160,42.748712,-95.543512,/E Maple St
334,42.751576,-95.549610,E Cedar St/N 1st St
216,42.749211,-95.561940,S 9th St
362,42.755089,-95.550144,E Bluff St
216,42.859598,-95.544452,E Pine St/S Church St
160,42.824542,-95.806699,E Pine St/N Locust St
891,42.749723,-95.553177,W Main St
246,42.747561,-95.551378,E Elm St/S 2nd St/W Elm St
185,42.760291,-95.540834,Cornelius Ave
160,42.880888,-95.603415,N Ave/440th St
276,42.763192,-95.554448,Warrior St/Chief St
334,42.760547,-95.550007,/Wilson Ave
276,42.749607,-95.547060,E Main St
216,42.756839,-95.547612,E Spruce St
390,42.823642,-95.809719,W Spruce St
160,42.759867,-95.543650,Gillease St
305,42.749827,-95.558188,W Main St
362,42.793718,-95.630398,3rd St
160,42.704132,-95.554519,/US Hwy 59
185,42.824609,-95.534556,/Old 21 Rd
216,42.716653,-95.437733,Pearl St/W 6th St
276,42.776884,-95.553994,/US Hwy 59
246,42.753228,-95.554439,/N 5th St
160,42.763879,-95.536326,State Hwy 3
160,42.859772,-95.547599,S Pine St/Railroad St/US Hwy 59
160,42.865626,-95.546043,450th St/
246,42.822510,-95.807844,E Amherst St/S Main St/W Amherst St
185,42.759541,-95.552642,Hillcrest St
305,42.715293,-95.442123,W 4th St/Locust St
658,42.763604,-95.552133,/N 2nd St
160,42.727768,-95.553141,545th St
891,42.749718,-95.552957,N 4th St/S 4th St/W Main St
185,42.749673,-95.781393,/530th St
160,42.662841,-95.595764,River Rd
160,42.865627,-95.546164,450th St/Meridian St
160,42.591975,-95.693932,/State Hwy 31
185,42.745824,-95.560676,S 8th St
246,42.750199,-95.556533,N 6th St
216,42.821387,-95.802718,/S Ash St
160,42.762853,-95.544556,/N Roosevelt Ave
160,42.727712,-95.549980,545th St
246,42.748084,-95.554290,W Elm St
160,42.748882,-95.506693,/530th St
499,42.750576,-95.554551,N 5th St/W Willow St
276,42.714652,-95.430501,/E 4th St
160,42.748797,-95.548169,Reddington Ave/E Maple St
160,42.823800,-95.799395,E Pine St/D Ave
185,42.826672,-95.808446,/W Railroad St
305,42.754597,-95.561741,/N 9th St
160,42.631332,-95.638486,E Railway St/E 3rd Ave
216,42.824477,-95.805284,E Pine St/N Oak St
246,42.716718,-95.439549,W 6th St
276,42.757013,-95.551477,/N 2nd St
276,42.767086,-95.553016,N 2nd St
185,42.715480,-95.440414,W 5th St/Spruce St
305,42.756787,-95.545948,E Spruce St/Sherman Ave
246,42.631434,-95.641447,/E 3rd Ave
160,42.747216,-95.555821,W Locust St/S 5th St
276,42.751352,-95.547276,/Euclid Ave
160,42.815033,-95.805774,/Ridgeway Dr
185,42.823468,-95.806079,/E Spruce St
160,42.629288,-95.643454,S Clark St/W 1st Ave
185,42.822221,-95.801920,/E Amherst St
246,42.771701,-95.553944,US Hwy 59
160,42.793339,-95.675279,500th St
246,42.749601,-95.546679,Sioux St/E Main St
216,42.711334,-95.436533,E 1st St/Main St/W 1st St
185,42.754007,-95.564210,Hill St/N 11th St
390,42.752160,-95.551192,N 2nd St
605,42.748858,-95.551310,/S 2nd St/E Maple St
160,42.634105,-95.595071,610th St
160,42.749922,-95.541784,/Saratoga Ave
160,42.788930,-95.740695,G Ave
160,42.838240,-95.642252,/L Ave
160,42.631445,-95.642480,/W 3rd Ave
579,42.762354,-95.551800,N 2nd St
334,42.750882,-95.549646,N 1st St
160,42.604109,-95.814782,630th St
160,42.793752,-95.629074,/3rd St
472,42.754371,-95.547271,Euclid Ave/Sumner St
276,42.751842,-95.564288,W Cedar St/N 11th St
160,42.765001,-95.538746,State Hwy 3
160,42.633970,-95.545540,Q Ave/610th St
276,42.712538,-95.433292,/E 2nd St
246,42.747629,-95.554275,S 4th St/W Elm St
305,42.748196,-95.560573,S 8th St/W Elm St
160,42.760028,-95.554714,Chief St
185,42.738794,-95.551724,Lake St/S 2nd St
185,42.749167,-95.546683,Sioux St
246,42.813986,-95.804578,Holmes St/Reagan St
185,42.761523,-95.534733,Riverview Dr/Colony Dr
185,42.755830,-95.539803,Ash St
185,42.848881,-95.799646,/D Ave
160,42.626405,-95.645715,State Hwy 31/Clark Ave
160,42.787096,-95.567970,Oak Rd/State Hwy 3
334,42.824715,-95.810339,W Pine St/N Walnut St
160,42.741531,-95.551617,S 2nd St
160,42.715630,-95.436026,/E 5th St
185,42.823814,-95.797339,/E Pine St
185,42.822087,-95.799411,C36/E Amherst St/D Ave
185,42.778764,-95.706990,/510th St
305,42.822661,-95.780567,/E Section St
276,42.750410,-95.546519,E Willow St/
216,42.771530,-95.553929,/US Hwy 59
185,42.749487,-95.541795,Saratoga Ave/E Main St
160,42.822697,-95.772490,480th St
710,42.757736,-95.540851,Cornelius Ave/Clark St
160,42.822655,-95.783375,E Section St
390,42.712497,-95.436539,Main St/W 2nd St/E 2nd St
160,42.711500,-95.432558,Willow St/Hill St
160,42.784094,-95.565290,State Hwy 3
160,42.746322,-95.562045,W Beech St/S 9th St
216,42.749599,-95.546560,/E Main St
160,42.746731,-95.565238,S 11th St
185,42.747806,-95.565194,S 11th St
160,42.758594,-95.549523,N 1st St/Sioux Valley Dr
472,42.749646,-95.549717,S 1st St/E Main St
216,42.763858,-95.554513,Chief St/Indian St
216,42.772808,-95.554578,State Hwy 3
160,42.715389,-95.427242,Valor Rd
160,42.864632,-95.546122,Railroad St/Meridian St
526,42.818972,-95.804309,S Elm St/E Fenton St
390,42.761222,-95.552291,Arrow St
160,42.561004,-95.780436,100th St
160,42.762265,-95.534724,Riverview Dr/
160,42.821948,-95.799415,D Ave
445,42.824654,-95.808919,W Pine St/N Maple St
390,42.758261,-95.551205,/N 2nd St
185,42.633944,-95.555295,610th St/US Hwy 59
185,42.632500,-95.638607,E 4th Ave
305,42.793679,-95.631934,3rd St/Elm St
160,42.880901,-95.604392,/440th St
160,42.826664,-95.806531,E Railroad St/N Locust St
246,42.749794,-95.556546,S 6th St/N 6th St/W Main St
185,42.858322,-95.543510,455th St
216,42.746304,-95.560655,S 8th St/W Beech St
160,42.858157,-95.460327,Martin Access Rd
160,42.738855,-95.554065,Lake St
160,42.759173,-95.549514,N 1st St/Sioux Valley Dr
185,42.792449,-95.632664,4th St/Falcon
160,42.809804,-95.534620,/Old 21 Rd
185,42.632501,-95.638423,E 4th Ave
160,42.746622,-95.565258,Tapley Ln/S 11th St
246,42.756430,-95.551540,/N 2nd St
418,42.752684,-95.552102,W Cherry St
216,42.750645,-95.557936,N 7th St/W Willow St
160,42.788652,-95.740701,G Ave
160,42.817894,-95.805710,Crestwood Dr/Ridgeway Dr
160,42.706421,-95.720916,/H Ave
246,42.822389,-95.805454,S Oak St/E Amherst St/N Oak St
160,42.574730,-95.716771,/Railroad St
362,42.755084,-95.550245,King St/E Bluff St
160,42.768326,-95.555824,Victory Dr
160,42.794721,-95.635603,Cedar St/2nd St
418,42.751617,-95.552401,W Cedar St
216,42.715031,-95.442413,W 1st St
276,42.823550,-95.807910,E Spruce St/W Spruce St/N Main St
246,42.748080,-95.554095,W Elm St
526,42.748438,-95.551341,/S 2nd St
160,42.710246,-95.437113,/S Main St
160,42.820783,-95.809971,/W 2nd Ave/S Maple St
160,42.711511,-95.431150,Beech St/Hill St
160,42.785653,-95.622619,M Ave
185,42.753343,-95.557873,Walnut St/N 7th St
305,42.750452,-95.548900,E Willow St
160,42.756865,-95.522957,State Hwy 3/Keeline Rd
160,42.807950,-95.799800,490th St/D Ave
160,42.713090,-95.439788,W 3rd St
185,42.739671,-95.551681,S 2nd St
160,42.748574,-95.446753,530th St/V Ave
160,42.746070,-95.549101,E Beech St
160,42.763936,-95.538542,Sleezer Rd
276,42.792486,-95.633364,4th St/Myrtle St
160,42.820820,-95.811705,W 2nd Ave
160,42.561121,-95.780817,100th St/E Ave
160,42.632960,-95.639143,Plain St
160,42.634390,-95.468969,610th St
362,42.825312,-95.811712,/N Linn St
185,42.806885,-95.701012,490th St/State Hwy 3/I Ave
216,42.808079,-95.821905,490th St
276,42.859590,-95.545661,Pine St/E Pine St/S Main St
160,42.881422,-95.603418,/N Ave
160,42.764338,-95.541806,S Craig Dr/E Craig Dr
185,42.740642,-95.426909,/W Ave
305,42.760540,-95.551359,N 2nd St/Wilson Ave
216,42.773036,-95.554046,US Hwy 59
185,42.760444,-95.564323,520th St/N 11th St
185,42.849451,-95.427459,W Ave
246,42.822422,-95.806155,/E Amherst St
334,42.818972,-95.801518,E Fenton St/S Beech St
185,42.603013,-95.525578,/R Ave
499,42.764770,-95.552427,N 2nd St/Centennial Dr
305,42.750710,-95.561878,N 9th St/W Willow St
185,42.881689,-95.454608,Martin Access Rd
160,42.836574,-95.539226,470th St
160,42.898998,-95.800509,D Ave
246,42.772231,-95.554056,State Hwy 3/US Hwy 59
185,42.808082,-95.820718,490th St/Hwy 3
305,42.748230,-95.562707,/W Elm St
445,42.749238,-95.563367,/S 10th St
839,42.766209,-95.552790,/N 2nd St
160,42.714639,-95.431915,/E 4th St
334,42.750464,-95.549540,E Willow St/Union St/N 1st St
160,42.709299,-95.800805,/D Ave
160,42.716707,-95.433375,E 6th St
276,42.749840,-95.558965,S 7th St/W Main St
276,42.748124,-95.556613,S 6th St/W Elm St
160,42.809682,-95.712733,S Lewis Ave/Lawrence St
334,42.751283,-95.564296,/N 11th St
160,42.753460,-95.564256,/N 11th St
185,42.818976,-95.805675,Ridgeway Dr/E Fenton St
160,42.610176,-95.642175,/L Ave
160,42.574696,-95.717187,Railroad St/S 3rd Ave
185,42.750376,-95.544706,E Willow St/N Roosevelt Ave
160,42.808024,-95.750824,490th St
185,42.706213,-95.720918,560th St/H Ave
276,42.750737,-95.564315,W Willow St/N 11th St
160,42.733213,-95.552224,/S 2nd St/US Hwy 59
160,42.748690,-95.450784,530th St
160,42.763951,-95.539110,/Sleezer Rd
216,42.748539,-95.556596,S 6th St
160,42.748391,-95.548204,/Reddington Ave/E Elm St
216,42.821551,-95.807920,Main St
160,42.603804,-95.564913,/P Ave
160,42.605144,-95.546076,Q Ave/630th St
160,42.822938,-95.710937,480th St/Hamilton Rd
185,42.754244,-95.554426,N 5th St
305,42.808083,-95.831076,/490th St
362,42.748522,-95.554983,S 5th St
160,42.748975,-95.512945,State Hwy 3/530th St
305,42.749892,-95.561907,S 9th St/W Main St/N 9th St
185,42.751229,-95.560457,N 8th St
160,42.808086,-95.819675,490th St/C Ave
472,42.749221,-95.549731,S 1st St
185,42.837462,-95.684144,470th St
160,42.824441,-95.819137,/C Ave
160,42.749806,-95.721285,H Ave/530th St
246,42.825585,-95.806589,E Cedar St/N Locust St
185,42.858312,-95.542466,455th St/S Jordan St
160,42.775583,-95.529796,/Old 21 Rd
160,42.826228,-95.799429,/D Ave/E Railroad St
216,42.755375,-95.539199,Park Ave/E Bluff St
305,42.751863,-95.547273,E Cedar St/Euclid Ave
160,42.747236,-95.556651,S 6th St/W Locust St
185,42.792475,-95.631988,4th St/Elm St
160,42.837641,-95.642252,470th St/L Ave
160,42.826431,-95.799437,D Ave
216,42.575923,-95.716393,/Railroad St
185,42.751800,-95.560447,N 8th St/W Cedar St
390,42.755077,-95.551428,N 2nd St/E Bluff St/W Bluff St
160,42.737684,-95.549769,Hickory St
160,42.763884,-95.536444,State Hwy 3
684,42.749345,-95.553189,S 4th St/W Maple St
160,42.751844,-95.544687,E Cedar St/N Roosevelt Ave
185,42.818960,-95.799495,D Ave/E Fenton St
185,42.748716,-95.466328,530th St/U Ave
160,42.753579,-95.642870,L Ave
160,42.766458,-95.622756,M Ave
362,42.824679,-95.809622,W Pine St
276,42.748088,-95.554484,W Elm St
160,42.791774,-95.603033,N Ave
160,42.632528,-95.640569,E 4th Ave/Sellers St
160,42.792822,-95.573761,Oak Rd/State Hwy 3/500th St
276,42.752750,-95.548716,/Millard St
246,42.772406,-95.554048,State Hwy 3/US Hwy 59
160,42.812066,-95.799694,D Ave
160,42.765166,-95.539104,/State Hwy 3
472,42.749642,-95.549616,E Main St/N 1st St
160,42.808036,-95.750134,/490th St
246,42.753403,-95.560404,N 8th St/Walnut St
216,42.751816,-95.561847,N 9th St/W Cedar St
160,42.905991,-95.682165,/J Ave
185,42.712584,-95.438399,/W 1st St
160,42.738852,-95.553847,Lake St
216,42.797559,-95.641909,State Hwy 3/L Ave
160,42.576333,-95.407539,650th St/Y Ave
160,42.648115,-95.626257,/River Rd
276,42.749610,-95.547292,E Main St/Euclid Ave
160,42.756710,-95.542326,E Spruce St/Dakota Ave
160,42.792110,-95.472556,/500th St
160,42.905571,-95.682153,/J Ave
334,42.825678,-95.808300,/W Cedar St
160,42.819027,-95.808790,W Fenton St
362,42.748414,-95.549757,/S 1st St
246,42.626400,-95.642065,L Ave/Clark Ave/S Main St
216,42.737338,-95.551849,S 2nd St
185,42.759943,-95.564140,/N 11th St
216,42.759818,-95.540837,Cornelius Ave/Gillease St
276,42.757790,-95.544631,Clark St/N Roosevelt Ave
246,42.761521,-95.553358,Bow Dr
160,42.803208,-95.681150,J Ave/State Hwy 3
160,42.633993,-95.565119,610th St/P Ave
160,42.854136,-95.461786,/Martin Access Rd
160,42.706533,-95.787247,560th St
185,42.823501,-95.806780,E Spruce St/N Locust St
160,42.575113,-95.717194,S 3rd Ave
185,42.716678,-95.434796,E 6th St
185,42.714264,-95.554514,US Hwy 59
362,42.751859,-95.548714,Millard St/E Cedar St
334,42.752213,-95.554482,N 5th St/
362,42.755333,-95.564180,W Bluff St/N 11th St
185,42.808128,-95.712754,490th St/S Lewis Ave
276,42.751317,-95.541754,Saratoga Ave
160,42.732915,-95.623892,M Ave
160,42.722292,-95.574222,River Rd/550th St
160,42.826665,-95.805794,/E Railroad St
276,42.715604,-95.438413,W 5th St/
579,42.761244,-95.551535,N 2nd St/E Ridgeview Dr
160,42.713594,-95.431190,E 3rd St/Beech St
362,42.759039,-95.544610,Hayward St/N Roosevelt Ave
865,42.765247,-95.552547,/N 2nd St
160,42.864438,-95.546182,/Railroad St
160,42.710505,-95.431017,Beech St
160,42.728276,-95.553084,S 2nd St/US Hwy 59
185,42.748711,-95.493527,530th St
185,42.746115,-95.550865,E Beech St
390,42.764167,-95.550843,/E Indian St
160,42.795722,-95.634439,Eagle St
160,42.761589,-95.539045,Park Ave
216,42.822618,-95.799372,C36/E Section St
185,42.748701,-95.480618,/530th St
160,42.785311,-95.622623,M Ave
160,42.751613,-95.514472,/State Hwy 3
160,42.754969,-95.545967,Sherman Ave/E Bluff St
160,42.770078,-95.661982,K Ave
160,42.722794,-95.446669,/V Ave
216,42.713589,-95.431893,/E 3rd St
216,42.770746,-95.553841,US Hwy 59
160,42.746084,-95.549869,E Beech St/S 1st St
334,42.712509,-95.435948,/E 2nd St
185,42.741505,-95.426919,535th St/W Ave
246,42.753819,-95.541243,/Summit Ave
276,42.754367,-95.544657,N Roosevelt Ave/Sumner St
552,42.749739,-95.553887,N Pine St/W Main St
305,42.754998,-95.547253,Euclid Ave/E Bluff St
185,42.817817,-95.799543,D Ave
185,42.716652,-95.436619,E 6th St/W 6th St/Main St
839,42.749272,-95.551279,S 2nd St/W Maple St
246,42.755651,-95.549594,King St/N 1st St
216,42.824560,-95.807260,/E Pine St
160,42.812985,-95.713256,Dixon Ct/Grace Ave
418,42.824268,-95.801024,E Pine St/N Beech St
160,42.714575,-95.437134,/W 4th St
160,42.748575,-95.446661,530th St/V Ave
185,42.823802,-95.798705,/E Pine St
160,42.749928,-95.581671,/530th St
246,42.771964,-95.553361,State Hwy 3
579,42.748922,-95.553452,S 4th St
390,42.752655,-95.551161,E Cherry St/N 2nd St/W Cherry St
160,42.749206,-95.560529,S 8th St/
160,42.826648,-95.805101,N Oak St/E Railroad St
185,42.755102,-95.552717,/W Bluff St
185,42.750626,-95.556519,N 6th St/W Willow St
305,42.714659,-95.429799,Ash St/E 4th St
276,42.712520,-95.435426,Myrtle St/E 2nd St
160,42.748699,-95.457616,530th St
160,42.711491,-95.433277,/Hill St
185,42.755108,-95.553023,W Bluff St
246,42.755925,-95.550456,N 2nd St
185,42.821477,-95.806977,S Locust St
390,42.793714,-95.630542,Walnut St/3rd St
160,42.772927,-95.531204,/Old 21 Rd
305,42.713573,-95.432618,Willow St/E 3rd St
185,42.628753,-95.643462,/S Clark St
160,42.748712,-95.466856,/530th St
160,42.714592,-95.435472,E 4th St/Myrtle St
216,42.711771,-95.437211,/W 1st St
160,42.814804,-95.712729,N Lewis Ave
160,42.741384,-95.547428,Rock Island Ave/Sequoia Dr
160,42.749812,-95.736704,/530th St
185,42.807966,-95.797915,490th St
160,42.778689,-95.554022,/US Hwy 59
305,42.752738,-95.554462,N 5th St/W Cherry St
160,42.721964,-95.721209,H Ave
362,42.822312,-95.804042,S Elm St/E Amherst St/N Elm St
276,42.752791,-95.547292,Fountain St/Euclid Ave
334,42.826433,-95.802283,N Ash St/E Railroad St
185,42.794715,-95.633348,Myrtle St/2nd St
160,42.740695,-95.551642,S 2nd St
246,42.715653,-95.434753,/E 5th St
216,42.749558,-95.544716,E Main St/S Roosevelt Ave/N Roosevelt Ave
362,42.759055,-95.551166,/N 2nd St/Hillcrest St
185,42.712062,-95.437658,W 1st St
160,42.749896,-95.699258,530th St
216,42.753309,-95.556462,Walnut St/N 6th St
216,42.749663,-95.780625,530th St/E Ave
276,42.859567,-95.546725,Pine St/S Pine St
334,42.759315,-95.544605,Sioux Valley Dr/N Roosevelt Ave
160,42.749740,-95.851492,/530th St
160,42.736321,-95.571890,River Rd/
246,42.714645,-95.431200,E 4th St/Beech St
160,42.784134,-95.552720,Mill Creek Rd/US Hwy 59
246,42.754513,-95.541218,/Sumner St
160,42.825899,-95.813233,/W Cedar St
160,42.712929,-95.426157,Pitcher Dr/Miller Dr
246,42.826387,-95.801566,E Railroad St
160,42.753722,-95.588709,Harrison Dr/Country Rd
334,42.750009,-95.547288,Euclid Ave
160,42.758703,-95.571592,/W Cedar Loop
160,42.823407,-95.811887,N Linn St
334,42.825414,-95.803074,E Cedar St
160,42.618591,-95.859523,A Ave/300th St
160,42.714510,-95.427261,Valor Rd
160,42.811587,-95.798250,Eagle Ave
185,42.714628,-95.433329,/E 4th St
160,42.622804,-95.642125,/L Ave
160,42.810675,-95.819581,C Ave
216,42.821602,-95.807918,Park Ave/Main St
216,42.777165,-95.554032,/US Hwy 59
160,42.648489,-95.720916,H Ave/600th St
160,42.575295,-95.807819,650th St
160,42.825708,-95.808827,N Maple St/W Cedar St
246,42.793666,-95.633364,3rd St/Myrtle St
160,42.634102,-95.594666,Silver Sioux Rd/610th St
216,42.751744,-95.557909,N 7th St/W Cedar St
185,42.788822,-95.583382,O Ave
185,42.618599,-95.659774,/State Hwy 31
185,42.757198,-95.564147,Hillside St/N 11th St
185,42.734328,-95.446566,V Ave
185,42.792548,-95.634448,4th St/Eagle St
362,42.712488,-95.437088,/W 2nd St
246,42.823531,-95.807348,/E Spruce St
216,42.763624,-95.543454,Valley View Dr
185,42.720412,-95.446698,9th St/W 1st St/550th St/V Ave
305,42.750451,-95.548844,E Willow St/
160,42.768320,-95.555636,Victory Dr
160,42.561035,-95.781946,100th St
160,42.593190,-95.690663,State Hwy 31
185,42.711258,-95.436823,S Main St
160,42.575534,-95.717187,N 3rd Ave/Main St/S 3rd Ave
160,42.716718,-95.432699,Willow St//E 6th St
160,42.749804,-95.731709,530th St
246,42.760604,-95.552318,Arrow St
160,42.589598,-95.853870,/640th St
305,42.751847,-95.541755,E Cedar St/Saratoga Ave
160,42.826674,-95.808748,N Maple St/W Railroad St
445,42.758787,-95.540822,Cornelius Ave/Jefferies St
305,42.758025,-95.545924,Hayward St
216,42.796628,-95.634459,State Hwy 3/Eagle St
246,42.750680,-95.560476,N 8th St/W Willow St
216,42.716653,-95.438480,/W 6th St
216,42.713563,-95.434021,Walnut St/E 3rd St
362,42.755691,-95.551495,N 2nd St
246,42.758815,-95.542298,Jefferies St/Dakota Ave
160,42.815794,-95.805752,Ridgeway Dr/Crestview Dr
160,42.798407,-95.641910,/L Ave
334,42.824811,-95.811757,W Pine St/N Linn St
216,42.746145,-95.551961,W Beech St
216,42.754430,-95.800386,D Ave
160,42.866557,-95.611115,450th St/
246,42.753957,-95.561767,N 9th St/Hill St
305,42.755130,-95.554187,W Bluff St
246,42.754369,-95.545981,Sherman Ave/Sumner St
216,42.748217,-95.561988,S 9th St/W Elm St
305,42.762507,-95.554376,Sac St/Chief St
246,42.824373,-95.803149,/E Pine St
246,42.813762,-95.713971,Adaline St/N Campbell Ave
216,42.714602,-95.434730,/E 4th St
246,42.758829,-95.542969,Jefferies St
216,42.756649,-95.539167,E Spruce St/Park Ave
185,42.753634,-95.540623,Park Ave/Summit Ave
305,42.754526,-95.541673,Saratoga Ave/Sumner St
160,42.618230,-95.660439,State Hwy 31
160,42.763966,-95.539703,/Sleezer Rd
246,42.822469,-95.806870,S Locust St/E Amherst St/N Locust St
246,42.752778,-95.556469,N 6th St/W Cherry St
160,42.631437,-95.638479,/3rd Ave
160,42.821404,-95.809922,Maple St/S Maple St
160,42.600032,-95.680365,J Ave/State Hwy 31
305,42.757147,-95.551440,/N 2nd St
160,42.785541,-95.552256,US Hwy 59
160,42.825851,-95.799430,D Ave
160,42.576955,-95.714725,Lincoln St
160,42.618606,-95.859293,300th St
276,42.824407,-95.803865,E Pine St/N Elm St
185,42.627723,-95.643367,State Hwy 31
160,42.811591,-95.486116,T Ave
185,42.860757,-95.544465,Cedar St/S Church St/N Church St
160,42.751912,-95.544686,E Cedar St/N Roosevelt Ave
160,42.765946,-95.543460,Susan Ave/N Craig Dr
216,42.712473,-95.437667,Pearl St/W 2nd St
246,42.762189,-95.549554,/E Bow Dr
276,42.755119,-95.549469,E Bluff St/Central St
160,42.711483,-95.433958,Walnut St/Hill St
362,42.755745,-95.564189,Iowa St/N 11th St
160,42.910065,-95.544137,Q Ave/420th St
185,42.749767,-95.760953,F Ave/530th St
216,42.764026,-95.544540,E Indian St/N Roosevelt Ave
445,42.758344,-95.544622,/N Roosevelt Ave
246,42.716647,-95.437189,/W 6th St
276,42.764159,-95.550506,/E Indian St
160,42.575534,-95.714219,S 1st Ave/E Main St
246,42.756831,-95.549558,E Spruce St/N 1st St
160,42.749812,-95.737192,530th St
185,42.793775,-95.628260,/3rd St
160,42.812392,-95.486116,/T Ave
160,42.910019,-95.524513,420th St/R Ave
160,42.763887,-95.556034,Flint St/Indian St
185,42.813335,-95.716541,Grace Ave
185,42.756675,-95.540880,Cornelius Ave/E Spruce St
160,42.820754,-95.809356,W 2nd Ave/S Maple St
246,42.713545,-95.436549,W 3rd St/Main St/E 3rd St
246,42.761845,-95.553014,W Bow Dr/Bow Dr
185,42.754014,-95.564977,/Hill St
276,42.718012,-95.435437,E 7th St/Myrtle St
305,42.706293,-95.688118,560th St/
216,42.746132,-95.551442,W Beech St/E Beech St/S 2nd St
160,42.810274,-95.505063,/S Ave
579,42.818988,-95.803663,/E Fenton St
160,42.727772,-95.553354,545th St/US Hwy 59
216,42.824445,-95.804572,E Pine St
216,42.812985,-95.713985,Grace Ave/Campbell Ave/N Campbell Ave
160,42.633832,-95.594664,Silver Sioux Rd
160,42.825547,-95.805918,/E Cedar St
160,42.822665,-95.779606,E Section St/E Ave
185,42.720626,-95.721154,H Ave/550th St
160,42.836800,-95.554250,470th St/US Hwy 59
185,42.758692,-95.536063,/Jefferies St
216,42.717604,-95.441310,Elm St
160,42.678809,-95.800487,/D Ave
160,42.747233,-95.554548,S 4th St/W Locust St
185,42.761747,-95.800330,/D Ave
185,42.711452,-95.435393,Myrtle St/Hill St
160,42.749435,-95.539688,E Main St
160,42.823756,-95.811860,N Linn St/W Spruce St
160,42.631432,-95.639242,3rd Ave/Plain St/E 3rd Ave
216,42.713549,-95.435980,E 3rd St
216,42.711483,-95.436534,Main St
216,42.712550,-95.432577,Willow St/E 2nd St
185,42.735588,-95.547503,Rock Island Ave/Pilot Ave
160,42.762158,-95.547634,/E Bow Dr
246,42.753294,-95.554437,N 5th St/Walnut St
160,42.836505,-95.534470,470th St/Old 21 Rd
160,42.748703,-95.484227,/530th St
160,42.631433,-95.639168,3rd Ave/Plain St
216,42.821979,-95.528081,/480th St
185,42.715620,-95.436594,W 5th St/E 5th St/Main St
276,42.859599,-95.545080,E Pine St
276,42.748915,-95.556579,/S 6th St
160,42.761055,-95.554402,Chief St
216,42.771641,-95.554078,US Hwy 59
276,42.775908,-95.427061,/W Ave
160,42.633283,-95.730388,/610th St
362,42.750740,-95.563308,N 10th St/W Willow St
160,42.809045,-95.792967,Progressive Dr
160,42.778885,-95.583317,510th St/O Ave
160,42.795629,-95.634439,1st St/Eagle St
160,42.749804,-95.731372,530th St
160,42.827909,-95.642007,/L Ave
185,42.749147,-95.544721,S Roosevelt Ave
160,42.795876,-95.636228,1st St/Maple Rd
185,42.714546,-95.438993,W 4th St
160,42.809045,-95.794618,Eagle Ave/Progressive Dr
246,42.822362,-95.804760,/E Amherst St
185,42.714545,-95.439090,W 4th St/Maple St
185,42.632500,-95.639175,E 4th Ave/Plain St
160,42.823718,-95.811120,W Spruce St
160,42.837050,-95.838185,470th St
160,42.793467,-95.592278,/500th St
185,42.866331,-95.800072,450th St/D Ave
160,42.712929,-95.426269,Pitcher Dr
160,42.902813,-95.487278,Vine Ave
160,42.808070,-95.835408,490th St
246,42.762765,-95.548200,E Ridgeview Dr
216,42.575540,-95.715348,Lincoln St/E Main St/Main St
160,42.561235,-95.779399,100th St
160,42.807981,-95.777534,490th St
185,42.714509,-95.440392,W 4th St/Spruce St
160,42.712528,-95.433990,Walnut St/E 2nd St
276,42.751241,-95.561863,/N 9th St
710,42.749678,-95.551248,N 2nd St/E Main St/W Main St/S 2nd St
246,42.762556,-95.556096,Sac St/Flint St
160,42.824189,-95.799413,E Pine St/D Ave
185,42.765323,-95.556999,Matthew St/Sesame St
160,42.750321,-95.541774,E Willow St/Saratoga Ave
552,42.750537,-95.553003,W Willow St
160,42.810832,-95.799725,D Ave
160,42.759886,-95.544595,Gillease St/N Roosevelt Ave
160,42.803567,-95.681137,J Ave
185,42.763240,-95.556066,Warrior St/Flint St
160,42.677540,-95.642726,580th St/L Ave
185,42.759757,-95.539078,Gillease St/Park Ave
185,42.693508,-95.593568,Pilot Rd
246,42.752434,-95.541756,/Saratoga Ave
160,42.761664,-95.545619,/E Bow Dr
305,42.748972,-95.556577,S 6th St/W Maple St
160,42.761653,-95.544570,E Bow Dr/N Roosevelt Ave
216,42.713617,-95.429773,Ash St/E 3rd St
160,42.774208,-95.583377,/O Ave
160,42.575536,-95.716482,Railroad St/Main St
160,42.835430,-95.534478,Old 21 Rd
390,42.749334,-95.554550,S 5th St/W Maple St
160,42.749809,-95.736351,/530th St
160,42.809330,-95.819630,/C Ave
185,42.576491,-95.716127,Stratton St/Railroad St/N Railroad St
160,42.714689,-95.427259,Valor Rd/E 4th St
160,42.634183,-95.612081,Hwy 31/
362,42.748249,-95.563405,S 10th St/W Elm St
160,42.818970,-95.819258,C Ave
185,42.757096,-95.564149,/N 11th St
246,42.771895,-95.553513,State Hwy 3
185,42.631962,-95.639187,/Plain St
246,42.716702,-95.441314,W 6th St/Elm St
605,42.761869,-95.551681,W Bow Dr/N 2nd St/E Bow Dr
160,42.748723,-95.497235,530th St
185,42.629296,-95.645335,/W 1st Ave/N Pinkerton/S Pinkerton St
216,42.760656,-95.534740,Riverview Dr/Colony Dr
160,42.714136,-95.426133,Miller Dr
160,42.714588,-95.436567,W 4th St/E 4th St/Main St
305,42.714665,-95.429346,/E 4th St
216,42.782510,-95.563896,State Hwy 3/Charles St
246,42.755228,-95.558809,/W Bluff St
160,42.582550,-95.717345,Ritts Rd
305,42.752462,-95.547268,Union St/Euclid Ave
276,42.768290,-95.553329,/N 2nd St/Victory Dr
160,42.743567,-95.446587,/V Ave
160,42.746525,-95.520896,Sunset Point Dr
185,42.823800,-95.798025,E Pine St/N Radcliff Ave
185,42.792433,-95.630665,4th St/Walnut St
216,42.742349,-95.554520,Spring Lake Dr
185,42.778999,-95.636696,510th St
246,42.823253,-95.801820,/E Spruce St
276,42.750762,-95.565090,/W Willow St
160,42.796009,-95.637067,1st St
216,42.783450,-95.800116,/D Ave
160,42.835225,-95.534480,Old 21 Rd
552,42.750525,-95.552479,N 4th St/W Willow St
185,42.819021,-95.808166,W Fenton St
160,42.691784,-95.698749,570th St
305,42.820056,-95.801426,S Beech St
185,42.749926,-95.579724,/530th St
246,42.747139,-95.551394,E Locust St/W Locust St/S 2nd St
334,42.754685,-95.564186,/N 11th St
276,42.824593,-95.807829,W Pine St/E Pine St/N Main St
160,42.748653,-95.540447,Water St/E Maple St
160,42.745504,-95.565245,W View Dr
246,42.716709,-95.440130,W 6th St/Cherry St
246,42.819682,-95.807141,S Locust St
160,42.619902,-95.388238,10th Ave/620th St
185,42.768339,-95.557450,Victory Dr
160,42.823804,-95.796642,E Pine St/Shamrock Rd
160,42.790751,-95.603015,N Ave
160,42.865623,-95.545786,450th St/Hwy 57/Railroad St
160,42.748574,-95.446584,530th St/V Ave
160,42.808150,-95.710442,/490th St
246,42.755204,-95.558523,W Bluff St
185,42.826667,-95.807100,/E Railroad St
246,42.753072,-95.544668,Magnetic Ave/N Roosevelt Ave
185,42.632529,-95.641196,/E 4th Ave
276,42.764359,-95.543496,Susan Ave/S Craig Dr
276,42.752357,-95.561832,/N 9th St
160,42.824948,-95.799417,E Cedar St/D Ave
160,42.769250,-95.720732,/H Ave
160,42.795194,-95.627075,State Hwy 3
185,42.748797,-95.393909,/530th St
160,42.748688,-95.446669,530th St/V Ave
160,42.891954,-95.800477,/D Ave
185,42.632503,-95.638322,E 4th Ave
160,42.715664,-95.432655,Willow St/E 5th St
526,42.764172,-95.551086,/E Indian St
160,42.749667,-95.779658,530th St
246,42.822258,-95.802627,S Ash St/N Ash St/E Amherst St
185,42.808441,-95.820475,Hwy 3
160,42.750423,-95.780625,E Ave
185,42.658377,-95.839554,B Ave
160,42.793299,-95.573702,Oak Rd
160,42.910023,-95.525393,420th St
160,42.713521,-95.438390,/W 3rd St
445,42.758289,-95.542305,/Dakota Ave
160,42.746097,-95.446626,V Ave
334,42.750724,-95.549297,Union St
185,42.807960,-95.794620,490th St/Eagle Ave
216,42.575538,-95.714968,E Main St
246,42.772327,-95.553934,State Hwy 3/US Hwy 59
185,42.818406,-95.819283,/C Ave
160,42.716658,-95.436072,/E 6th St
185,42.746294,-95.559805,W Beech St
362,42.757183,-95.539133,/Park Ave
390,42.819512,-95.801475,S Beech St
216,42.631966,-95.640562,/Sellers St
160,42.837179,-95.798534,/470th St
160,42.788360,-95.740707,/G Ave
216,42.860136,-95.544458,S Church St
185,42.755912,-95.544652,Ash St/N Roosevelt Ave
390,42.751861,-95.547953,Union St/E Cedar St
334,42.824755,-95.811046,W Pine St/
160,42.836833,-95.558420,/470th St
334,42.767606,-95.553152,N 2nd St
160,42.735178,-95.551822,Linden St
160,42.819916,-95.809390,3rd Ave/S Maple St
185,42.715639,-95.435474,E 5th St/Myrtle St
160,42.767289,-95.542944,Industrial Rd
185,42.910070,-95.545882,420th St
160,42.821650,-95.809902,/W 1st Ave/Maple St/S Maple St
390,42.748037,-95.551363,/S 2nd St
334,42.825791,-95.810966,/W Cedar St
160,42.762696,-95.534720,Riverview Dr/Sleezer Rd
216,42.757238,-95.542319,/Dakota Ave
160,42.734892,-95.537948,/Linden St
276,42.628136,-95.644293,/W Railway St
185,42.807207,-95.701012,I Ave
160,42.632525,-95.641950,E 4th Ave/Co Hwy L51/N Main St
305,42.754555,-95.542712,Bailey Ct/Sumner St
160,42.834454,-95.476218,/Smith Rd
160,42.710031,-95.437110,/S Main St
276,42.754576,-95.543473,Bailey Ct/Webster St/Sumner St
216,42.754932,-95.544654,E Bluff St/N Roosevelt Ave
216,42.711385,-95.436612,S Main St/W 1st St
160,42.739722,-95.545447,Poplar Dr/Tomahawk St/Tomahawk Ave
185,42.791905,-95.632648,Falcon
788,42.749728,-95.553391,W Main St
185,42.746275,-95.559052,S 7th St/W Beech St
185,42.632529,-95.641260,E 4th Ave
160,42.633635,-95.505736,/S Ave
216,42.910067,-95.545195,420th St
160,42.727708,-95.549760,545th St
246,42.749867,-95.560505,S 8th St/N 8th St/W Main St
160,42.633987,-95.505735,/S Ave
185,42.823435,-95.804646,/E Spruce St
160,42.712582,-95.429748,Ash St/E 2nd St
216,42.769621,-95.553694,N 2nd St
160,42.560948,-95.790490,100th St
246,42.751858,-95.565057,W Cedar St
526,42.751607,-95.551875,N 4th St/W Cedar St
160,42.753036,-95.543486,Webster St/Magnetic Ave
605,42.750545,-95.553362,N Pine St/W Willow St
276,42.749934,-95.564359,W Main St/S 11th St/N 11th St
276,42.749227,-95.564373,/S 11th St
185,42.753436,-95.561778,Walnut St//N 9th St
160,42.714588,-95.436009,/E 4th St
246,42.756834,-95.550440,N 2nd St/E Spruce St
160,42.629831,-95.645332,/N Pinkerton
160,42.750119,-95.611183,530th St
160,42.740889,-95.555419,/Spring Lake Dr
160,42.701596,-95.571884,River Rd
216,42.758758,-95.539085,Jefferies St/Park Ave
160,42.860495,-95.799916,/D Ave
185,42.717815,-95.437862,Honeysuckle Ln
216,42.765111,-95.543479,Susan Ave/Lauri Ln
160,42.765492,-95.541892,E Craig Dr/Lauri Ln/N Craig Dr
246,42.748078,-95.553982,/S 4th St/W Elm St
246,42.748165,-95.558991,S 7th St/W Elm St
276,42.755089,-95.564985,/W Bluff St
276,42.752506,-95.544677,/N Roosevelt Ave
472,42.761725,-95.552276,Arrow St/W Bow Dr
390,42.824299,-95.801733,/E Pine St
160,42.590705,-95.615335,640th St
276,42.752334,-95.560433,N 8th St/
160,42.748735,-95.544725,S Roosevelt Ave/E Maple St
160,42.633221,-95.741122,610th St/G Ave
658,42.764106,-95.552259,E Indian St/N 2nd St/Indian St
160,42.703176,-95.800722,D Ave
160,42.822583,-95.809830,/W Amherst St/S Maple St
499,42.823612,-95.809016,N Maple St/W Spruce St
160,42.792755,-95.573626,State Hwy 3
160,42.866007,-95.574299,450th St/
160,42.749918,-95.603513,530th St/N Ave
185,42.763639,-95.544546,Valley View Dr/N Roosevelt Ave
185,42.826671,-95.808194,/W Railroad St
185,42.763884,-95.556368,Indian St
160,42.777236,-95.559156,State Hwy 3
246,42.820231,-95.804246,S Elm St/E Barnes St
216,42.759545,-95.551164,N 2nd St
160,42.894555,-95.544308,Q Ave/430th St
160,42.735193,-95.552047,Linden St/US Hwy 59/S 2nd St
185,42.822142,-95.800420,/E Amherst St
160,42.748703,-95.543055,E Maple St
185,42.626410,-95.643055,Clark Ave
390,42.749917,-95.563337,S 10th St/N 10th St/W Main St
160,42.752261,-95.515070,/State Hwy 3
160,42.713511,-95.439052,W 3rd St/Maple St
160,42.741390,-95.551621,S 2nd St/Sequoia Dr
185,42.807975,-95.792548,490th St
246,42.772153,-95.553940,State Hwy 3/US Hwy 59
160,42.748839,-95.512915,530th St
276,42.752886,-95.561814,N 9th St/W Cherry St
216,42.762556,-95.556157,Sac St
185,42.825819,-95.811668,N Linn St/W Cedar St
276,42.756809,-95.547218,Hayward St/E Spruce St/Euclid Ave/Central St
216,42.769790,-95.553761,N 2nd St/US Hwy 59
185,42.713105,-95.439185,W 3rd St/W 1st St
160,42.713559,-95.434715,/E 3rd St
246,42.760534,-95.549521,Wilson Ave/N 1st St
246,42.755278,-95.561719,N 9th St/W Bluff St
160,42.905296,-95.800498,D Ave
185,42.794724,-95.634446,Eagle St/2nd St
305,42.761165,-95.552293,Arrow St
160,42.761713,-95.546191,/E Bow Dr
276,42.755355,-95.537345,Pleasantview Ave/E Bluff St
362,42.752750,-95.545983,Fountain St/Sherman Ave
276,42.752950,-95.551164,N 2nd St
276,42.749390,-95.557471,Bishmart
246,42.752852,-95.560419,N 8th St/W Cherry St
160,42.860769,-95.546925,W Cedar St
160,42.763957,-95.539971,Sleezer Rd
246,42.753847,-95.543520,Webster St/Summit Ave
276,42.715613,-95.437719,Pearl St/W 5th St
160,42.706339,-95.603301,560th St/N Ave
185,42.736930,-95.551887,S 2nd St
390,42.751624,-95.552733,N Pine St/W Cedar St
160,42.793456,-95.589393,500th St
185,42.754470,-95.538040,Pleasantview Ave/Sumner St
160,42.634492,-95.505726,S Ave/610th St
160,42.733765,-95.552173,US Hwy 59
185,42.823154,-95.799396,C36/E Spruce St/D Ave
185,42.847388,-95.564057,/P Ave
160,42.587578,-95.761394,/F Ave
160,42.577123,-95.720139,Clark St/5th Ave
185,42.754498,-95.539219,Park Ave/Sumner St
160,42.560948,-95.791175,100th St
160,42.851950,-95.720894,460th St/H Ave
276,42.752721,-95.544673,Fountain St/N Roosevelt Ave
390,42.748956,-95.554704,S 5th St/W Maple St
160,42.748702,-95.464131,/530th St
246,42.819028,-95.807214,S Locust St/E Fenton St
160,42.753017,-95.541748,Saratoga Ave/Park Ave/Magnetic Ave
185,42.793398,-95.641935,3rd St/500th St/L Ave
185,42.750184,-95.780627,/E Ave
216,42.628592,-95.643465,S Clark St/W Railway St
160,42.807894,-95.757659,490th St/
185,42.759300,-95.540829,/Cornelius Ave
216,42.826540,-95.803682,N Elm St/E Railroad St
246,42.819026,-95.807305,S Locust St/W Fenton St/E Fenton St
185,42.740942,-95.426913,/W Ave
246,42.784093,-95.558151,/Mill Creek Rd
362,42.750424,-95.547284,E Willow St/Euclid Ave
216,42.750237,-95.557948,/N 7th St
160,42.812168,-95.819529,C Ave
160,42.733451,-95.552201,/US Hwy 59
276,42.825748,-95.809525,/W Cedar St
160,42.821693,-95.799421,/D Ave
305,42.760560,-95.550519,Wilson Ave/Sioux Valley Dr
246,42.658910,-95.839572,/B Ave
305,42.776267,-95.427062,/W Ave
160,42.761785,-95.505382,/S Ave
160,42.778903,-95.554021,US Hwy 59
160,42.729678,-95.446604,/V Ave
185,42.750986,-95.541758,Saratoga Ave/Greer St
390,42.825367,-95.802339,E Cedar St/N Ash St
160,42.750903,-95.566473,W Willow St
160,42.677556,-95.778696,580th St/
552,42.818991,-95.802930,S Ash St/E Fenton St
246,42.823218,-95.801123,E Spruce St/N Beech St
605,42.764176,-95.551284,E Indian St
445,42.824617,-95.808359,W Pine St/
917,42.765823,-95.552693,/N 2nd St
246,42.631427,-95.640570,Sellers St/E 3rd Ave
160,42.801912,-95.700922,I Ave
185,42.749748,-95.747830,/530th St
160,42.822601,-95.811950,N Linn St/W Amherst St
216,42.755779,-95.539189,Park Ave
216,42.823334,-95.803263,/E Spruce St
276,42.749822,-95.557951,N 7th St/W Main St
246,42.820032,-95.807101,/S Locust St
185,42.771479,-95.553924,US Hwy 59
216,42.807956,-95.799020,490th St
185,42.749975,-95.544711,/N Roosevelt Ave
216,42.821672,-95.807915,Park Ave/S Main St
246,42.715652,-95.434051,Walnut St/E 5th St
160,42.733083,-95.623522,M Ave
185,42.826669,-95.807623,W Railroad St/E Railroad St/N Main St
160,42.604353,-95.780721,E Ave/630th St
160,42.632530,-95.641397,E 4th Ave
216,42.711450,-95.436712,W 1st St
160,42.821830,-95.519558,480th St
160,42.799290,-95.650047,State Hwy 3
160,42.865608,-95.545121,450th St
160,42.821878,-95.521026,/480th St
160,42.720267,-95.436688,9th St/Main St
160,42.627337,-95.645293,S Pinkerton St
160,42.692529,-95.554547,/US Hwy 59
185,42.753225,-95.551190,N 2nd St
160,42.716663,-95.435500,E 6th St/Myrtle St
362,42.820275,-95.805494,E Barnes St/S Oak St
276,42.820326,-95.807067,S Locust St/E Barnes St
472,42.750497,-95.551207,E Willow St/N 2nd St/W Willow St
160,42.807548,-95.554165,US Hwy 59/Valley Rd
160,42.820799,-95.810714,S Walnut St/W 2nd Ave
246,42.718874,-95.446640,Hickory St/W 1st St
160,42.812987,-95.713363,/Grace Ave
160,42.758554,-95.567824,St Andrew's Dr
216,42.753952,-95.556455,/W Bluff St
160,42.755735,-95.588679,Country Rd/Northridge Dr
185,42.819663,-95.804272,S Elm St
160,42.749702,-95.789738,530th St
160,42.797006,-95.636843,State Hwy 3
418,42.751598,-95.551194,N 2nd St/E Cedar St/W Cedar St
185,42.764790,-95.553486,/Centennial Dr
185,42.715649,-95.433366,/E 5th St
185,42.753305,-95.555643,Walnut St/
276,42.757279,-95.544639,/N Roosevelt Ave
160,42.806438,-95.799838,D Ave
160,42.560660,-95.839548,B Ave/100th St
160,42.819922,-95.810076,/3rd Ave
160,42.749104,-95.446669,/V Ave
160,42.746291,-95.559700,W Beech St
472,42.749753,-95.554546,N 5th St/S 5th St/W Main St
185,42.762480,-95.553280,W Bow Dr/Sac St
160,42.742419,-95.551590,S 2nd St
185,42.602649,-95.525583,/R Ave
160,42.710854,-95.431150,Ridgeview Ln/Beech St
276,42.757467,-95.550599,E Spruce St
160,42.825497,-95.622246,M Ave
246,42.752804,-95.557885,N 7th St/W Cherry St
185,42.787291,-95.568021,Oak Rd
216,42.770723,-95.553974,US Hwy 59
160,42.593504,-95.689818,State Hwy 31
160,42.734286,-95.552127,US Hwy 59
160,42.611148,-95.642229,L Ave
160,42.793679,-95.634440,3rd St/Eagle St
216,42.762167,-95.548218,E Ridgeview Dr/E Bow Dr
160,42.807967,-95.789953,490th St/
160,42.894544,-95.543650,430th St
334,42.825615,-95.807196,E Cedar St
185,42.771810,-95.553364,State Hwy 3
185,42.625618,-95.642076,L Ave
160,42.737638,-95.546478,Pilot Ave
160,42.698934,-95.446817,V Ave
472,42.825346,-95.801659,/E Cedar St
185,42.795933,-95.634439,Eagle St
160,42.797116,-95.637546,State Hwy 3
160,42.714633,-95.432624,Willow St/E 4th St
160,42.807874,-95.760061,490th St/F Ave
160,42.807982,-95.583754,490th St/High Country Rd/O Ave
216,42.630886,-95.640563,/Sellers St
160,42.808002,-95.752029,490th St
216,42.821624,-95.806964,S Locust St
246,42.626216,-95.642068,L Ave
160,42.746729,-95.554733,/S 4th St
305,42.767201,-95.553046,/N 2nd St
305,42.751589,-95.550543,E Cedar St
160,42.710945,-95.435939,/E 1st St
160,42.755292,-95.466241,/U Ave
390,42.748829,-95.549744,S 1st St/E Maple St
160,42.749765,-95.757753,/530th St
362,42.825647,-95.807742,E Cedar St/W Cedar St/N Main St
160,42.767300,-95.540963,Industrial Rd
246,42.761194,-95.549531,/E Ridgeview Dr/N 1st St
160,42.837187,-95.797686,470th St
276,42.824330,-95.802450,E Pine St/N Ash St
246,42.748206,-95.561277,/W Elm St
160,42.745510,-95.446603,V Ave
472,42.751657,-95.554501,N 5th St/W Cedar St
216,42.793687,-95.612897,500th St
216,42.807971,-95.789266,490th St/
160,42.807932,-95.769344,490th St
160,42.793787,-95.603045,/N Ave
160,42.758464,-95.571956,/W Cedar Loop
160,42.756041,-95.549582,/N 1st St
185,42.611712,-95.669469,State Hwy 31
246,42.754619,-95.544655,N Roosevelt Ave/Sumner St
605,42.756875,-95.557225,Gillette Dr
185,42.840788,-95.779763,E Ave
736,42.749732,-95.553565,W Main St
160,42.788680,-95.569432,/State Hwy 3
185,42.669883,-95.554513,585th St/US Hwy 59
185,42.692114,-95.835701,/570th St
216,42.712486,-95.438243,W 2nd St/W 1st St
160,42.836581,-95.539706,/470th St
185,42.712557,-95.431861,/E 2nd St
160,42.749133,-95.603557,/N Ave
160,42.576514,-95.720142,N 5th Ave/Stratton St/5th Ave
334,42.757213,-95.540865,Cornelius Ave/
160,42.617900,-95.661034,620th St/State Hwy 31
246,42.813799,-95.713230,Adaline St/Dixon Ct
160,42.729319,-95.721519,/H Ave
185,42.811570,-95.804620,/Golf Course Rd
216,42.714556,-95.438373,W 4th St
185,42.716693,-95.434091,Walnut St/E 6th St
216,42.714616,-95.434036,Walnut St/E 4th St
160,42.795948,-95.630397,State Hwy 3
160,42.581139,-95.839681,/B Ave
216,42.796098,-95.634439,Eagle St
216,42.749517,-95.543021,E Main St
552,42.750534,-95.552881,W Willow St
160,42.746243,-95.557735,River Rd/W Beech St/S 5th St
185,42.771475,-95.554070,US Hwy 59
160,42.753184,-95.549594,/N 1st St
362,42.755147,-95.555063,Gillette Dr/W Bluff St
334,42.755078,-95.564175,W Bluff St/N 11th St
216,42.631450,-95.641967,W 3rd Ave/E 3rd Ave/N Main St
160,42.576959,-95.715930,N Railroad St
160,42.749465,-95.540440,Water St/E Main St
185,42.858987,-95.542472,/S Jordan St
276,42.750391,-95.545515,E Willow St/
216,42.756236,-95.561687,Harris St/N 9th St
160,42.739748,-95.546340,Hyland Ave/Poplar Dr
160,42.561820,-95.461640,100th St
362,42.752804,-95.548204,Millard St
276,42.823189,-95.800341,/E Spruce St
216,42.823290,-95.802548,E Spruce St/N Ash St
160,42.774584,-95.529878,/Old 21 Rd
334,42.818967,-95.801111,/E Fenton St
160,42.807563,-95.554785,Valley Rd
631,42.758268,-95.540836,/Cornelius Ave
185,42.736524,-95.551924,S 2nd St
160,42.759748,-95.538460,/Gillease St
160,42.793333,-95.674200,/500th St
160,42.793510,-95.603042,500th St/N Ave
305,42.749633,-95.548850,/E Main St
246,42.752291,-95.557891,/N 7th St
276,42.824228,-95.800244,/E Pine St
334,42.716203,-95.442197,W 6th St/Locust St
185,42.758744,-95.538452,Jefferies St
160,42.758261,-95.525605,State Hwy 3
216,42.822185,-95.801225,E Amherst St/N Beech St/S Beech St
362,42.757699,-95.539100,Clark St/Park Ave
160,42.748724,-95.544103,/E Maple St
526,42.750530,-95.552707,W Willow St
276,42.748184,-95.559726,/W Elm St
276,42.713568,-95.433323,/E 3rd St
160,42.737674,-95.549367,Hickory St
160,42.826331,-95.800849,N Beech St/E Railroad St
160,42.727700,-95.549289,545th St
246,42.630388,-95.760813,/F Ave
160,42.792038,-95.485995,T Ave/500th St
160,42.633328,-95.760747,F Ave/610th St
185,42.756289,-95.564171,Harris St/N 11th St
276,42.718029,-95.434811,/E 7th St
185,42.823683,-95.810438,N Walnut St/W Spruce St
185,42.747264,-95.557813,W Locust St
160,42.760980,-95.505392,/S Ave
160,42.751857,-95.549607,E Cedar St/N 1st St
216,42.714564,-95.437707,Pearl St/W 4th St
160,42.823070,-95.779587,E Ave
185,42.764310,-95.567485,520th St
246,42.763897,-95.554193,/Indian St
160,42.860769,-95.546986,W Cedar St
305,42.755084,-95.547250,E Bluff St/Euclid Ave
160,42.757306,-95.522703,/Keeline Rd
246,42.756765,-95.544647,E Spruce St/N Roosevelt Ave
160,42.821886,-95.521437,480th St
160,42.759955,-95.534744,Riverview Dr
246,42.748103,-95.555250,S 5th St/W Elm St
865,42.766294,-95.552812,N 2nd St
216,42.718041,-95.434126,/Walnut St/E 7th St
160,42.656974,-95.800174,/D Ave
160,42.828218,-95.642015,L Ave
160,42.600770,-95.680337,J Ave
246,42.820558,-95.807049,S Locust St
216,42.752650,-95.550614,E Cherry St
160,42.808163,-95.732052,490th St/
216,42.822518,-95.807965,W Amherst St/N Main St
160,42.748897,-95.446669,/V Ave
160,42.748704,-95.445934,/530th St
160,42.819939,-95.810775,3rd Ave/S Walnut St
160,42.740649,-95.545015,Aspen St/Tomahawk Ave
160,42.755320,-95.427028,W Ave
160,42.825248,-95.799431,E Cedar St/D Ave
185,42.813788,-95.712723,E Adaline St/N Lewis Ave/Adaline St
160,42.746097,-95.550286,/E Beech St
160,42.837634,-95.643016,/470th St
216,42.793691,-95.613102,500th St
160,42.763856,-95.568087,520th St
160,42.815961,-95.799584,D Ave
185,42.713538,-95.437120,/W 3rd St
160,42.856425,-95.799808,D Ave
185,42.816695,-95.799559,E Highland Dr/D Ave
445,42.758865,-95.544613,Jefferies St/N Roosevelt Ave
185,42.748147,-95.558252,/W Elm St
160,42.738841,-95.553268,Lake St/
160,42.825450,-95.803755,E Cedar St/N Elm St
160,42.640199,-95.819932,/C Ave
305,42.825767,-95.810262,N Walnut St/W Cedar St
160,42.747661,-95.556633,S 6th St
160,42.713605,-95.430496,/E 3rd St
246,42.714673,-95.428672,/E 4th St
246,42.752399,-95.564273,N 11th St
160,42.720240,-95.434088,9th St/
160,42.630349,-95.645249,N Pinkerton/W 2nd Ave
185,42.757134,-95.561691,Hillside St/N 9th St
445,42.823579,-95.808453,/W Spruce St
160,42.825515,-95.805171,E Cedar St/N Oak St
160,42.723961,-95.574274,River Rd/
246,42.826494,-95.802965,/E Railroad St
160,42.746096,-95.550243,E Beech St
185,42.764372,-95.544536,S Craig Dr/N Roosevelt Ave
216,42.737756,-95.551809,Hickory St/S 2nd St
185,42.866400,-95.800074,D Ave
160,42.630345,-95.641480,E 2nd Ave
160,42.779081,-95.613082,510th St
160,42.823454,-95.805373,E Spruce St/N Oak St
185,42.822589,-95.810532,N Walnut St/S Walnut St/W Amherst St
276,42.746610,-95.551419,/S 2nd St
276,42.715614,-95.437166,/W 5th St
160,42.816139,-95.819381,/C Ave
160,42.764648,-95.557002,Matthew St/Centennial Dr
276,42.822284,-95.803328,/E Amherst St
