Estimated daily crossings,Latitude,Longitude,Name
160,36.582315,-94.807074,/Ingram Dr
160,36.553652,-94.969584,Old Farm Rd
216,36.429654,-94.791319,W Leonard St/N 1st St
658,36.580070,-94.769093,S Main St
499,36.584395,-94.782492,Leisure Ln/Leisure Rd
334,36.587239,-94.769245,E 10th St/S Main St/W 10th St
631,36.583048,-94.770868,Harber Rd/13th St
276,36.589289,-94.774410,W 7th St/S Center St
160,36.596194,-94.866864,E 294 Rd
445,36.430590,-94.782575,E Monroe St/N Main St
246,36.413838,-94.811543,W Lindly St/S 16th St
185,36.607118,-94.804396,Brandy Ln
246,36.655525,-94.761064,E 247 Loop/S 630 Rd
334,36.612916,-94.921155,E Hwy 85A/Pierce St
185,36.585317,-94.765406,S Cherokee St/E 11th St
445,36.573360,-94.774515,/Shadow Creek Pl
160,36.573958,-94.764546,S 625 Rd
185,36.573733,-94.808538,/Melody Point Rd
160,36.586577,-94.836950,E 297 Rd
160,36.206925,-94.799063,Ray Ave/Oak St/Maple Ln
160,36.571332,-94.807533,Rock Dr
418,36.423741,-94.790502,S Hampton Dr/N Main St
305,36.429677,-94.796968,N 5th St/W Leonard St
216,36.575355,-94.856431,S 4th St
160,36.636706,-94.771046,/E 262 Loop N
160,36.391972,-94.883139,/E 432/N4559 Rd
216,36.610383,-94.801446,/N 55th St/E Hwy 59
362,36.584237,-94.760056,E 11th St
216,36.414213,-94.810824,/W Lindly St
334,36.432772,-94.782268,N Main St
216,36.592032,-94.761716,E 4th Pl/Christy
160,36.553018,-94.916708,4540 Rd
185,36.179132,-94.590395,US Hwy 59
216,36.179592,-94.611535,N4715 Rd/US Hwy 59
305,36.571198,-94.770090,S Main St
185,36.589157,-94.755561,E 7th St/S Shundi Rd
445,36.573919,-94.773122,State Park Rd
216,36.647574,-94.826800,S 585 Loop
246,36.655683,-94.761109,S 630 Rd
390,36.573925,-94.772269,State Park Rd
185,36.414415,-94.834583,E 416 Rd
362,36.431882,-94.782294,/N Main St
160,36.641559,-94.881528,E 260 Rd/E 265 Rd
216,36.605320,-94.794261,E Hwy 59
185,36.185244,-94.712689,/Red Oak Dr
185,36.212172,-94.779645,Cherokee Tpke/US Hwy 59
185,36.612450,-94.734517,/E 280 Rd
185,36.430567,-94.799114,W Monroe St/NW 6th St
276,36.578594,-94.798889,James St
160,36.614873,-94.807153,E Hwy 59
160,36.530871,-94.936137,E 336 Rd/S 525/E 335
185,36.434188,-94.800280,/N 7th St/E0403 Rd
276,36.535648,-94.965251,Blue Herron/Boat Ramp
246,36.472731,-94.916538,/Ridge Crest Dr
185,36.648742,-94.827505,S 585 Loop/S 255 E
185,36.421982,-94.789978,Hampton Dr/S Hampton Cir
334,36.422510,-94.803990,S 10th St/W Delaware St
160,36.349602,-94.822909,US Hwy 59
160,36.626024,-94.811819,100th St NW/Wolf Creek Dr
216,36.423153,-94.789276,S Cherokee Rd
185,36.653160,-94.703430,E 250 Rd
160,36.562731,-94.773836,/E 315 Rd
185,36.656057,-94.827237,E Hwy 59/E 250 Rd
160,36.212789,-94.779650,US Hwy 59
185,36.586724,-94.782490,10th St/Leisure Rd
216,36.616238,-94.919222,Garland St/Northwest Ave
362,36.421549,-94.798690,S 6th St/Rainbow Ave
160,36.447971,-94.786116,Shotpouch Dr
160,36.447979,-94.782314,N Main St
160,36.215369,-94.976552,/Cherokee Tpke
246,36.635026,-94.874074,/E Hwy 85A
246,36.604395,-94.765507,/S 620 Rd
185,36.215349,-94.976073,/Cherokee Tpke
160,36.627497,-94.810657,/104 Th N
160,36.197439,-94.779721,State Hwy 10 Scn
160,36.590220,-94.872174,S Hwy 125
160,36.196816,-94.861600,S 575 Rd
160,36.594428,-94.777787,E O Daniel Pkwy
160,36.562270,-94.779920,S 617/S 617 Rd/S 617 Loop
305,36.550660,-94.804741,/E 322 Rd
390,36.433270,-94.777406,/E Melton Dr
499,36.430580,-94.795281,W Monroe St
185,36.589287,-94.776182,/W 7th St
160,36.645975,-94.751613,S 630 Rd/E 256 Rd
160,36.278397,-94.603323,State Hwy 116
185,36.483444,-94.991532,Emery
185,36.211987,-94.779646,/US Hwy 59
246,36.506231,-94.943616,/Pr 096
185,36.597944,-94.742900,/E 290 Rd
160,36.539617,-94.730466,E 330 Rd
160,36.612452,-94.765534,S 620 Rd/E 280 Rd
216,36.179320,-94.679586,/S 700 Rd/US Hwy 59
185,36.575613,-94.849573,Orchard Ln/E Oak
185,36.634682,-94.774101,/E 263 Loop
160,36.483530,-94.993669,Connors Pt Rd
160,36.587191,-94.777389,/10th St/10 Th St
160,36.519451,-94.972503,Circle Dr
216,36.647660,-94.826751,/S 585 Loop
160,36.612473,-94.729463,S 640 Rd/E 280 Rd
185,36.571653,-94.809249,/600 Rd
160,36.631975,-94.899137,Moose Dr
185,36.256697,-94.692834,S Colcord Ave
160,36.475915,-94.984449,State Hwy 28
216,36.462520,-94.791337,S 610 Rd
390,36.572746,-94.777098,/Christmas Ln
246,36.578330,-94.766570,18th St
160,36.505321,-94.954789,Cr 356/D0366 Rd
160,36.612420,-94.741321,S 633 Ln/E 280 Rd
160,36.616243,-94.873424,S Hwy 125/
160,36.585509,-94.837192,/584 Way
185,36.596111,-94.743619,S 637 Rd
216,36.520054,-94.970977,S 4509 Rd
185,36.212489,-94.806387,/Delaware St
418,36.423883,-94.789203,/S Cherokee Rd
185,36.593003,-94.749664,632 Ct/E 293 Rd
160,36.562922,-94.774380,E 315 Rd/E 314 Rd/S 620 Rd
160,36.532008,-94.963927,Blue Grouse Ln
160,36.343575,-94.790668,E047.0 Rd/US Hwy 59
246,36.263060,-94.694007,W Howerton/S Spencer
216,36.179097,-94.679124,US Hwy 412
334,36.587225,-94.771830,Broadway/W 10th St
160,36.558663,-94.778047,E 316 Ln/S 618 Rd
160,36.597947,-94.737377,E 290 Rd
160,36.245262,-94.770602,US Hwy 59
160,36.185789,-94.711013,/White Oak Dr
160,36.215498,-94.978655,Cherokee Tpke
185,36.536814,-94.960563,Mocking Bird Ct/Mocking Bird Ln
185,36.196421,-94.779723,State Hwy 10 Scn
246,36.628631,-94.760817,E 268 Ct
1252,36.576314,-94.769105,/S Main St
185,36.630189,-94.874630,E 267 Rd
160,36.617964,-94.811291,E Hwy 59
160,36.635177,-94.811466,Ballerina Dr
246,36.208797,-94.803951,Woods Ave
160,36.425923,-94.800255,N 7th St/W Dial St
445,36.431414,-94.782367,/N Main St
160,36.575733,-94.924124,Crane Ln
160,36.177698,-94.690896,US Hwy 412/D4665 Rd
216,36.584413,-94.780416,Britini Ln
160,36.592983,-94.751706,E 293 Rd
185,36.212399,-94.806468,Echo Forest Rd/Delaware St
246,36.575340,-94.809273,/600 Rd
160,36.214528,-94.955196,/Cherokee Tpke
160,36.595053,-94.769346,S Main St
160,36.205212,-94.782663,US Hwy 412 Alt/e Tulsa Ave/US Hwy 412 Alt
418,36.593961,-94.771883,/S Broadway St
160,36.192575,-94.714379,Old 33 Hwy/US Hwy 412 Alt
579,36.425058,-94.793014,W Gray St/N 2nd St
160,36.641390,-94.881743,/E 265 Rd
160,36.553944,-94.886957,E 319 Rd/319 Trl
185,36.264010,-94.765177,W 520 Rd
160,36.412427,-94.819514,S 21st St/Locust St
160,36.584799,-94.859376,/Wichita Cir/Airport Rd
472,36.584397,-94.782317,/Britini Ln
160,36.582932,-94.785463,/W 13th St
305,36.430568,-94.796963,N 5th St/W Monroe St
185,36.179344,-94.627313,US Hwy 59
185,36.615831,-94.863532,E 279 Rd
216,36.624566,-94.811264,Keller Rd
160,36.420022,-94.980963,/State Hwy 20
276,36.543152,-94.773427,/S 620 Rd
276,36.590310,-94.771855,S Broadway St/W 6th St
185,36.593845,-94.818240,595 Rd
499,36.575558,-94.769112,S Main St
185,36.214021,-94.797442,S610 Rd/Cherokee Tpke/Cherokee St
160,36.449053,-94.784197,Shotpouch Dr/Starr St
276,36.459624,-94.782378,/US Hwy 59
160,36.488331,-94.973749,/Ackerman Rd
160,36.416065,-94.879349,State Hwy 20
185,36.516462,-94.979481,/S 4505 Rd
160,36.585908,-94.837127,E 297 Ln
185,36.600144,-94.869125,S 564 Rd
305,36.635538,-94.814764,E Hwy 59
305,36.640426,-94.882218,/E 265 Rd
160,36.553792,-94.803033,E 320 Rd/S 603 Rd
216,36.572484,-94.970727,Hwy 85/S 4510 Rd
160,36.219711,-94.845581,/E0550 Rd
160,36.582874,-94.797925,W 13th St/Cardiac Cove Rd
160,36.501986,-94.992420,Sportsman Rd/E 355 Rd
216,36.635783,-94.873363,S Hwy 125/
276,36.609463,-94.747508,S 630 Rd/E 282 Rd
160,36.412597,-94.712858,State Hwy 20
736,36.414581,-94.812429,S Main St/S 16th St
305,36.422488,-94.797545,W Delaware St
160,36.568197,-94.977521,Hwy 85
185,36.287584,-94.713511,504 Rd
160,36.595125,-94.762862,St Andrews Pl
160,36.436835,-94.844165,Cr 403
160,36.331169,-94.782016,/US Hwy 59
185,36.219613,-95.003578,/US Hwy 412 Alt
160,36.205204,-94.844194,US Hwy 412 Alt
160,36.586187,-94.763250,Pleasant Dr
160,36.568902,-94.791188,S 610 Rd/
185,36.620181,-94.813425,/E Hwy 59
160,36.595119,-94.762336,St Andrews Pl/St Andrews Dr
160,36.489822,-94.927806,/D0366 Rd
185,36.423179,-94.965955,/State Hwy 20
160,36.558505,-94.770929,S 622 Rd
160,36.187116,-94.707195,S 659/Cr 660
160,36.515918,-94.793431,E 346 Rd
160,36.578285,-94.881154,E 303 Rd
160,36.561191,-94.774734,E 315 Rd/S 620 Rd
160,36.646462,-94.693074,S 663 Rd/E 254 Rd
246,36.574444,-94.856423,E Tinner Rd/S 4th St
246,36.655523,-94.761107,E 247 Loop
445,36.583038,-94.771764,S Broadway St/Broadway/13th St/W 13th St
390,36.433274,-94.777581,/E Melton Dr
185,36.553794,-94.802675,E 320 Rd/S 603 Ln
390,36.589912,-94.758501,Pritchard Ct
185,36.587308,-94.757360,E 10th St
216,36.576245,-94.809269,Evans Dr/S Quail Run Rd/600 Rd
160,36.536197,-94.978816,Thompson Pt/Clark Blvd
160,36.598523,-94.822876,/S 593 Rd
185,36.532019,-94.961190,Dogwood Cliff/
185,36.590573,-94.965289,E 295 Rd
160,36.178536,-94.691069,Cr 667/US Hwy 59/D4665 Rd
216,36.581304,-94.755526,S 630 Rd
185,36.575728,-94.922211,Crane Ln/Ford Ln
160,36.397919,-94.601381,Cr 714
160,36.474040,-94.960225,/N 455
216,36.179576,-94.632877,US Hwy 59
160,36.641609,-94.981467,E 260 Rd/S Hwy 69
362,36.592280,-94.775883,W 4th St/Elk St
160,36.179347,-94.626487,US Hwy 59
216,36.591829,-94.762469,E 4th Pl/Fisher St
185,36.577571,-94.927462,/Canal St
216,36.513014,-94.777904,US Hwy 59
160,36.655045,-94.699577,/E 250 Rd
185,36.571001,-94.808481,/Melody Ln
160,36.470706,-94.979443,/Rd 451
418,36.573701,-94.774562,Shadow Creek Pl
160,36.618198,-94.811579,80th St/E Hwy 59
160,36.530993,-94.961905,S Coves Dr/Sage Grouse Cir
216,36.590715,-94.756971,Cox Dr
185,36.495892,-94.848297,/State Hwy 127
185,36.572774,-94.922063,Cate St/Ford Ln/Deer St
185,36.574635,-94.868526,Segment of 562 Rd
185,36.597945,-94.743612,S 637 Rd/E 290 Rd
216,36.515872,-94.777910,/E 346 Rd/US Hwy 59
216,36.176129,-94.736932,White Pine Trl
246,36.589114,-94.762972,E 7th St/Howard Loop
216,36.647985,-94.721726,S646rd
160,36.205207,-94.821925,/US Hwy 412 Alt
305,36.420887,-94.800457,/S 7th St/S Main St
362,36.588240,-94.768552,/E 9th St
246,36.205112,-94.940339,N4530 Rd/US Hwy 412 Alt
160,36.532150,-94.965320,Blue Grouse Pl/Blue Grouse Ln
185,36.590284,-94.776840,W 6th St/Joplin St
160,36.479714,-94.983991,Lakeview Dr/Shore Dr
160,36.593017,-94.748567,E 293 Rd
185,36.532845,-94.773409,/S 620 Rd
185,36.412766,-94.814068,S 17th St/W Lindly St
160,36.594944,-94.780284,E Hwy 59
160,36.531074,-94.773443,S 620 Rd/N Main St
160,36.628964,-94.907458,/540 Rd
216,36.573329,-94.849637,S Hwy 125/E 307 Rd/Cherokee Trl
160,36.609815,-94.765533,/S 620 Rd
160,36.582937,-94.786051,/Pond Rd/W 13th St
160,36.179342,-94.628275,N4705 Rd/US Hwy 59
362,36.610368,-94.800158,Palmer Rd
160,36.636862,-94.897573,Red Oak Rd
160,36.208242,-94.798744,Main St
216,36.430565,-94.798064,NE 6th St/W Monroe St
160,36.196068,-94.797419,/Cherokee St
160,36.196205,-94.797418,Cherokee St
160,36.634689,-94.771190,/E 263 Loop
160,36.579333,-94.760098,E 18th St
160,36.197851,-94.806386,/N4605 Rd
362,36.593466,-94.766506,E 3rd St
185,36.616445,-94.917346,E Hwy 85A
246,36.421747,-94.789693,Hampton Dr
185,36.578682,-94.795113,Red Fox Ct
185,36.589277,-94.775684,W 7th St/Elk St
160,36.423234,-94.830059,/Cr 411
276,36.422511,-94.805409,W Delaware St/S 11th St
160,36.460437,-94.831018,Cr 591
216,36.533883,-94.937043,333/E 333 Rd
185,36.267614,-94.692841,Sims/W Sims Rd/N Colcord Ave
160,36.583078,-94.763371,E 13th St
160,36.538578,-94.964814,N4515 Rd/Browning Ln
160,36.646769,-94.746863,S 632 Rd
160,36.581141,-94.779377,Lakeview
216,36.647091,-94.789424,S 608 Rd/S 608 Ln
418,36.612561,-94.921535,Bernice Dr/E Hwy 85A
185,36.213163,-95.011310,Cherokee Tpke/S 449 Rd/N4490 Rd
160,36.501346,-94.992813,/Sportsman Rd
160,36.469293,-94.970562,S 510 Rd
499,36.573079,-94.769351,Lake Road 3/S Main St
185,36.653583,-94.760459,S 630 Rd/S 622 Rd
185,36.427369,-94.898602,N 455
160,36.597949,-94.759399,N 3rd St/Goins Rd
185,36.437836,-94.775626,E Monroe Ave
246,36.497850,-94.951347,Pr 048
160,36.466790,-94.735071,N4650 Rd/D4645 Rd
185,36.564870,-94.764945,Terrace Dr
246,36.179312,-94.642342,US Hwy 59
216,36.587313,-94.755567,E 10th St/Shundi Rd/S Shundi Rd
160,36.170557,-94.587700,D4723 Rd
305,36.564321,-94.838835,Sooner/Twin Falls Cir
185,36.577719,-94.827631,/E 305 Rd
160,36.633228,-94.773363,/E 264 Ln
160,36.559094,-94.806901,S602 Rd/S 602 Loop
160,36.553533,-94.914915,E 319 Rd
216,36.522111,-94.776660,US Hwy 59/E342 Loop
160,36.421058,-94.788315,Hampton Dr
185,36.532690,-94.976667,Dock Rd/S 505 Rd
160,36.605416,-94.867230,E 285 Rd
160,36.215226,-94.972793,Cherokee Tpke
185,36.585318,-94.767935,E 11th St/Hazel St
216,36.585287,-94.771254,/W 11th St
160,36.442975,-94.938321,/Cr 396/D0395 Rd
305,36.666118,-94.965390,E 243 Rd
160,36.579787,-94.758116,E 18th St
160,36.208063,-94.798558,Main St/Elm St
160,36.524552,-94.997476,E 340 Rd/N4495 Rd
246,36.179373,-94.610749,US Hwy 59
185,36.206929,-94.798551,Ray Ave/Elm St
658,36.593762,-94.778002,W 3rd St
185,36.179576,-94.619333,N4710 Rd/Cr 712/US Hwy 59
185,36.612551,-94.972098,E Hwy 85
499,36.593436,-94.770614,W 3rd St/S Grand St
160,36.627060,-94.999430,E Hwy 60/S 490 Rd
216,36.590751,-94.763031,Delaware Ct
160,36.484078,-94.987916,Washington
160,36.183628,-94.587976,Pine St
185,36.591381,-94.768008,S Hazel St/E 5th St
788,36.176384,-94.567367,/US Hwy 59
160,36.183569,-94.566486,S State Line Rd
160,36.597944,-94.713410,/E 290 Rd
160,36.251057,-94.766901,/US Hwy 59
160,36.541250,-94.960216,Mockingbird Ln/Pebble Beach
246,36.190658,-94.794270,/W 57th St
185,36.667770,-94.697500,E 240 Rd/S 660 Rd
160,36.414617,-94.874097,/State Hwy 20
160,36.640979,-94.762497,/S 624 Rd
362,36.421136,-94.798685,S 6th St/S Main St
216,36.615351,-94.804650,Katie Dr/Lakeside Dr
185,36.558499,-94.806869,/S602 Rd
160,36.205035,-94.893883,/US Hwy 412 Alt
334,36.591694,-94.756099,Mill Creek Dr/E 4th Pl
160,36.627089,-94.982258,/E Hwy 60/S Hwy 69
472,36.590326,-94.769858,W 6th St
185,36.486470,-94.967709,Ampitheatre Rd
160,36.594613,-94.828704,Lake Breeze Rd/Lynn Dr/Lighthouse Springs Dr
185,36.618275,-94.808278,80th St/Johnson Ln
185,36.660663,-94.894997,E Brandy Cir
160,36.553978,-94.773451,E 320 Rd/S 620 Rd
185,36.597949,-94.758423,N 3rd St/Zachary Dr
185,36.163096,-94.755994,Buck Trl
246,36.594076,-94.752473,/E 291 Rd
160,36.647368,-94.744895,E 255 Ln/S 634 Ln
185,36.648369,-94.762871,E 253 Rd/S 623 Rd
185,36.601671,-94.791677,Firebird Ln
185,36.430565,-94.789476,E Monroe St
334,36.422588,-94.806642,S 12th St
160,36.424966,-94.795802,N 4th St/
246,36.205218,-94.940339,/N4530 Rd
185,36.180006,-94.628280,Moseley Rd/N4705 Rd
276,36.422341,-94.808269,13th
160,36.179404,-94.565761,S State Line Rd
160,36.474727,-94.983577,State Hwy 28
334,36.591665,-94.756013,E 4th Pl
185,36.204007,-94.806402,N4605 Rd
185,36.623199,-94.814883,E Hwy 59
216,36.635220,-94.873363,S Hwy 125/E Hwy 85A
160,36.439773,-94.782321,N Main St
185,36.568546,-94.765759,Lake Road 3
160,36.553990,-94.771266,E 320 Rd/
276,36.599035,-94.747490,/S 630 Rd
160,36.586980,-94.833560,E 297 Rd
185,36.420095,-94.799336,W Krause St/Crank St
160,36.414415,-94.838492,/Chancellor Rd
160,36.589112,-94.762023,E 7th St
160,36.310883,-94.867490,/Cr 487
160,36.217407,-94.806439,Cherokee Tpke/Delaware St
160,36.581267,-94.833148,S 387 Cir/E 587 Cir
185,36.189500,-94.727756,Berry Hill Rd/Flint Ridge Rd
160,36.553885,-94.890439,S 555 Rd/555 Ct
160,36.197125,-94.797433,Cherokee St
334,36.592407,-94.770603,W 4th St/S Grand St
160,36.430577,-94.793009,N 2nd St/W Monroe St
160,36.474062,-94.946229,/N 455
276,36.598038,-94.784439,E0290 Rd/E Hwy 59
185,36.414916,-94.818209,S 20th St/W Austin Ave
185,36.568741,-94.768169,Mickey Mantle Dr
605,36.597930,-94.752426,/N 3rd St
160,36.190716,-94.778507,E 57th St
305,36.585390,-94.752487,N E O Loop
185,36.531254,-94.962117,S Coves Dr
305,36.421133,-94.801611,S 8th St/W Washbourne St
216,36.436818,-94.782296,/N Main St
160,36.596223,-94.866958,E 294 Rd
160,36.280005,-94.690619,/Colcord Ave/Davis Loop
472,36.433288,-94.779404,N Industrial Park Rd/E Melton Dr
160,36.590371,-94.766689,E 6th St/S Mill St
185,36.179385,-94.601413,US Hwy 59/Maple St
185,36.475002,-94.917238,Ridge Crest Dr
160,36.591071,-94.827228,S 590
160,36.408932,-94.836167,State Hwy 20/S 585 Rd
362,36.589095,-94.757899,E 7th St
160,36.660635,-94.782961,S 610 Rd/E 247 Ln/610 Ln
246,36.425091,-94.800239,W Gray St/N 7th St
216,36.577170,-94.851920,E 304/Bloomer Rd/S 567 Rd
185,36.597954,-94.726333,E 290 Rd
216,36.425932,-94.793015,N 2nd St/W Dial St
185,36.609312,-94.806103,Orchard Dr/Peach Ln
160,36.490471,-94.912159,/Co Rd 366
390,36.418570,-94.808284,S 13th St/W Briarwood Pl
160,36.205205,-94.784794,US Hwy 412 Alt
334,36.638992,-94.682755,S 668 Rd
160,36.638158,-94.707284,S 655 Rd
216,36.595231,-94.757258,/E 3rd St
216,36.581112,-94.780117,W 14th St/Crest
160,36.215603,-94.979494,Cherokee Tpke/US Hwy 412 Alt
185,36.179342,-94.628398,US Hwy 59
185,36.573325,-94.764546,S 625 Rd/Gault Rd
185,36.649645,-94.755994,S 627 Rd/E 252 Rd
185,36.423343,-94.805400,W Cherokee St/S 11th St
160,36.653629,-94.708336,S 653 Trl
160,36.531659,-94.966814,Ridge Rd
160,36.416060,-94.884292,State Hwy 20
334,36.590315,-94.771192,W 6th St
185,36.628882,-94.918999,Sky Line Dr
160,36.630119,-94.891343,E Hwy 85A/S 550 Rd
160,36.579539,-94.755941,E 18th St
160,36.411572,-94.836144,Pritchett Rd/E 418 Rd/S 585 Rd
334,36.419939,-94.802443,W Krause St/S Main St
185,36.594927,-94.758315,/E 3rd St
160,36.586468,-94.833577,E 297 Rd/Lone Pine Rd
445,36.593965,-94.770623,/S Grand St
160,36.569527,-94.791308,S 610 Rd/
160,36.558679,-94.776379,/E 316 Ln
276,36.447953,-94.784956,Shotpouch Dr
185,36.628865,-94.919858,Sky Line Dr
185,36.636185,-94.904666,Dogwood Ln/Red Oak Rd
246,36.190995,-94.712796,US Hwy 412/Cherokee Tpke
390,36.430560,-94.787967,/E Monroe St
185,36.430568,-94.791318,E Monroe St/W Monroe St/N 1st St
160,36.425074,-94.795804,N 4th St/W Gray St
160,36.553893,-94.890250,E 319 Rd/S 555 Rd
334,36.423604,-94.790728,/N Main St
160,36.428928,-94.783370,N Main St
185,36.570492,-94.770447,S Main St/Anchor Rd
160,36.667395,-94.927398,S 530 Rd
160,36.648362,-94.790890,S 606 Ln
418,36.559693,-94.772944,E 315 Loop
160,36.577282,-94.867408,Prdr
160,36.179388,-94.599687,US Hwy 59
216,36.179350,-94.625275,US Hwy 59
160,36.197717,-94.779720,State Hwy 10 Scn
160,36.646862,-94.693155,E 253 Rd/S 663 Rd
160,36.212093,-94.867111,Cherokee Tpke
185,36.441745,-94.782320,/N Main St
246,36.583098,-94.760050,E 13th St
185,36.400889,-94.822976,E 426 Rd/US Hwy 59
185,36.598021,-94.968700,/Hwy 85
160,36.423553,-94.644333,State Hwy 20
246,36.610125,-94.747505,S 630 Rd
160,36.412449,-94.734912,Ns 464 Rd
362,36.590321,-94.770597,W 6th St/S Grand St
334,36.590291,-94.774420,W 6th St/S Center St
160,36.592432,-94.768026,S Hazel St/E 4th St
185,36.588185,-94.755564,/S Shundi Rd
160,36.419301,-94.797699,W Ingram St
216,36.489214,-94.985214,/Miami Rd
246,36.585668,-94.752487,/N E O Loop
160,36.205110,-95.011331,N4490 Rd
185,36.631701,-94.814976,E Hwy 59/NW 110th St
185,36.474655,-94.917955,Mobile Vis/Mobile Vista Cir
185,36.589124,-94.760344,E 7th St
160,36.475763,-94.906515,Fir Ln/Blue Spruce Dr
246,36.421511,-94.794493,S 3rd St/S Main St
246,36.581035,-94.769111,S Main St
185,36.529694,-94.913376,544 Ln
185,36.474653,-94.916672,Mobile Vis/Ridge Crest Dr
216,36.588528,-94.774407,S Center St/8th St
216,36.568533,-94.766746,Lake Road 3/Harbor Loop Dr
305,36.583032,-94.772087,W 13th St
160,36.597452,-94.837520,/Lake Breeze Rd
305,36.587229,-94.770550,S Grand St/W 10th St/Grand St
185,36.539459,-94.772720,/E 330 Rd
305,36.631606,-94.710031,/S 655 Rd
185,36.196724,-94.797422,Cherokee St
160,36.585970,-94.836275,S 584 Way
216,36.586356,-94.764077,Pleasant Dr
160,36.205166,-94.801847,Tulsa Ave/Hilltop Rd
160,36.586949,-94.782490,Hillcrest Dr/Leisure Rd
160,36.541458,-94.966261,Berry May Turn/Felts Ln
216,36.582834,-94.764576,Sumac
160,36.205181,-94.797464,Tulsa Ave/Cherokee St
185,36.642071,-94.762559,S 623 Rd/S 624 Rd
160,36.205188,-94.858879,US Hwy 412 Alt
185,36.634994,-94.813863,Ballerina Cir/Ballerina Ct
216,36.554103,-94.766728,/S 624 Rd
185,36.406744,-94.863126,N 457/State Hwy 20
246,36.418944,-94.807161,W Briarwood Pl/W Briarwood St
390,36.627349,-94.815130,/E Hwy 59
160,36.597950,-94.714999,E 290 Rd
246,36.539557,-94.963403,Pebble Beach
418,36.626860,-94.815151,102th St NW/E Hwy 59
160,36.449054,-94.784369,Starr St
160,36.421492,-94.783892,City Rd 33
334,36.421540,-94.796522,S 4th St/Rainbow Ave
216,36.573086,-94.856823,Lakeside Dr/E 5th
185,36.209260,-94.805637,Main St
160,36.594509,-94.759806,St Andrews Ln/E 3rd St
418,36.424190,-94.793018,N 2nd St/W Carver St
160,36.619835,-94.915188,/Lingo Rd
160,36.416291,-94.903628,/State Hwy 20
160,36.598053,-94.876007,/E 290 Rd
160,36.205178,-94.806054,N4605 Rd/US Hwy 412 Alt
160,36.579151,-94.798828,Joseph St
160,36.185627,-94.705809,/US Hwy 59
305,36.645948,-94.748840,/E 256 Rd
160,36.591257,-94.776887,/W 5th St/Joplin St
160,36.441026,-94.782321,N Main St
160,36.624982,-94.913723,Sky Line Dr/Cabin St
160,36.617276,-94.916444,E Hwy 85A/State Hwy 85A
216,36.591001,-94.757064,Cox Dr
160,36.205183,-94.805247,US Hwy 412 Alt
160,36.261087,-94.692846,S Colcord Ave/W Burbage
185,36.213773,-94.797446,Cherokee Tpke/Cherokee St
185,36.177426,-94.583021,US Hwy 59
160,36.577098,-94.855531,Bloomer Rd
160,36.187006,-94.779775,/State Hwy 10 Scn
160,36.385145,-94.814650,/US Hwy 59
185,36.187297,-94.707968,US Hwy 59
160,36.371420,-94.701591,/S 660 Rd
160,36.499000,-94.782316,US Hwy 59
160,36.583001,-94.809267,Quail Run Rd
185,36.579299,-94.783671,W 17th
276,36.609519,-94.747508,S 630 Rd/E 282 Rd
185,36.597947,-94.742033,/E 290 Rd
276,36.591369,-94.769877,W 5th St
160,36.594770,-94.758871,/E 3rd St
246,36.616240,-94.918395,Garland St/Broadway
160,36.584954,-94.824196,S 592 Pl
185,36.172684,-94.580226,/Fox Croft Cir
185,36.176338,-94.588833,Dogwood St/Cedar Dr
246,36.594014,-94.768071,/S Hazel St
216,36.432671,-94.800289,N 7th St
160,36.512171,-94.992053,/Sportsman Rd
185,36.554836,-94.766118,Sagamore/Hyannis St
216,36.210685,-94.779654,US Hwy 59
246,36.655548,-94.796295,603 Ln/S 603 Ln
246,36.165496,-94.564680,County Line Rd
160,36.652449,-94.811440,252 Rd/S 594 Rd/E 252 Rd
216,36.553988,-94.766731,E 320 Rd/S 624 Rd
160,36.555698,-94.916900,Choctaw Ave
246,36.213697,-94.802144,Buchanan Ave
216,36.473433,-94.916540,/Ridge Crest Dr
216,36.631698,-94.814603,NW 110th St
418,36.572340,-94.776487,Christmas Ln
185,36.569607,-94.792311,Spruce
160,36.425068,-94.794600,N 3rd St/W Gray St
160,36.541257,-94.957346,Spyglass Hill
216,36.647953,-94.721851,S646rd
160,36.643612,-94.792227,E 259 Rd
160,36.648504,-94.742748,E 255 Ln
305,36.592959,-94.768043,S Hazel St/
160,36.478940,-94.988363,Basin/Fitch Acres
160,36.634988,-94.811549,Ballerina Dr
305,36.599624,-94.747488,S 630 Rd
160,36.179243,-94.662596,US Hwy 412/US Hwy 59
185,36.554515,-94.885491,/E 319 Trl
160,36.625228,-94.718674,E 270 Rd
526,36.572335,-94.776578,/Christmas Ln
160,36.266314,-94.692842,W Senior St/N Colcord Ave
160,36.190874,-94.583538,Beaver
160,36.205208,-94.793046,/Tulsa Ave
185,36.557530,-94.771098,S 622 Rd/E 318 Rd
160,36.190788,-94.583538,Beaver/S 730 Rd
390,36.583043,-94.767982,E 13th St/Hazel St
160,36.561112,-94.841884,S Hwy 125/
185,36.536462,-94.974040,Thompson Pt
160,36.532096,-94.936040,/S 525
418,36.591341,-94.773169,W 5th St/S Spring St
160,36.171513,-94.761351,Running Fox Cir
246,36.582886,-94.856297,S Hwy 125/S 566 Rd
160,36.421053,-94.799732,S Main St/W Washbourne St
160,36.634246,-94.873366,S Hwy 125
185,36.583729,-94.803581,Har-Ber on Ks Loop
160,36.568532,-94.768070,Mutt Mantle Ln
216,36.646732,-94.755107,E 252 Ct
445,36.559691,-94.773815,E 315 Loop
160,36.554324,-94.767220,Yarmouth Ct
276,36.585963,-94.808291,/Poplar Ln/W 9th St
216,36.571482,-94.773502,Anchor Rd
418,36.205210,-94.780365,/US Hwy 412 Alt
160,36.191063,-94.779736,State Hwy 10 Scn
185,36.573928,-94.809268,600 Rd
160,36.627622,-94.811453,104th St NW/Wolf Creek Dr/104 Th N
276,36.449059,-94.785119,Shotpouch Dr/Starr St
246,36.624986,-94.811307,Keller Rd
160,36.365492,-94.701797,/S 660 Rd
160,36.629612,-94.816917,Lakeshore Dr
160,36.379909,-94.816309,E 440 Rd/US Hwy 59
160,36.583169,-94.744362,S 636 Rd/E 300 Rd
305,36.596196,-94.753810,/State Hwy 10
160,36.634685,-94.774643,E 263 Loop
418,36.583077,-94.769144,Harber Rd/E 13th St/S Main St
160,36.373136,-94.817983,/US Hwy 59
185,36.573568,-94.813853,E 305 Ln
246,36.179372,-94.611515,N4715 Rd/US Hwy 59/Brent Ln
499,36.430987,-94.782468,/N Main St
185,36.165089,-94.563255,State Line Rd/S State Line Rd
334,36.573926,-94.772016,S Broadway St/State Park Rd
160,36.189392,-94.567553,E 570 Rd
160,36.503201,-94.858547,E 355 Rd
160,36.423121,-94.964022,State Hwy 20
160,36.203770,-94.993982,N4500 Rd
160,36.642942,-94.706584,S 655 Dr/S 655 Rd
160,36.336035,-94.782944,/US Hwy 59
160,36.176207,-94.649506,/E 578 Rd
160,36.515919,-94.793226,E 346 Rd
1020,36.415303,-94.812793,W Boston Ave/S 16th St
160,36.192650,-94.940324,N4530 Rd
160,36.211330,-94.797448,/Cherokee St
185,36.424634,-94.795796,/N 4th St
160,36.176353,-94.583519,Cedar Dr/Cr 727/Beaver Springs Rd
160,36.503123,-94.811051,/State Hwy 127
216,36.580233,-94.829826,301 Ln
160,36.178949,-94.628273,N4705 Rd/Moseley Rd
185,36.179375,-94.609889,/US Hwy 59
160,36.345365,-94.701791,N4660 Rd
160,36.214085,-94.850937,N4580 Rd
390,36.574963,-94.769107,Walmart Pl/S Main St
185,36.558359,-94.917450,/Pt Preston
160,36.205200,-94.857279,US Hwy 412 Alt
276,36.597945,-94.764527,N 3rd St/N Osage St
160,36.585453,-94.836716,E 297 Ln
185,36.616849,-94.916909,Harry St/E Hwy 85A
160,36.586739,-94.778761,10th St//10 Th St
160,36.393028,-94.796282,/460 Rd
552,36.176379,-94.565911,US Hwy 412
160,36.277347,-94.814802,Cr 505/D4610 Rd
160,36.211342,-94.850826,N4580 Rd
305,36.639198,-94.682719,S 668 Rd
160,36.478193,-94.988223,Roe St/Coffman
185,36.620349,-94.914069,Lingo Rd/Elm St
246,36.190353,-94.794531,/County Rd
160,36.574429,-94.775789,/State Park Rd
499,36.418428,-94.805265,/S Main St
160,36.583113,-94.755539,S 630 Rd/E 300 Rd/S Shundi Rd
185,36.416226,-94.898594,State Hwy 20/N 455
160,36.529605,-94.963788,Spruce Grouse Dr/Sage Grouse Cir
160,36.585477,-94.837292,584 Way
216,36.421271,-94.795106,S Main St
185,36.205110,-94.878631,US Hwy 412 Alt
246,36.604677,-94.765513,E 286 Pl/S 620 Rd
160,36.590219,-94.872352,S Hwy 125
305,36.566161,-94.772731,S 620 Rd
216,36.541556,-94.957385,/Olympic
185,36.597948,-94.749339,/N 3rd St
185,36.590376,-94.860734,Hickory Pl
185,36.571717,-94.781575,Fink Ave
390,36.655928,-94.761182,S 630 Rd/E 246 L Ane
246,36.590373,-94.765479,S Cherokee St/E 6th St
160,36.413105,-94.710329,/State Hwy 20
185,36.179342,-94.590336,US Hwy 59
185,36.430556,-94.785290,E Monroe St
160,36.661265,-94.782789,S 610 Ln/E 247 Rd
185,36.592392,-94.772553,/W 4th St
160,36.543951,-94.769189,E 327 Rd
185,36.356519,-94.798042,468 Rd
185,36.177234,-94.583193,US Hwy 59
185,36.605520,-94.765530,S 620 Rd/E 284 Ct
160,36.161677,-94.662128,E0590 Rd
160,36.643742,-94.903195,E 260 Rd
185,36.418911,-94.804374,/S Main St
160,36.642688,-94.762829,S 624 Rd
216,36.213074,-94.936771,Cherokee Tpke
185,36.600280,-94.790455,Firebird Rd
185,36.581844,-94.780800,Robin Dr/Hummingbird Ln
216,36.605266,-94.794189,/E Hwy 59
160,36.617598,-94.918419,Broadway/Lee St
185,36.588286,-94.762230,Howard St/E 9th St
185,36.578976,-94.798828,Joseph St
185,36.631695,-94.813757,NW 110th St
276,36.591045,-94.759157,/Chopper Ct
160,36.617355,-94.916357,State Hwy 85A
246,36.559700,-94.774667,S 620 Rd
160,36.652196,-94.762845,E 248 Rd
185,36.219608,-95.003139,/US Hwy 412 Alt
160,36.638935,-94.769391,E 260 Rd/S 620 Rd
445,36.542203,-94.957407,Pt O'Woods/Pt O' Woods
185,36.529218,-94.969288,/Ridge Rd
160,36.311347,-94.868060,/S 567/S 566
160,36.505777,-94.944997,Pr 097/Windmill Run Rd
305,36.588540,-94.773785,8th St
185,36.529466,-94.978203,S 4505 Rd/Dock Rd
216,36.598701,-94.868745,/E 289 Rd
276,36.578358,-94.799271,/Melissa St
276,36.581029,-94.768919,E 15th St/Acorn St
160,36.564524,-94.759958,E 313 Ln/S 628 Rd
160,36.451047,-94.815999,State Hwy 127
160,36.556934,-94.927082,Hartage Ct
334,36.564024,-94.838247,Twin Falls Cir
160,36.601157,-94.788671,Firebird Rd/E Hwy 59
160,36.519447,-94.777844,E342 Loop
185,36.597762,-94.969224,/Hwy 85
160,36.449071,-94.782321,Starr St/N Main St
185,36.520460,-94.971061,Circle Dr
185,36.203064,-94.851078,/State Hwy 33C
160,36.589373,-94.767992,S Hazel St/E 7th St
216,36.408992,-94.822787,/S Main St
390,36.416109,-94.809598,/S Main St
185,36.179297,-94.653848,US Hwy 412/US Hwy 59
160,36.189101,-94.710612,US Hwy 412/Cherokee Tpke
216,36.179580,-94.628275,N4705 Rd/US Hwy 59
160,36.537325,-94.960003,Mocking Bird Ln
246,36.421456,-94.794622,S Main St
160,36.630739,-94.873634,E 267 Rd
216,36.622584,-94.814698,E Hwy 59
216,36.539455,-94.773432,S 620 Rd/E 330 Rd
160,36.208831,-94.797454,Cherokee St
362,36.217461,-94.645041,New Life Ranch Rd
160,36.420389,-94.683788,N5467 Rd/State Hwy 20/N5467
160,36.580544,-94.833109,E 587 Cir
160,36.575336,-94.856761,E 5th
160,36.463186,-94.782388,US Hwy 59
185,36.553784,-94.804922,E 320 Rd/S 602 Ln
185,36.597939,-94.766129,E 288 Ct/3rd St
160,36.578308,-94.881148,E 303 Rd
276,36.577368,-94.796251,Longs Dr
246,36.621254,-94.814100,Sunset Cir/E Hwy 59
418,36.591991,-94.755581,Shun Di/S Shundi Rd
160,36.555969,-94.805044,E 318 Rd/S 603 Rd
160,36.625203,-94.705577,E 270 Rd
160,36.517188,-94.916685,S 540 Rd/E 341 Loop
276,36.210336,-94.803960,Boundary St/Woods Ave
216,36.582610,-94.781787,Bluebird St
160,36.207724,-94.803078,Tahlequah St/Kansas
160,36.490792,-94.908159,Petty Pl
160,36.293476,-94.779977,US Hwy 59/E 500
762,36.414917,-94.813558,/W Boston Ave
276,36.578674,-94.799095,Pathways Rd/Michaels St
160,36.578914,-94.849440,E 303 Rd
160,36.575767,-94.921703,/Crane Ln
160,36.553989,-94.770119,E 320 Rd
160,36.578557,-94.880987,/S 555 Rd
160,36.564130,-94.776203,S 619 Ln
160,36.286200,-94.773451,US Hwy 59/Cr 620
160,36.418253,-94.800349,S 7th St/W Lindly St/W Dixon St
160,36.610736,-94.918491,/Broadway
185,36.213599,-94.797447,/Cherokee St
160,36.481680,-94.615970,/E 370 Rd
160,36.589388,-94.766686,E 7th St/S Mill St
418,36.420435,-94.801508,S 8th St/S Main St
160,36.652319,-94.812596,E 252 Rd
160,36.653681,-94.849660,E 250 Rd
160,36.635857,-94.899025,Hickory Cir/Red Oak Rd
160,36.661054,-94.783011,S 610 Rd/
160,36.286264,-94.773514,/US Hwy 59
160,36.545282,-94.773454,/S 620 Rd
160,36.564324,-94.758709,S 628 Ln/313 Rd
334,36.596023,-94.764527,N Osage St/Goins St
160,36.501730,-94.992568,Sportsman Rd/Little Nowata
160,36.215500,-94.979451,Cherokee Tpke/US Hwy 412 Alt
160,36.593637,-94.970737,/Hwy 85
185,36.596436,-94.758490,Zachary Dr
276,36.572533,-94.770687,Cozy Dr
185,36.176355,-94.584601,Cedar Dr
246,36.595000,-94.755594,Shun Di
216,36.424661,-94.791318,N 1st St
160,36.586977,-94.834443,/E 297 Rd
160,36.181999,-94.795520,/County Rd
160,36.412458,-94.791381,S 610 Rd/
362,36.418572,-94.809301,W Briarwood Pl/S 14th St
160,36.597938,-94.770863,Davis St/Madison
185,36.205187,-94.807969,US Hwy 412 Alt
160,36.438958,-94.714709,N4670 Rd/N 466 Rd
160,36.582982,-94.782459,Leisure Ln/W 13th St/Leisure Rd
185,36.594482,-94.770632,S Grand St/E O Daniel Pkwy
160,36.626421,-94.714761,/S 650 Rd
160,36.586044,-94.836309,S 584 Way/E 297 Ln
185,36.648285,-94.763051,/E 253 Rd
160,36.630367,-94.778344,S 613 Rd/E 266 Rd
160,36.553817,-94.932885,/E0320 Rd
160,36.646231,-94.746257,/E 256 Rd
216,36.557530,-94.770714,E 318 Rd/S 622 Rd
160,36.585886,-94.763244,/Pleasant Dr
160,36.594428,-94.777921,E O Daniel Pkwy
160,36.536927,-94.960297,Mocking Bird Ct/Mocking Bird Ln
246,36.412537,-94.815085,/W Lindly St
276,36.614575,-94.804095,Terry Ln/Lakeside Dr
216,36.163394,-94.847307,Sequoyah Dr/3rd St
276,36.647649,-94.762442,S 627 Rd/E 254 Rd
185,36.598015,-94.969351,Hwy 85/E 290 Rd
160,36.526734,-94.988403,Hwy 85
276,36.656886,-94.761338,S 630 Rd/E 246 Ln
160,36.473908,-94.983422,Rd 451
445,36.417869,-94.803528,SW 9th St/W Redbud St
160,36.631335,-94.899531,Rudolph Ln
160,36.576234,-94.925798,/N4535 Rd
160,36.205050,-94.918702,/US Hwy 412 Alt
216,36.572236,-94.813968,E 307 Rd/596 Ln
160,36.658080,-94.778171,/S 612 Rd
160,36.537478,-94.976023,/E 330 Rd
276,36.583048,-94.766894,E 13th St/Mill St
185,36.264009,-94.765055,US Hwy 59/State Hwy 116/W 520 Rd
276,36.594103,-94.761283,/E 3rd St
276,36.653515,-94.759407,S 630 Rd
216,36.216081,-94.779651,Cr 630/US Hwy 59
160,36.555690,-94.927837,Legand Pl/Tradition Cir
185,36.588250,-94.766038,/E 9th St
216,36.575852,-94.808363,Mill Pond Cir
185,36.568765,-94.768054,Mutt Mantle Ln/Mickey Mantle Dr
160,36.212483,-94.815332,/N4600
160,36.556210,-94.767196,/S 623 Trl
472,36.572942,-94.774394,Squirrel Run
160,36.482248,-94.908810,Parish Rd 115
160,36.545351,-94.773454,S 620 Rd
305,36.587263,-94.767957,S Hazel St/E 10th St
305,36.600642,-94.747501,/S 630 Rd
160,36.648179,-94.755464,E 253 Rd
160,36.419847,-94.981545,/State Hwy 20
160,36.597955,-94.762024,N 3rd St
160,36.574327,-94.764547,S 625 Rd
185,36.400910,-94.822982,S Main St/US Hwy 59
160,36.403508,-94.836253,/S 585 Rd
418,36.559115,-94.774201,315 Loop
246,36.469749,-94.782188,/US Hwy 59
160,36.553928,-94.779999,E 320 Rd/S 616
216,36.432521,-94.898596,/N 455
160,36.652853,-94.794839,S 604 Rd/E 252 Rd
185,36.406948,-94.864024,/State Hwy 20
160,36.668464,-94.837402,E Hwy 59/S 580 Rd
276,36.572481,-94.768755,/Lake Road 3
185,36.540649,-94.965424,Felts Ln
445,36.585341,-94.761033,Doan Ln/E 11th St
499,36.542431,-94.956675,Spyglass Hill/Pt O'Woods
160,36.584705,-94.823833,S 592 Pl/S 592 Ln
160,36.205173,-94.802017,Hill Top Trlr Park//Tulsa Ave
160,36.585499,-94.836902,E 297 Ln
160,36.600609,-94.734586,Ind A
216,36.585006,-94.764988,Easy St
160,36.601548,-94.767540,/E 288 Rd/Davis St
160,36.571431,-94.913829,Glen Dr/Gran Dr
160,36.647087,-94.693383,E 253 Rd
185,36.187512,-94.707816,Old 33 Hwy
160,36.451032,-94.899211,N County Rd
160,36.165252,-94.851022,John Ross/State Hwy 412A
362,36.559068,-94.774518,315 Loop/S 620 Rd
160,36.176170,-94.851042,E0580 Rd/E Stan Waite Rd/State Hwy 412A
390,36.416626,-94.804219,S 10th St/W Lindly St
160,36.205183,-94.808523,/US Hwy 412 Alt
216,36.423346,-94.811095,/Cr 411
185,36.573811,-94.780385,Lakewood Dr/State Park Rd
472,36.588246,-94.769259,E 9th St/W 9th St/S Main St
160,36.524587,-94.989207,E 340 Rd/Hwy 85
276,36.596015,-94.757078,Lannell Dr/Zarchary Dr
160,36.355650,-94.807356,D0468 Rd/468 Rd
185,36.505525,-94.943979,Cr 393
160,36.463041,-94.782387,US Hwy 59
160,36.582952,-94.784060,Woodcrest Way/W 13th St
390,36.423340,-94.806632,S 12th St/W Cherokee St
160,36.594527,-94.759743,E 3rd St
160,36.161898,-94.566590,E0590 Rd
305,36.585314,-94.766635,Mill St/E 11th St/S Mill St
185,36.209204,-94.804527,/Main St
216,36.524895,-94.776959,E 340 Rd/E342 Loop
246,36.408540,-94.823511,State Hwy 20/S Main St
160,36.474595,-94.902226,Ginko Rd/Red Cedar Dr
160,36.577589,-94.869016,/E 303 Rd
185,36.422130,-94.790129,S Hampton Dr
160,36.653054,-94.794923,S 604 Rd
160,36.582896,-94.858583,S Hwy 125/
246,36.423320,-94.793037,W Cherokee St/N 2nd St/S 2nd St
362,36.581113,-94.782664,W 14th St/Leisure Rd
160,36.583722,-94.804184,Har-Ber on Ks Loop
216,36.592238,-94.777728,W 4th St
160,36.176170,-94.856119,E0580 Rd/Military Rd
160,36.582954,-94.783976,Woodcrest Way/W 13th St
216,36.425935,-94.793301,/W Dial St
216,36.622546,-94.910268,State Hwy 85A
160,36.278388,-94.597747,/State Hwy 116
246,36.422494,-94.793008,S 2nd St/W Delaware St
216,36.580227,-94.767008,Mill St/E 16th St
160,36.188839,-94.709905,US Hwy 59
334,36.424209,-94.788853,State Hwy 20/S Cherokee Rd
216,36.610501,-94.801239,E Hwy 59
185,36.215343,-94.975989,/Cherokee Tpke
160,36.501019,-94.782930,E 356 Pl
160,36.660703,-94.830911,/E Hwy 59
631,36.573908,-94.769177,/Heffelman Dr/State Park Rd/S Main St
276,36.437840,-94.775363,E 400 Rd/E Monroe Ave
160,36.590079,-94.829379,E 295 Rd/E 590 Rd
185,36.380087,-94.668680,/E0440 Rd
246,36.417405,-94.802294,S 9th St/W Lindly St
160,36.437824,-94.778886,/E Monroe Ave
216,36.598027,-94.825218,E 290 Rd/Lighthouse Springs Dr
160,36.238353,-94.776260,US Hwy 59/Damon Dr
216,36.179350,-94.625428,/US Hwy 59
185,36.415584,-94.815769,S 18th St/W Atlanta St
160,36.627447,-94.810274,104 Th N
185,36.174022,-94.566197,US Hwy 59
185,36.568231,-94.970734,Ross Dr/E 310 Rd/S 4510 Rd
160,36.206298,-94.803952,Woods Ave
276,36.539892,-94.964362,N4515 Rd
185,36.589598,-94.808557,Hickory Cir
160,36.590962,-94.818269,/595 Rd
160,36.287710,-94.704917,E050.5 Rd/Cr 504
160,36.658556,-94.777028,E 248 Ln
305,36.448579,-94.786109,Shotpouch Dr
185,36.184507,-94.689154,/Cr 667
305,36.585338,-94.761619,E 11th St/Brenda Ln
160,36.620650,-94.808006,W 68th St
216,36.596012,-94.763060,Goins St/N Delaware
160,36.597941,-94.769006,Madison/N Main St
276,36.209176,-94.803949,Woods Ave/Main St
185,36.409684,-94.821504,/S Main St
216,36.179610,-94.672855,N4680 Rd/57S Rd
160,36.643551,-94.707635,E 256 Loop
160,36.520522,-94.777221,/US Hwy 59
160,36.183032,-94.583527,/Beaver Springs Rd
160,36.553360,-94.914819,E 319 Rd
276,36.585964,-94.809264,Quail Run Rd/W 9th St
160,36.414713,-94.832580,Chancellor Rd
185,36.563842,-94.781801,S 617 Rd/S616
160,36.321711,-95.004603,Cr 492/D4491 Rd
160,36.498379,-94.831715,/State Hwy 127
418,36.582084,-94.769126,S Main St/Abby Ln
160,36.561238,-94.778732,E 315 Rd/S 617 Loop
216,36.561742,-94.759896,S 628 Rd
418,36.205209,-94.780427,/US Hwy 412 Alt/e Tulsa Ave/US Hwy 412 Alt
185,36.587271,-94.766055,/E 10th St
305,36.584865,-94.753448,N E O Loop
305,36.449157,-94.786110,Shotpouch Dr/Starr St
160,36.651881,-94.853453,S Hwy 125
160,36.177231,-94.856098,Military Rd/Walnut Ave
160,36.640567,-94.814569,E Hwy 59
185,36.620112,-94.813379,E Hwy 59
185,36.409771,-94.821343,/S Main St
160,36.568471,-94.929788,Pike St
160,36.191986,-94.713680,US Hwy 412/US Hwy 412 Alt
185,36.653690,-94.760872,S 622 Rd
246,36.583062,-94.765645,E 13th St/S Oak St
160,36.501670,-94.845062,/S 580 Rd
160,36.263991,-94.652474,State Hwy 116/N4687 Rd
160,36.205258,-94.801128,/Tulsa Ave
160,36.645920,-94.720030,/S646rd
185,36.616638,-94.917138,/E Hwy 85A
160,36.179528,-94.655107,N4690 Rd/US Hwy 59
526,36.416947,-94.802914,W Lindly St/W Dixon St
160,36.646160,-94.792339,S 607 Ln
216,36.417596,-94.802331,S 9th St
185,36.614972,-94.863821,/E 279 Rd
305,36.557657,-94.767667,S 623 Trl/E 318 Rd
160,36.417665,-94.898606,N 455
160,36.589327,-94.771847,W 7th St/S Broadway St
160,36.579097,-94.797203,Cardiac Cove Rd
160,36.276753,-94.691893,/N Colcord Ave
276,36.579492,-94.782682,Leisure Rd
160,36.443103,-94.782316,/N Main St
160,36.189071,-94.727538,Berry Hill Rd/Dewberry Cir
185,36.430572,-94.793477,NW 2nd St/W Monroe St
276,36.417441,-94.801966,/W Lindly St
216,36.437822,-94.779593,/E Monroe Ave
334,36.638786,-94.682761,S 668 Rd
185,36.414420,-94.833241,/E 416 Rd/Chancellor Rd
160,36.577318,-94.801590,Smitty's Dr
160,36.486354,-94.925466,David Hall Blvd/Bella Vista Dr
160,36.618075,-94.918422,E Allen St/Allen St/Broadway
276,36.588244,-94.767975,E 9th St/S Hazel St
185,36.495876,-94.845128,State Hwy 127/S 580 Rd
216,36.469354,-94.782188,US Hwy 59
185,36.539134,-94.981048,/E0330 Rd
160,36.653086,-94.708326,/S 653 Trl/E 250 Rd
185,36.394564,-94.882456,N4559 Rd
160,36.209286,-94.806494,/Main St/Delaware St
185,36.586319,-94.809264,Quail Run Rd/Bay Crest Ave
276,36.578351,-94.798859,James St
160,36.448962,-94.778443,Robin Rd
160,36.475699,-94.983958,Sunny Wood/Shore Dr/State Hwy 28
160,36.661162,-94.782897,S 610 Rd/S 610 Ln
160,36.550710,-94.988623,/State Hwy 85/Hwy 85
160,36.631701,-94.782411,E 265 Rd
185,36.423334,-94.796700,W Cherokee St
499,36.586009,-94.761012,Doan Ln
160,36.613193,-94.765117,/E 278 Rd
246,36.437842,-94.775234,/E 400 Rd
160,36.214056,-94.806291,W Boundry St/Delaware St
276,36.578223,-94.799118,/Pathways Rd
160,36.623167,-94.816776,Cedar Oaks Cir
334,36.419350,-94.803556,S Main St
305,36.423337,-94.791179,S Main St/N 1st St/N Main St
185,36.552367,-94.927477,/Vintage Way
160,36.490637,-94.908797,D0377 Rd/Co Rd 366
160,36.611023,-94.747496,E 281 Rd/S 630 Rd
305,36.653614,-94.762414,E 247 Loop/S 622 Rd
246,36.432201,-94.800281,/N 7th St
160,36.410491,-94.836269,S 585 Rd
160,36.646460,-94.792769,/S 605 Rd
334,36.593470,-94.766139,/E 3rd St
160,36.455630,-94.780374,E 385 Rd
390,36.419802,-94.802704,S 9th St/S Main St
160,36.557259,-94.970721,Henson Terrace Park Rd/S 4510 Rd
160,36.475529,-94.782116,US Hwy 59
246,36.590868,-94.768007,S Hazel St
160,36.589249,-94.779526,W 7th St
160,36.545309,-94.957386,Oakland Hill
160,36.466897,-94.773381,S 620 Rd/E 380 Rd
526,36.416781,-94.803520,W Lindly St/SW 9th St
246,36.524911,-94.775711,E 340 Rd/US Hwy 59/N Main St
160,36.618467,-94.981462,S Hwy 69
216,36.597570,-94.825587,Lost Cove Rd/Lighthouse Springs Dr
160,36.492562,-94.954737,N 451 Rd/S 520 Rd
445,36.593476,-94.765570,S Cherokee St/E 3rd St
185,36.409052,-94.673801,E 420 Rd
160,36.583726,-94.803830,/Har-Ber on Ks Loop
160,36.490324,-94.911714,/Pr Rd 124
334,36.425782,-94.787004,N Main St
160,36.585387,-94.836472,E 297 Ln
160,36.557626,-94.805757,E 317/E 317 Rd
160,36.191816,-94.721752,Cherokee Tpke
160,36.657570,-94.736119,S 638 Loop
185,36.573812,-94.780144,State Park Rd
160,36.551734,-94.764368,S 625 Rd/E 322 Ln
185,36.596479,-94.743617,S 637 Rd
185,36.205206,-94.793727,/Tulsa Ave
160,36.417866,-94.801322,/W Lindly St
160,36.496790,-94.782354,US Hwy 59
185,36.592518,-94.752301,S 632 Ln
185,36.544629,-94.987289,Duck Creek Blvd
160,36.478760,-94.992325,/State Hwy 28
305,36.627910,-94.815100,/E Hwy 59
160,36.582226,-94.782666,Leisure Rd
305,36.639237,-94.682474,S 668 Rd
216,36.430565,-94.798199,/W Monroe St
160,36.583104,-94.758361,E 13th St/E 11th St
185,36.199348,-94.851081,/State Hwy 33C
305,36.582075,-94.771741,S Broadway St/Abby Ln
305,36.459672,-94.782379,US Hwy 59
499,36.426147,-94.786357,/N Main St
160,36.599621,-94.823116,/S 593 Rd
160,36.597919,-94.771470,Davis St/Madison
362,36.589095,-94.757886,E 7th St
160,36.205211,-94.846551,/US Hwy 412 Alt
216,36.515779,-94.777911,US Hwy 59
160,36.630972,-94.811733,109th NW
246,36.604025,-94.747503,/S 630 Rd
185,36.593735,-94.818239,E0293 Rd/595 Rd
160,36.646007,-94.746557,S 632 Rd/E 256 Rd
276,36.597950,-94.744914,E 290 Rd
185,36.608032,-94.866173,/E 285 Rd
185,36.647528,-94.744410,S 634 Loop
185,36.262095,-94.694066,/S Spencer/W Potter
160,36.550711,-94.988610,State Hwy 85/Hwy 85
445,36.588236,-94.770550,W 9th St/S Grand St/Grand St
160,36.419199,-94.797652,W Lindly St/S 5th St
185,36.558169,-94.810843,E 318 Rd
216,36.590788,-94.757058,Cox Dr
160,36.534519,-94.975282,Lakeside Dr/S 505 Rd
160,36.320576,-94.779969,US Hwy 59
216,36.613370,-94.805116,/E Hwy 59
216,36.597944,-94.755628,N 3rd St/3rd St/Shun Di
160,36.553922,-94.885583,E 319 Rd/E 319 Trl
185,36.600639,-94.787948,21st St/E Hwy 59
185,36.418394,-94.759637,/State Hwy 20
160,36.421953,-94.766553,State Hwy 20
216,36.520225,-94.971831,Circle Dr/S 4509 Rd
160,36.191676,-94.722009,Cherokee Tpke
246,36.176349,-94.577098,Meadowlark Dr/US Hwy 59
160,36.339147,-94.809413,Cr487/US Hwy 59
160,36.392286,-94.883003,/S 559/N4559 Rd
216,36.418222,-94.701655,N 466 Rd
160,36.531585,-94.936035,/S 525
160,36.426042,-94.791317,N 1st St/E Dial St
160,36.212086,-94.940368,N4530 Rd
216,36.635338,-94.771176,/E 263 Loop/E 263 Loop N
160,36.244873,-94.770885,/US Hwy 59
160,36.182867,-94.583525,/Beaver Springs Rd
185,36.631694,-94.814054,NW 110th St
160,36.184296,-94.566678,Pine St
216,36.579888,-94.828304,301 Ln
160,36.180401,-94.565944,S State Line Rd
160,36.200481,-94.851078,State Hwy 33C
160,36.248039,-94.768321,US Hwy 59
276,36.610396,-94.800440,Palmer Rd
160,36.570100,-94.809248,Rockie Dr/600 Rd
185,36.617054,-94.740554,E 277 Ct
160,36.588017,-94.755565,E 9th St/Shundi Rd/S Shundi Rd
185,36.557487,-94.919247,Ponca Ave
160,36.545228,-94.957688,Pebble Beach/Oakland Hill
160,36.563554,-94.764174,Terrance St
160,36.650486,-94.815979,E Hwy 59
160,36.643989,-94.792156,S 608 Rd
216,36.561446,-94.759170,S 628 Pl
160,36.648779,-94.787496,S 608 Rd/S 607 Ln
160,36.652370,-94.784773,S 606 Rd/S 605 Rd
185,36.589664,-94.860565,Dogwood Ln/Oklahoma Cir
160,36.564752,-94.918140,Ross Dr/Ronda Ter
160,36.557451,-94.921299,Ponca Ave/Cherokee Rd
160,36.583280,-94.636876,/E 300 Rd
305,36.437822,-94.773307,/E 400 Rd
160,36.646610,-94.826424,E 256
185,36.336455,-94.885043,D4465 Rd
160,36.545895,-94.773455,S 620 Rd
160,36.179297,-94.655096,N4690 Rd/US Hwy 412/S 690 Rd
246,36.558235,-94.774044,E 315 Loop
160,36.519168,-94.944449,/524 Pl
160,36.558474,-94.917005,/Ponca Ave
276,36.593881,-94.762113,St Andrews Dr/E 3rd St
160,36.600777,-94.771500,/Davis St
216,36.179576,-94.625432,/US Hwy 59
246,36.591099,-94.757121,Mill Creek Dr
160,36.591250,-94.779318,W 5th St//Golf St
305,36.575366,-94.772026,/W 21st St/S Broadway St
185,36.603122,-94.868655,E 287 Rd
160,36.490233,-94.912180,/Co Rd 366
185,36.179360,-94.619329,N4710 Rd/US Hwy 59
185,36.205251,-94.800774,Tulsa Ave/Maple Ln
160,36.420404,-94.809278,/S 14th St
160,36.650943,-94.795528,E 253 Rd/S 603 Rd
160,36.573132,-94.863159,S 563 Rd
160,36.579665,-94.755515,S 630 Rd/E 18th St
160,36.544630,-94.986453,/Duck Creek Blvd
185,36.635321,-94.773361,E 263 Loop
185,36.554220,-94.765313,Sagamore
246,36.542051,-94.957867,Olympic/Pt O' Woods
160,36.211896,-94.850818,N4580 Rd/Cherokee Tpke
160,36.568474,-94.767917,Mutt Mantle Ln
334,36.430554,-94.786212,E Monroe St
160,36.199866,-94.659597,Cr 683
246,36.262084,-94.693407,/W Potter
160,36.484224,-94.898323,D0377 Rd/Pr Rd 121
160,36.416639,-94.990810,State Hwy 20
160,36.653475,-94.850034,/E 250 Rd
160,36.193231,-94.779723,State Hwy 10 Scn
185,36.205256,-94.775249,/Tulsa Ave
305,36.646392,-94.748826,/S 631 Loop
160,36.653179,-94.794017,S 604 Ln/E 252 Rd
499,36.573563,-94.774040,Fairview Circle Dr/Squirrel Run
216,36.557491,-94.918888,/Ponca Ave
246,36.585319,-94.764788,/E 11th St
160,36.591411,-94.764097,Osage St/E 5th St/S Osage St
334,36.423324,-94.809206,W Cherokee St/Cr 411/N 14th St/S 14th St
160,36.639131,-94.814607,E Hwy 59
160,36.539583,-94.740323,/E 330 Rd
160,36.553830,-94.782390,E 320 Rd/S 616 Rd
276,36.589906,-94.757449,Cox Ln
160,36.625204,-94.706222,/E 270 Rd
246,36.556822,-94.773237,/E 318 Rd
185,36.549042,-94.814690,596 Loop
160,36.655888,-94.736328,/S 638 Rd
305,36.591478,-94.756104,Mill Creek Dr
185,36.636360,-94.898232,Locust Dr/Red Oak Rd
160,36.185465,-94.705966,/US Hwy 412
684,36.206028,-94.779677,/US Hwy 59
160,36.435197,-94.782282,/N Main St
160,36.547736,-94.988606,Hwy 85
160,36.612568,-94.920059,Bernice Dr/Turner Ave
362,36.591297,-94.758213,/Chopper Ct
160,36.559003,-94.806972,S 602 Loop
658,36.593395,-94.775833,W 3rd St/Elk St
160,36.559240,-94.806839,S602 Rd
160,36.565107,-94.918543,/Ross Dr
276,36.564225,-94.839400,Cherokee Trl/Twin Falls Cir
216,36.438636,-94.782304,/N Main St
160,36.524751,-94.788943,E 340 Ln
160,36.418437,-94.800340,S 7th St
160,36.423530,-94.636087,State Hwy 20
160,36.609692,-94.807198,Orchard Dr/Apple Dr
160,36.583027,-94.740822,Honey Creek Ranch
160,36.533268,-94.964241,Ridge Road Cir
160,36.416344,-94.908638,/State Hwy 20
160,36.210532,-94.802149,Boundary St/Buchanan Ave/Comet St
185,36.571003,-94.808403,/Melody Ln
185,36.176344,-94.575706,US Hwy 59
160,36.212060,-94.873652,Cherokee Tpke
334,36.610199,-94.867987,S 561 Rd
246,36.408929,-94.824358,State Hwy 20
305,36.583161,-94.759844,E 11th St
276,36.612522,-94.804763,Dyer Ct/63rd St
216,36.594065,-94.755576,/Shun Di/Shundi Rd
334,36.174842,-94.566277,/US Hwy 59
160,36.556536,-94.919072,Osage/Miami Ave
160,36.560493,-94.772522,E 315 Rd
160,36.335970,-94.782931,US Hwy 59
160,36.168556,-94.565867,Apple Rd/US Hwy 59
305,36.578531,-94.764553,E 18th St/18th St/Sumac
185,36.212960,-95.011310,Cherokee Tpke/N4490 Rd
185,36.562771,-94.777616,E 314 Dr/S 618 Rd
246,36.594438,-94.775839,E O Daniel Pkwy/Elk St
185,36.589629,-94.809274,Quail Run Rd/Hickory Cir
160,36.582952,-94.755538,S 630 Rd
160,36.584713,-94.773016,Spring St
276,36.422428,-94.806639,/S 12th St
216,36.485837,-94.990909,/W 2nd St/Highland
160,36.311615,-94.867351,S 568
276,36.658217,-94.708437,/E 245 Rd
185,36.433094,-94.783311,E Melton Dr
246,36.655602,-94.796295,S 603 Ln/S 603 Rd
1200,36.578016,-94.769192,S Main St
276,36.642951,-94.794088,S 605 Rd
160,36.205210,-94.783584,Mason St/US Hwy 412 Alt/e Tulsa Ave/US Hwy 412 Alt
160,36.176127,-94.775775,Big Bear Rd/Hidden Valley Rd
185,36.595638,-94.768474,1st St
160,36.572026,-94.817282,307 Ln/E 307 Rd/E 307 Ln
160,36.630960,-94.810902,Wolf Creek Dr/109th NW
160,36.439627,-94.782321,/N Main St
160,36.263895,-94.613071,/State Hwy 116
216,36.533568,-94.935772,/333
185,36.540421,-94.966394,Felts Ln
160,36.414423,-94.837259,/E 416 Rd/Chancellor Rd
246,36.574255,-94.867254,Prdr
216,36.647575,-94.744267,S 634 Loop/
216,36.498456,-94.996232,Sportsman Rd
160,36.466862,-94.782185,US Hwy 59/E 380 Rd
160,36.631194,-94.811041,Wolf Creek Dr
216,36.647240,-94.827279,S 585 Loop/S 585 Rd
160,36.562310,-94.797327,/Shore Dr
305,36.420098,-94.802800,W Krause St/S 9th St
185,36.632664,-94.816746,/113th St
216,36.582349,-94.795254,Colby Ln/Dubois
185,36.392873,-94.818152,/US Hwy 59
160,36.448766,-94.782318,/N Main St
160,36.581776,-94.771736,S Broadway St
185,36.585167,-94.782490,Leisure Ln/S Sycamore/Leisure Rd
160,36.321967,-94.719228,E047.0 Rd
160,36.481330,-94.943484,E 370 Rd
160,36.528970,-94.963486,Sage Grouse Cir
390,36.176312,-94.565170,US Hwy 412/S State Line Rd
160,36.202613,-94.851073,State Hwy 33C
185,36.428699,-94.793000,W Broadway St/N 2nd St
216,36.576374,-94.849286,/S 305 Rd
160,36.259664,-94.754417,Null
185,36.370431,-94.701414,S 660 Rd
160,36.489017,-94.926242,Country Club Rd/D0366 Rd/Hendryx Point Rd
185,36.577169,-94.883826,/S 555 Rd
160,36.215053,-94.972811,Cherokee Tpke
185,36.588288,-94.760024,E 9th St/Olive St
216,36.583052,-94.766538,E 13th St/Mill St
160,36.594449,-94.774534,S Center St/E O Daniel Pkwy
216,36.179138,-94.672855,N4680 Rd/US Hwy 59
160,36.643759,-94.912348,/E 259 Rd
246,36.429963,-94.782810,N Main St
160,36.623610,-94.816935,Sunset Cir/Cedar Oaks Cir
185,36.619957,-94.914500,Lingo Rd
160,36.589106,-94.860639,Privateer Ln/Privateer Dr
160,36.660924,-94.894453,E Brandy Cir/S 550 Rd
305,36.423336,-94.808243,W Cherokee St/13th
216,36.550004,-94.814545,596 Loop
246,36.581043,-94.766895,E 15th St/Mill St
160,36.249490,-94.767416,530 Rd/US Hwy 59
160,36.539067,-94.992065,E0330 Rd
246,36.558196,-94.774308,S 620 Rd/E 315 Loop
160,36.208739,-94.800080,Voag/Main St
160,36.485051,-94.980701,Kiawa Dr/Kiawa/Checota
160,36.641114,-94.762367,/E 259 Rd
160,36.551817,-94.959675,Pebble Beach
160,36.423459,-94.909003,/E0410 Rd
445,36.582025,-94.769125,S Main St
472,36.593398,-94.774796,W 3rd St/Elk St
160,36.638614,-94.683150,E 260 Rd/S 668 Rd
216,36.542749,-94.988581,Thunder Bay Rd/Hwy 85
160,36.176354,-94.572405,Serenity Dr/US Hwy 59
216,36.489238,-94.985055,Miami Rd
160,36.182888,-94.655118,S 690 Rd
160,36.491528,-94.914716,Hendryx Point Rd
160,36.408926,-94.831644,/State Hwy 20
185,36.177868,-94.689937,US Hwy 412
160,36.208402,-94.779655,/US Hwy 59
160,36.168663,-94.565865,US Hwy 59
160,36.597946,-94.756505,S 626 Rd/3rd St
276,36.588529,-94.772481,8th St
305,36.597865,-94.747478,N 3rd St/S 630 Rd/E 290 Rd
160,36.179605,-94.613588,/US Hwy 59
160,36.483578,-94.921943,D0377 Rd/
185,36.531296,-94.961370,Dogwood Cliff/S Coves Dr
160,36.178464,-94.689131,US Hwy 59
216,36.423335,-94.796496,W Cherokee St/S 4th St
216,36.553997,-94.769233,E 320 Rd
499,36.175484,-94.566319,/US Hwy 59
305,36.423181,-94.791444,W Cherokee St/S Main St
276,36.420092,-94.800370,W Krause St/S 7th St
160,36.573234,-94.809261,600 Rd
185,36.488259,-94.985643,Easy St
216,36.591120,-94.763037,Delaware Ct/E 5th Pl
185,36.598547,-94.765510,E 288 Ct/S 620 Rd
276,36.506393,-94.943853,/Windmill Run Rd
185,36.577095,-94.849523,/Orchard Ln/E 305 Rd
246,36.556655,-94.773869,/S 620 Rd
185,36.219713,-94.841049,E0550 Rd
185,36.485770,-94.991608,/W 2nd St
185,36.503238,-94.780964,E 355 Rd/US Hwy 59
185,36.602411,-94.747482,/S 630 Rd
160,36.277122,-94.691343,/N Colcord Ave
185,36.524836,-94.797180,E 340 Trl
216,36.571637,-94.773682,Anchor Rd
185,36.425935,-94.794600,N 3rd St/W Dial St
276,36.638618,-94.682767,E 260 Rd/S 668 Rd
160,36.311071,-94.868174,Cr 487
276,36.634730,-94.773295,/E 263 Loop
216,36.580428,-94.883446,E 301 Rd
185,36.601035,-94.869086,S 564 Rd
160,36.614587,-94.805110,Terry Ln/Lakeside Dr
160,36.447763,-94.782313,/N Main St
160,36.416123,-94.888744,State Hwy 20
160,36.217220,-94.806406,Cherokee Tpke/Delaware St
160,36.182348,-94.733379,Cedar Ridge Dr
160,36.212889,-94.779651,/US Hwy 59
334,36.594088,-94.751887,E 291 Rd
216,36.532195,-94.773405,S 620 Rd/E 335 Ln
160,36.416321,-94.691575,State Hwy 20
305,36.585291,-94.769200,W 11th St/E 11th St/S Main St
160,36.574979,-94.922203,Park St/Ford Ln
334,36.581121,-94.783730,/W 14th St
246,36.261983,-94.691137,/E Potter
160,36.583198,-94.740679,E 300 Rd
185,36.170589,-94.771609,Red Fox Rd/Fox Ridge Dr
160,36.534145,-94.701483,/S 660 Rd
160,36.481066,-94.995146,Hines Point Rd/Hines Pt Rd
185,36.622903,-94.909713,State Hwy 85A
160,36.219739,-94.779649,US Hwy 59/E0550 Rd
246,36.643645,-94.792721,E 259 Rd/S 605 Ct
160,36.605329,-94.873443,S Hwy 125/E 285 Rd
160,36.474066,-94.937206,N 455
160,36.558168,-94.921077,Chickasha Ave
185,36.653213,-94.821587,/E Hwy 59
185,36.625277,-94.810687,Nw98th St
160,36.609497,-94.865437,/E 285 Rd
160,36.492322,-94.971690,Mooring Rd/
185,36.179342,-94.628183,US Hwy 59
160,36.177298,-94.577955,Sycamore Ln
160,36.528626,-94.988404,/Hwy 85
160,36.597945,-94.763701,N 3rd St
160,36.264947,-94.692719,Callis/N Colcord Ave
185,36.564829,-94.764086,Terrace Dr/Terrance St/Moore Dr
160,36.657832,-94.778135,/E 248 Ln/S 612 Rd
160,36.539482,-94.768034,/E 330 Rd
160,36.209117,-94.797464,Cherokee St
160,36.597952,-94.760547,N 3rd St/N Emma St
160,36.501716,-94.992643,Little Nowata
185,36.592526,-94.763426,S Delaware St
185,36.635753,-94.715480,S 650 Rd
216,36.541346,-94.959075,Mockingbird Ln/Pt O' Woods
276,36.572222,-94.770801,Cozy Dr
160,36.321890,-95.004400,D4491 Rd
160,36.597939,-94.712971,/E 290 Rd
185,36.635197,-94.715476,/S 650 Rd
160,36.605925,-94.795670,New Life Dr
160,36.587306,-94.759738,E 10th St
185,36.422003,-94.806634,S 12th St/13th
160,36.498698,-95.005772,Hickory Ln
631,36.593422,-94.773214,W 3rd St/S Spring St
160,36.179569,-94.637238,N4700 Rd/US Hwy 59
160,36.598647,-94.766036,E 288 Ct
185,36.648743,-94.827001,S 585 Loop
185,36.553827,-94.931686,E0320 Rd/4531 Rd
390,36.423336,-94.807739,W Cherokee St/13th St
185,36.578978,-94.799088,Pathways Rd
185,36.424190,-94.796646,W Carver St
160,36.267020,-94.689662,Kirby
185,36.573727,-94.809266,600 Rd/Melody Point Rd
185,36.621982,-94.912122,Park Dr
390,36.571940,-94.777688,Coon Hollow
276,36.448033,-94.784364,Shotpouch Dr
216,36.592970,-94.752303,S 632 Ln/E 293 Rd
160,36.570203,-94.912643,Gran Dr/Caroline Cir
160,36.356645,-94.798870,/468 Rd
185,36.609043,-94.799274,E Hwy 59/New Life Dr
160,36.391922,-94.883248,Cr 559/N4559 Rd
276,36.593464,-94.766718,S Mill St/E 3rd St
276,36.631714,-94.819164,113 St
160,36.647442,-94.719191,S646rd
160,36.625214,-94.751519,S 630 Rd/E 270 Rd
216,36.179325,-94.679126,US Hwy 59
276,36.565785,-94.772932,S 620 Rd
185,36.186076,-94.711796,Cr 658/D0581 Rd/Flint Ridge Rd
160,36.575729,-94.925777,N4535 Rd/Crane Ln
160,36.490612,-94.914688,Hendryx Point Rd
185,36.656165,-94.697418,S 660 Rd
160,36.561227,-94.779974,E 315 Rd/S 617
160,36.655798,-94.697436,S 660 Rd/E 250 Rd
216,36.524521,-95.005366,E 340 Rd
160,36.577048,-94.848093,E 305 Rd
160,36.586004,-94.836397,E 297 Ln
160,36.596198,-94.867245,E 294 Rd
246,36.526026,-94.961644,S Coves Dr/Bob White Ln
418,36.611241,-94.867043,/S 561 Rd
160,36.365601,-94.701796,/S 660 Rd/E0450 Rd
185,36.609033,-94.799284,New Life Dr
160,36.583280,-94.636765,E 300 Rd
216,36.425939,-94.798570,N 6th St/W Dial St
246,36.632665,-94.818387,113th St/113 St/Pinoak St
160,36.604563,-94.744250,E 285 Ct
160,36.200856,-94.659628,/Cr 683
390,36.594205,-94.766132,/E O Daniel Pkwy
160,36.176206,-94.649966,E 578 Rd
160,36.211709,-94.850822,N4580 Rd/Cherokee Tpke
160,36.474140,-94.982447,Bagby St/2nd Ave
160,36.638531,-94.733520,E 260 Rd/S 640 Rd
185,36.585873,-94.764127,/Pleasant Dr
160,36.553919,-94.784611,E 320 Rd
160,36.568309,-94.941865,Ross Dr
216,36.582895,-94.791203,Rockwood Dr/W 13th St
185,36.314640,-94.988184,S 500/School Rd
160,36.654854,-94.780436,E 250 Dr
160,36.496825,-94.831716,/State Hwy 127
276,36.634602,-94.813992,Ballerina Cir/NW 124th St
160,36.585330,-94.763239,/E 11th St
216,36.576261,-94.808586,Evans Dr
185,36.553923,-94.780418,/E 320 Rd
185,36.409434,-94.821968,/S Main St
334,36.581123,-94.783893,W 14th St/Woodcrest Way
160,36.205040,-94.899100,/US Hwy 412 Alt
185,36.422356,-94.809253,S 14th St
185,36.179352,-94.624135,US Hwy 59
160,36.557689,-94.806401,S602 Rd/E 317 Rd
160,36.561059,-94.917238,E0315 Rd
160,36.205191,-94.807400,US Hwy 412 Alt
160,36.547437,-94.972461,1st St/Duck Creek Lndg
276,36.447951,-94.784749,Shotpouch Dr
160,36.483703,-94.922260,/David Hall Blvd
185,36.590118,-94.965562,/E 295 Rd
185,36.518142,-94.777870,US Hwy 59
160,36.445233,-94.782310,Leeann St/N Main St
246,36.583562,-94.784067,Woodcrest Way
160,36.577250,-94.918896,/E 0305 Rd
579,36.575686,-94.769113,/S Main St
185,36.610321,-94.869035,/S 561 Rd
160,36.576972,-94.919429,E 0305 Rd/Crane Ln/S 4538 Rd
390,36.573215,-94.775297,/Shadow Creek Pl
185,36.572876,-94.780380,Inwood Dr/Lakewood Dr
246,36.649542,-94.737405,E 252 Rd
305,36.589144,-94.758476,E 7th St/Pritchard Ct
216,36.626014,-94.761901,/S 622 Ln
216,36.595332,-94.756905,E 3rd St
160,36.478836,-94.782067,US Hwy 59
160,36.616157,-94.808884,/E Hwy 59
160,36.550956,-94.961704,N4515 Rd
185,36.612529,-94.954238,E Hwy 85A
216,36.602006,-94.747484,S 630 Rd
160,36.646390,-94.692934,E 253 Rd/S 663 Rd
160,36.597955,-94.761814,N 3rd St/Seneca
160,36.561227,-94.779820,E 315 Rd/S 617 Loop
305,36.419402,-94.809299,W Briarwood St/S 14th St
185,36.629253,-94.918998,Eagle Crest Dr/
362,36.596016,-94.763700,Goins St
160,36.638624,-94.684484,/E 260 Rd
246,36.429666,-94.794628,N 3rd St/W Leonard St
160,36.529272,-94.737363,/S 640 Rd
160,36.630927,-94.898722,Deer Run/E Buck/S Deer Run Rd
185,36.577494,-94.795564,/Red Fox
160,36.657548,-94.735810,S 638 Loop
276,36.653814,-94.760138,/S 630 Rd
160,36.490540,-94.908635,D0377 Rd/Petty Pl
276,36.607812,-94.747513,/S 630 Rd
160,36.412597,-94.712926,State Hwy 20/N 465.4 Rd
160,36.421141,-94.802796,S 9th St/W Washbourne St
160,36.300212,-94.598749,/D0495 Rd
246,36.595618,-94.766168,1st St
390,36.424211,-94.791310,W Carver St/N 1st St
362,36.588229,-94.771171,/W 9th St
246,36.625272,-94.811337,Nw98th St/98th St NW/Keller Rd
216,36.615446,-94.918420,Broadway/E Hwy 85A
216,36.573147,-94.856477,Lakeside Dr/S 4th St
160,36.229173,-94.815348,N4600
185,36.212134,-94.788737,Cherokee Tpke
160,36.612376,-94.747496,S 630 Rd/E 280 Rd
160,36.568221,-94.974562,D0317 Rd/E 310 Rd
246,36.423335,-94.794610,N 3rd St/W Cherokee St/S 3rd St
185,36.630393,-94.715441,/S 650 Rd
160,36.179568,-94.636243,/US Hwy 59
160,36.503194,-94.859367,E 355 Rd
216,36.583463,-94.791205,Rockwood Dr
185,36.205113,-94.941154,/US Hwy 412 Alt
472,36.594044,-94.765599,S Cherokee St/E O Daniel Pkwy
160,36.187341,-94.779773,State Hwy 10 Scn
216,36.515912,-94.794571,/E 346 Rd
276,36.593609,-94.763414,S Delaware St/E 3rd St
185,36.576508,-94.848703,S 305 Rd
185,36.575462,-94.870018,S 562 Rd//Segment of 562 Rd
445,36.589358,-94.768596,/E 7th St
160,36.194715,-94.720346,D0567 Rd/US Hwy 412 Alt
160,36.607704,-94.795682,Circle Drive Pl/Circle Dr
185,36.652361,-94.786161,S 605 Rd/S 605 Ln
160,36.628492,-94.907605,/540 Rd
246,36.472466,-94.916537,/S 540 Rd/Ridge Crest Dr
305,36.427681,-94.795776,N 4th St/W Bagby St
445,36.584401,-94.782002,Britini Ln
160,36.195492,-94.723887,D0572 Rd/US Hwy 59/US Hwy 412 Alt
216,36.214031,-94.802182,Buchanan Ave
160,36.528068,-94.976769,Grand Ave
185,36.560052,-94.794693,Dilar Dr
160,36.503144,-94.813693,/State Hwy 127
160,36.583198,-94.740809,Honey Creek Ranch/E 300 Rd
160,36.561190,-94.798099,Dilar Dr/Shore Dr
185,36.611334,-94.804198,Kings Pl
160,36.606021,-94.795199,/E Hwy 59
160,36.188026,-94.727825,Dewberry Cir
185,36.515910,-94.795214,/E 346 Rd
160,36.629111,-94.898264,/Deer Run
160,36.589688,-94.863286,Hickory Pl
334,36.609555,-94.748695,E 282 Rd
160,36.530754,-94.976106,/S 4507 Rd
160,36.521271,-94.795433,E 343 Rd
390,36.176456,-94.565153,US Hwy 412/S State Line Rd
334,36.550507,-94.804817,E 322 Rd
160,36.412684,-94.818348,W Cedar St
160,36.666062,-94.697484,S 660 Rd
334,36.610554,-94.799532,Palmer Rd
216,36.414877,-94.820773,W Austin Ave
185,36.425951,-94.796956,N 5th St/W Dial St
160,36.576438,-94.795320,Palm Dr
246,36.612516,-94.803614,/63rd St
185,36.648267,-94.762843,S 627 Rd/E 253 Rd/S 623 Rd
160,36.205223,-94.842197,/US Hwy 412 Alt
185,36.631509,-94.810231,/Lucky Dr
246,36.580377,-94.780150,Crest/Wood St
865,36.578022,-94.768079,/18th St
658,36.424194,-94.798574,N 6th St/W Carver St
160,36.172503,-94.752536,Eagle View Cir
160,36.219376,-94.779646,/US Hwy 59
160,36.485339,-94.904291,Red Oak Ln
185,36.415138,-94.875024,State Hwy 20
246,36.545214,-94.985233,Neosho Blvd/Duck Creek Blvd
185,36.588131,-94.836405,E 296 Pl
334,36.595144,-94.763497,Delaware
160,36.243047,-94.827830,/D4600 Rd
185,36.179375,-94.609766,US Hwy 59
276,36.578366,-94.799355,Melissa St/Michaels St
160,36.558160,-94.816262,S597
160,36.183194,-94.566431,Pine St/S State Line Rd
216,36.618612,-94.920503,Laurie Ln
160,36.578819,-94.880999,S 555 Rd/E 303 Rd
246,36.588546,-94.773129,S Spring St/8th St
160,36.517055,-94.964443,S Coves Dr
160,36.524896,-94.774762,E 340 Rd
185,36.186947,-94.707866,US Hwy 412
246,36.609890,-94.868030,S 561 Rd
185,36.586346,-94.809264,Quail Run Rd
185,36.579194,-94.781137,Vale Dr/Ski St
160,36.590716,-94.756841,Cox Dr
160,36.583841,-94.970052,/Hwy 85
362,36.572310,-94.769601,S Main St
160,36.553972,-94.774496,E 320 Rd/
305,36.574895,-94.867101,Prdr
390,36.556999,-94.773967,S 620 Rd/E 318 Rd
160,36.398389,-94.601473,Cr 714
160,36.442879,-94.938961,Cr 393/E0400 Rd/D0395 Rd
160,36.485830,-94.904307,Red Oak Pl/Red Oak Ln
160,36.599668,-94.711368,S 655 Rd
160,36.211904,-94.867038,Cherokee Tpke
185,36.450735,-94.899285,N County Rd/Cr 550
185,36.531425,-94.962594,Quail Ct
246,36.535816,-94.965677,Blue Herron
160,36.645559,-94.715510,/E 255 Pl
216,36.612534,-94.803972,E Hwy 59/63rd St
499,36.593453,-94.769297,W 3rd St/S Main St/E 3rd St
185,36.627048,-94.902189,/State Hwy 85A/E 270 Rd
552,36.418139,-94.805798,S Main St
334,36.592941,-94.755557,Shun Di/Shundi Rd/E 293 Rd
185,36.578391,-94.883222,E 303 Rd
185,36.617813,-94.919223,Northwest Ave
160,36.469746,-94.665662,/N 468 Rd
160,36.414416,-94.838389,Chancellor Rd
160,36.436845,-94.845133,Cr 591
160,36.629084,-94.907526,/540 Rd
472,36.593430,-94.771864,S Broadway St/W 3rd St
185,36.515915,-94.794098,/E 346 Rd
390,36.595689,-94.755618,State Hwy 10/Shun Di/E 3rd St
160,36.527224,-94.976088,Grand Ave
160,36.567115,-94.792290,Twin Cove Ln
216,36.654592,-94.824856,/E Hwy 59
305,36.262056,-94.691578,E Potter/S Larmon St/W Potter
160,36.278388,-94.598437,/State Hwy 116
216,36.588448,-94.774407,S Center St/Center St
390,36.452347,-94.782337,E 390 Rd/E 389 Rd/US Hwy 59/N Main St
276,36.597932,-94.751846,N 3rd St
334,36.423354,-94.798683,S 6th St/N 6th St/W Cherokee St
246,36.552069,-94.928326,Vintage Way
160,36.657839,-94.777958,S 612 Rd
160,36.537556,-94.842659,E 330 Loop
185,36.408543,-94.848253,State Hwy 20/S 578 Rd
160,36.604735,-94.783499,N 16th St W
185,36.193422,-94.779721,/State Hwy 10 Scn
160,36.177782,-94.759723,Peaceful Ridge Dr/Hideout Cir
160,36.194622,-94.720379,Broken Heart Rd/US Hwy 412 Alt
334,36.658237,-94.707054,/E 245 Rd
160,36.594446,-94.774820,E O Daniel Pkwy/Elk St
160,36.418139,-94.783717,/S 615 Rd
246,36.597657,-94.828827,Lake Breeze Rd
276,36.587223,-94.773137,Spring St/W 10th St
160,36.634724,-94.774132,/E 263 Loop
160,36.500960,-94.782508,E 356 Pl
160,36.658242,-94.706707,E 245 Rd/S 655 Rd
216,36.194283,-94.779714,/State Hwy 10 Scn
160,36.658072,-94.735676,S 638 Loop
684,36.206119,-94.779677,US Hwy 59/Welch St
160,36.418663,-94.798769,W Stiver St/S 6th St/W Lindly St
185,36.161665,-94.848730,State Hwy 82A
160,36.284981,-94.772260,/US Hwy 59
160,36.473981,-94.983436,Rd 451/State Hwy 28/Bagby Ave
418,36.263871,-94.983914,/E0520 Rd
418,36.558999,-94.773091,315 Loop/E 315 Loop
160,36.299432,-94.777371,/US Hwy 59
390,36.420175,-94.802002,W Krause St/S Main St
216,36.568372,-94.792325,Spruce/E310
185,36.627131,-94.901846,E Hwy 85A/State Hwy 85A/E 270 Rd
160,36.411769,-94.734973,State Hwy 20/Cr 641
160,36.420092,-94.980732,/State Hwy 20
185,36.588288,-94.759737,E 9th St
160,36.190713,-94.779735,State Hwy 10 Scn/W 57th St/E 57th St
216,36.180815,-94.637250,N4700 Rd/S 700 Rd
160,36.420089,-94.797397,W Krause St/S 5th St
160,36.410140,-94.836274,Pritchett Rd/S 585 Rd
160,36.597937,-94.768060,3rd St/N Hazel St/Madison
185,36.480417,-94.984399,/Cove St
160,36.435999,-94.782286,/N Main St
160,36.634569,-94.769425,E 263 Loop/S 620 Rd
160,36.477659,-94.989285,Leonard Rd/State Hwy 28
216,36.588251,-94.766683,E 9th St/S Mill St
160,36.597956,-94.722503,/E 290 Rd
185,36.573897,-94.781236,/State Park Rd
160,36.444727,-94.782311,/N Main St
216,36.429658,-94.793010,W Leonard St/N 2nd St
305,36.639134,-94.682750,S 668 Rd
246,36.591304,-94.775674,W 5th St/Elk St
160,36.647279,-94.746730,E 256 Rd
246,36.589335,-94.771167,/W 7th St
185,36.590307,-94.772476,W 6th St/S Spring St
216,36.562264,-94.796788,/Buffalo Ln
185,36.600431,-94.869296,S 563 Rd/
390,36.594455,-94.773161,S Spring St/E O Daniel Pkwy
160,36.541190,-94.957437,Spyglass Hill
276,36.578117,-94.764547,S 625 Rd/Sumac
160,36.234259,-94.779660,/620 Rd
160,36.583190,-94.741362,/E 300 Rd
160,36.615238,-94.729463,/S 640 Rd
185,36.647695,-94.743467,S 634 Loop/E 255 Ln
305,36.421572,-94.795552,Rainbow Ave
160,36.550916,-94.966273,/Lusk Cir
276,36.423345,-94.804810,W Cherokee St
216,36.437822,-94.779404,N Industrial Park Rd/E Monroe Ave
160,36.498905,-94.782318,E 356 Pl/US Hwy 59
216,36.498750,-94.995715,/Sportsman Rd
160,36.217860,-94.806444,Delaware St
160,36.595579,-94.762857,St Andrews Ct
185,36.219610,-95.002213,/US Hwy 412 Alt
185,36.641751,-94.766916,S 622 Rd
305,36.437971,-94.906741,E0400 Rd
305,36.593461,-94.768066,S Hazel St/E 3rd St
185,36.585213,-94.767922,Hazel St
246,36.585848,-94.755553,N E O Loop/S Shundi Rd
185,36.653706,-94.760520,S 630 Rd
160,36.499200,-95.004994,Hickory Ln
160,36.489650,-94.975024,Tiawa Rd/Ackerman Rd
185,36.590286,-94.775682,W 6th St/Elk St
160,36.434220,-94.777802,N Melton Dr
246,36.171555,-94.586712,D4723 Rd
160,36.531300,-94.936055,S 525
160,36.543952,-94.766698,E 327 Rd/S 624 Rd
160,36.533039,-94.935488,/333
216,36.179527,-94.657741,US Hwy 59
160,36.260571,-94.694058,S Spencer
160,36.537289,-94.976018,Thompson Pt/Clark Blvd
185,36.545214,-94.984156,/Neosho Blvd
185,36.452354,-94.779753,E 390 Rd/N Evenson Rd
216,36.432242,-94.796732,N 5th St
526,36.590329,-94.769267,E 6th St/W 6th St/S Main St
160,36.572374,-94.820777,E 307
216,36.583074,-94.764582,E 13th St/Sumac
160,36.612525,-94.952058,/E Hwy 85A
160,36.421177,-94.808597,W Washbourne St
160,36.524537,-94.979368,/E 340 Rd/S 4505 Rd
160,36.447580,-94.782313,/N Main St
246,36.418795,-94.802335,W Cowan St/S 9th St
631,36.206126,-94.779321,/Welch St
185,36.660454,-94.895271,E Brandy Cir/Lake Dr
160,36.569885,-94.912302,Glen Dr
246,36.413018,-94.815344,S 18th St/S Main St
276,36.578579,-94.799103,James St/Pathways Rd
276,36.566537,-94.772540,S 620 Rd
305,36.550734,-94.804703,E 322 Rd
160,36.411700,-94.819510,Pine St/S 21st St
160,36.582046,-94.833803,S 387 Cir
216,36.204446,-94.779697,/State Hwy 10
362,36.591836,-94.775679,/Elk St
160,36.597942,-94.768504,Madison
160,36.582938,-94.784696,W 13th St
160,36.571183,-94.772597,/Anchor Rd
160,36.240885,-94.774201,/US Hwy 59
160,36.553920,-94.885259,E 319 Rd
216,36.422496,-94.796516,S 4th St/W Delaware St
216,36.585322,-94.764239,E 11th St/Pleasant Dr
246,36.573924,-94.767739,Heffelman Dr
160,36.648120,-94.787371,S 608 Rd/S 608 Ln
246,36.544088,-94.953996,Pt O'Woods Cir/Pt O'Woods
185,36.179979,-94.619338,White Oak/Cr 712
185,36.533659,-94.937037,333/524/S 524 Rd
276,36.428591,-94.798320,W Broadway St/Broadway Cir
160,36.208785,-94.779658,US Hwy 59
216,36.590213,-94.756776,Cox Dr/Cox Ln
185,36.566885,-94.854313,E 310 Rd
216,36.437553,-94.779404,/N Industrial Park Rd
160,36.642275,-94.692928,S 663 Rd/E 265
160,36.533793,-94.701550,/S 660 Rd
160,36.219097,-94.640222,New Life Ranch Dr
160,36.523489,-94.962446,S Coves Dr/Osprey Rd
160,36.630482,-94.811957,NW 108th St
160,36.507151,-94.937226,Pr 125
160,36.524721,-95.005747,S 4490 Rd
160,36.626792,-94.711413,/S 655 Rd
185,36.660784,-94.895092,Lake Dr
160,36.205180,-94.798526,Tulsa Ave/Elm St
246,36.576334,-94.849625,/Orchard Ln
216,36.602505,-94.873431,S Hwy 125
305,36.643587,-94.793206,E 259 Rd
216,36.611327,-94.804751,Dyer Ct/Kings Pl
246,36.587228,-94.771159,W 10th St
185,36.179595,-94.609776,US Hwy 59
246,36.568195,-94.976332,/Hwy 85
246,36.597463,-94.783677,E Hwy 59
185,36.599231,-94.753662,Ridgerunner Ct/Center St
216,36.179523,-94.653839,/US Hwy 59
160,36.312003,-94.867744,/S 567
160,36.213265,-94.940413,N4530 Rd/Cherokee Tpke
185,36.595621,-94.769366,Davis St/1st St/S Main St/N Main St
160,36.561124,-94.844081,/S Hwy 125
246,36.426821,-94.794607,N 3rd St/W Price St
216,36.582980,-94.781947,Harber Rd/W 13th St
160,36.480344,-94.995118,West St/Hines Pt Rd
160,36.213458,-94.940413,N4530 Rd/Cherokee Tpke
185,36.531198,-94.961745,Sage Grouse Cir
160,36.264010,-94.763956,/State Hwy 116
445,36.437982,-94.905276,E0400 Rd
499,36.426205,-94.786263,N Hodges Ln/N Main St
160,36.576625,-94.884072,555 Rd
418,36.593993,-94.769305,/S Main St
160,36.450892,-94.815827,State Hwy 127
160,36.414453,-94.882476,E 416 Rd/S 559 Rd/N4559 Rd
185,36.414913,-94.874621,State Hwy 20
160,36.214541,-94.815314,E 554/N4600
216,36.565551,-94.766064,Harbor Loop Dr/Asher Ct
160,36.415797,-94.820462,/W Atlanta St
160,36.635791,-94.899302,Black Jack Rd/Red Oak Rd
160,36.420683,-94.809263,S 14th St
160,36.608114,-94.806195,Orchard Ln/Peach Ln
185,36.598016,-94.969257,/Hwy 85
160,36.553987,-94.770373,E 320 Rd/
216,36.514120,-94.777914,/US Hwy 59
276,36.595442,-94.780960,E Hwy 59/Leisure Rd
160,36.426840,-94.796952,N 5th St/W Price St
160,36.581115,-94.780772,W 14th St/Hummingbird Ln
160,36.529899,-94.977311,/E 336 Rd
160,36.629149,-94.711035,S 655 Rd
160,36.178596,-94.565598,S State Line Rd
185,36.592325,-94.762454,Fisher St
305,36.524475,-94.764313,/S 625 Rd
160,36.412671,-94.807859,S 14th St
160,36.214617,-94.947073,/Cherokee Tpke
305,36.451885,-94.778464,/Robin Rd
246,36.655882,-94.796048,603 Ln
160,36.195566,-94.779723,State Hwy 10 Scn
185,36.591093,-94.756211,Mill Creek Dr
160,36.578804,-94.881003,E 303 Rd
160,36.579321,-94.795096,Gaslight Dr
305,36.592393,-94.771876,S Broadway St/W 4th St
160,36.599079,-94.766034,E 288 Ct
160,36.616027,-94.916817,Ash St
246,36.418800,-94.803519,W Cowan St/SW 9th St
160,36.642551,-94.794367,S 605 Rd
246,36.603700,-94.873445,S Hwy 125
160,36.474004,-94.982568,Bagby Ave
246,36.580833,-94.784221,W 14th St/Park Pl/Moffatt
185,36.653586,-94.760853,S 622 Rd/E 248 Rd
216,36.205195,-94.851086,N4580 Rd/State Hwy 33C/US Hwy 412 Alt
185,36.598051,-94.874461,S Hwy 125/E 290 Rd
246,36.590885,-94.765476,/S Cherokee St
160,36.594467,-94.771901,S Broadway St/E O Daniel Pkwy
160,36.597946,-94.740589,/E 290 Rd
334,36.629710,-94.715441,S 650 Rd
160,36.591222,-94.778104,W 5th St/S Wyandotte St
160,36.161900,-94.565815,E0590 Rd/US Hwy 59
160,36.205183,-94.797046,Tulsa Ave
185,36.648025,-94.718938,253 Ln
160,36.422499,-94.802801,S 9th St/W Delaware St
160,36.571153,-94.804620,Evans Dr
185,36.589127,-94.760111,E 7th St
160,36.629490,-94.907715,540 Rd
216,36.603182,-94.873439,S Hwy 125/286 Rd
246,36.556868,-94.773066,/E 318 Rd
160,36.626144,-94.769462,/S 620 Rd
246,36.421133,-94.800472,/S 7th St/W Washbourne St
185,36.219611,-95.002945,/US Hwy 412 Alt
185,36.423146,-94.964662,/State Hwy 20
216,36.619882,-94.913923,Lingo Rd/Elm St
246,36.427696,-94.794616,N 3rd St/W Bagby St
160,36.544772,-94.957376,Pebble Beach
185,36.179569,-94.646180,/US Hwy 59
160,36.505561,-94.913056,S 540 Ln
216,36.544527,-94.954403,Pt O'Woods Cir
216,36.592111,-94.765475,S Cherokee St/E 4th St
160,36.517171,-94.964459,S Coves Dr
160,36.311306,-94.867444,S 568
160,36.541245,-94.960991,Mockingbird Ln
160,36.417353,-94.800556,W Dixon St
160,36.213569,-94.910210,Cherokee Tpke
216,36.648470,-94.762182,E 253 Rd
160,36.412535,-94.816244,W Lindly St/S Main St
246,36.589341,-94.770571,W 7th St/S Grand St
185,36.592994,-94.751048,E 293 Rd
185,36.426010,-94.794599,N 3rd St
160,36.575860,-94.854508,E Ballard Rd/Lakeside Dr
499,36.429663,-94.795787,N 4th St/W Leonard St
185,36.239480,-94.775331,Danmon Dr/US Hwy 59
305,36.556932,-94.768273,Carmac Rd
160,36.612599,-94.765533,/S 620 Rd
185,36.618049,-94.919206,Allen St/Northwest Ave
185,36.577611,-94.867600,S 562 Rd/E 303 Rd
160,36.524829,-94.804830,E 340 Trl
216,36.647141,-94.789315,S 608 Ln
160,36.178219,-94.759639,Hideout Cir
216,36.568751,-94.771371,S 620 Rd/S Main St
216,36.541460,-94.957121,Olympic/Spyglass Hill
185,36.589138,-94.760522,Howard Loop
216,36.611112,-94.801479,N 55th St
631,36.593644,-94.764670,Osage St/E O Daniel Pkwy
160,36.638619,-94.683974,E 260 Rd/S 667 Rd
185,36.558588,-94.774405,E 315/S 620 Rd
185,36.179312,-94.642688,/US Hwy 59
185,36.647446,-94.721535,/S646rd
160,36.210587,-94.940337,N4530 Rd
160,36.481679,-94.616044,E 370 Rd
160,36.575780,-94.848611,E Oak
160,36.213958,-94.910134,Cherokee Tpke
185,36.206921,-94.797466,Ray Ave/Cherokee St
246,36.580624,-94.779694,Ski/Wood St
160,36.588289,-94.761559,E 9th St
185,36.165347,-94.563303,S State Line Rd
160,36.602083,-94.759755,S 626 Rd
160,36.213918,-94.902033,Cherokee Tpke
185,36.645457,-94.792378,S 608 Ln
185,36.199505,-94.851081,/State Hwy 33C
216,36.420646,-94.783082,/City Rd 33/S 615 Rd
160,36.553651,-94.969747,/Old Farm Rd
160,36.476070,-94.984881,State Hwy 28
160,36.219674,-94.797435,S 610 Rd/Cherokee St/E0550 Rd
160,36.601556,-94.768044,E 288 Rd/Davis St
160,36.193782,-94.715348,/Cr568/D0579 Rd
185,36.573326,-94.764927,/Gault Rd/Heffelman Dr
472,36.414914,-94.815769,S 18th St
160,36.217747,-94.994010,N4500 Rd
185,36.437998,-94.898613,E0400 Rd/N 455
185,36.589266,-94.778074,S Wyandotte St/W 7th St
185,36.555776,-94.775446,S 619 Rd
185,36.184768,-94.712353,/Red Oak Dr/White Oak Dr
160,36.449057,-94.784772,Starr St
160,36.535999,-94.911559,E 328 Rd
160,36.321150,-94.780084,/US Hwy 59
216,36.588296,-94.758430,E 9th St
246,36.628624,-94.761894,E 268 Ct/S 622 Ln
160,36.648016,-94.719847,253 Ln/S646rd
160,36.570114,-94.812963,307 Ln
216,36.631856,-94.819612,Pinoak St
185,36.445254,-94.737485,N4650 Rd/S 640 Rd/E0395 Rd
160,36.654846,-94.779047,E 250 Dr/S 613 Ln
160,36.570881,-94.814357,307 Ln
390,36.592382,-94.773194,W 4th St/S Spring St
160,36.190727,-94.833146,E0570 Rd/N4590
160,36.638819,-94.814615,E Hwy 59
185,36.645937,-94.746964,S 631 Loop/E 256 Rd
160,36.648388,-94.827425,S 585 Loop
185,36.591388,-94.759344,Chopper Ct
160,36.573961,-94.856405,E Ross Rd/S 4th St/Ross
160,36.629760,-94.763958,E 267 Ct/S 621 Pl
216,36.562265,-94.759665,S 628 Ln/E 313 Rd
185,36.486240,-94.967748,/Ampitheatre Rd
185,36.486435,-94.629738,/S 700 Rd
216,36.649538,-94.736199,/E 252 Rd
160,36.560130,-94.794009,/Dilar Dr
216,36.420090,-94.798669,S 6th St/W Krause St
246,36.432351,-94.800281,N 7th St
160,36.179644,-94.599694,US Hwy 59
160,36.607060,-94.747510,S 630 Rd/E 283 Rd
605,36.176263,-94.565944,US Hwy 412
160,36.588917,-94.860489,Heritage Ln/Privateer Dr
526,36.426087,-94.786462,/N Main St
185,36.445923,-94.779500,/N Hope St
216,36.422470,-94.798690,S 6th St/W Delaware St
445,36.573920,-94.773019,State Park Rd/S Spring St
185,36.421495,-94.800465,S 7th St/Rainbow Ave
185,36.588257,-94.765423,E 9th St/S Cherokee St
160,36.613191,-94.765530,E 278 Rd/S 620 Rd
160,36.581282,-94.765199,S Oak St/E 14th St
160,36.482717,-94.990789,Estelle St
276,36.642957,-94.793995,S 605 Ct
160,36.596758,-94.866543,E 294 Rd
246,36.591541,-94.761715,Christy
160,36.426463,-94.794603,N 3rd St
160,36.561784,-94.845064,/S Hwy 125
160,36.615464,-94.762161,/E 278
185,36.496503,-94.845118,S 580 Rd
216,36.212873,-94.936651,Cherokee Tpke
160,36.481972,-94.782026,/US Hwy 59
216,36.425935,-94.793371,/W Dial St
160,36.172751,-94.566081,/US Hwy 59
185,36.187172,-94.707964,D0581 Rd
499,36.597934,-94.753645,N 3rd St/Center St
445,36.593402,-94.774519,W 3rd St/S Center St
185,36.574076,-94.805309,Evans Dr/Cedar Ln
185,36.293957,-94.665922,/S 680
160,36.264945,-94.692852,/N Colcord Ave
216,36.425074,-94.796967,N 5th St/W Gray St
160,36.515902,-94.779732,E 346 Rd
185,36.598133,-94.770827,Davis St
216,36.423343,-94.804007,S 10th St/W Cherokee St
160,36.608003,-94.729478,/S 640 Rd
160,36.658312,-94.761623,S 630 Rd
605,36.205215,-94.779680,Tulsa Ave/State Hwy 10/US Hwy 59/US Hwy 412 Alt
160,36.612563,-94.923110,E Hwy 85A
185,36.553985,-94.765221,E 320 Rd
160,36.176124,-94.775999,/Hidden Valley Rd
305,36.596321,-94.753351,/State Hwy 10
160,36.561062,-94.917294,E 314 Rd/E0315 Rd
216,36.656024,-94.795430,S 604 Rd/E 250 Rd
185,36.265842,-94.692841,E Doughty St/N Colcord Ave
185,36.423350,-94.817068,/Cr 411
160,36.460533,-94.830262,Cr 591
160,36.657610,-94.777889,S 612 Rd
390,36.581879,-94.768941,Hazel St/E 14th St/Acorn St
160,36.495896,-94.849570,State Hwy 127
276,36.597946,-94.765496,N 3rd St/3rd St/S 620 Rd
160,36.586300,-94.804404,/Bay Crest Ave
418,36.416254,-94.809327,S Main St/S 14th St
276,36.580081,-94.780598,Ski/Wood St
390,36.581860,-94.769123,S Main St/E 14th St
160,36.571584,-94.809249,600 Rd/Rock Dr
160,36.599346,-94.822948,/S 593 Rd
160,36.575213,-94.783711,/State Park Rd
160,36.433264,-94.777007,/E Melton Dr
362,36.592940,-94.755268,E 293 Rd
216,36.605647,-94.794702,/E Hwy 59
246,36.176328,-94.592472,Cedar Dr/Red Bud Ln
185,36.437824,-94.779934,/E Monroe Ave
160,36.641888,-94.767193,S 622 Rd/S 621 Rd
160,36.611759,-94.869156,S 561 Rd
216,36.179531,-94.656995,US Hwy 59
160,36.255775,-94.692832,/S Colcord Ave
160,36.576819,-94.868577,E 304 Rd
246,36.205749,-94.940342,/N4530 Rd
276,36.590344,-94.764701,E 6th St/S Osage St
246,36.644003,-94.792737,S 605 Ct
390,36.590301,-94.773166,W 6th St/S Spring St
160,36.629492,-94.901405,/S Anna Fawn
276,36.578544,-94.799233,/Melissa St
246,36.179568,-94.641314,/US Hwy 59
160,36.214308,-94.806285,Delaware St
160,36.205520,-94.797418,Cherokee St
160,36.584523,-94.823780,S 592 Ct
160,36.648360,-94.757617,S 627 Rd/E 254 Rd
185,36.577321,-94.809272,S Quail Run Rd/E 304 Ln
334,36.592035,-94.760645,E 4th Pl/Dawn St
160,36.413378,-94.818389,Mulberry St
185,36.164680,-94.565820,/US Hwy 59
246,36.611118,-94.799141,Palmer Rd
160,36.539576,-94.741042,E 330 Loop/E 330 Rd
160,36.169940,-94.748893,Highland Rd
160,36.176875,-94.583517,Cr 727
276,36.594082,-94.752190,/E 291 Rd
216,36.619810,-94.913714,State Hwy 85A/Elm St
246,36.421102,-94.799342,S Main St/Crank St
246,36.179125,-94.797261,/County Rd
305,36.597845,-94.747622,N 3rd St/State Hwy 10
246,36.551974,-94.927983,Vintage Way
216,36.553988,-94.766663,E 320 Rd/
160,36.503926,-94.780523,/US Hwy 59
185,36.362203,-94.875505,Cr 452/Cr 570/S 570
216,36.425116,-94.788130,N Main St
160,36.481086,-94.994633,/Czeskleba
552,36.582095,-94.770862,/Abby Ln
499,36.594002,-94.778644,/W 3rd St
185,36.425228,-94.836087,S 585 Rd/E 409 Rd
216,36.179928,-94.637238,N4700 Rd
579,36.593921,-94.778442,/W 3rd St
160,36.354423,-94.838851,D0459 Rd
216,36.573998,-94.778941,Brentwood Dr/State Park Rd
160,36.161769,-94.630426,E 590 Rd
216,36.538918,-94.979542,E 330 Rd/E0330 Rd
160,36.558962,-94.923447,Cheyenne Ave/Crescent Dr
472,36.592942,-94.769289,/S Main St
276,36.653686,-94.759613,S 630 Rd
160,36.474063,-94.946591,/N 455
216,36.612463,-94.803876,E Hwy 59/63rd St
160,36.409101,-94.629918,E 420 Rd/S 700 Rd
216,36.414913,-94.809360,W Lindly St/S 14th St
160,36.179615,-94.607673,US Hwy 59
160,36.585540,-94.837097,584 Way/E 297 Ln
185,36.577595,-94.931124,Canal St/Crace Dr/E0304 Rd
160,36.621187,-94.711412,/S 655 Rd
185,36.416087,-94.806655,/W Lindly St
160,36.585332,-94.762800,E 11th St
246,36.588503,-94.773128,S Spring St
185,36.424578,-94.786269,N Hodges Ln
246,36.625270,-94.811829,Wolf Creek Dr/98th St NW
276,36.578762,-94.798805,James St
160,36.423337,-94.786333,N Hodges Ln/State Hwy 20
160,36.578266,-94.881024,S 555 Rd/E 303 Rd
246,36.592046,-94.759359,4th St/E 4th Pl/Chopper Ct
160,36.558168,-94.922058,Chickasha Ave/Cherokee Rd
160,36.558651,-94.917353,Pt Preston
185,36.480082,-94.984018,/Shore Dr
185,36.409203,-94.822396,/S Main St
160,36.656045,-94.823597,S 587 Rd/E 250 Rd
160,36.589241,-94.780504,W 7th St
160,36.580258,-94.764566,Sumac
160,36.506697,-94.937008,Pr Rd 065/Pr 125
160,36.506329,-94.933012,Mountain Ash Ave/
216,36.551195,-94.958882,Congressional/Pebble Beach
334,36.587220,-94.772482,/W 10th St
160,36.552753,-94.916963,Lavendar Ln
160,36.575107,-94.783426,Edgewood Dr/State Park Rd
160,36.420279,-94.980848,/S 504
216,36.210131,-94.779660,US Hwy 59
216,36.631511,-94.810204,Lucky Dr
160,36.631169,-94.816641,/Charles St
246,36.421498,-94.790590,S Hampton Dr
160,36.184658,-94.766241,Indian Point Ln
276,36.608645,-94.747507,S 630 Rd
216,36.577342,-94.851921,E 304/
185,36.577358,-94.850940,S Hwy 125/E 304
185,36.178567,-94.611488,/Brent Ln
160,36.585422,-94.763240,Pleasant Dr
160,36.422028,-94.766520,/Brush Creek Rd
246,36.292911,-94.666865,N4680 Rd/S 680 Rd
276,36.424184,-94.796980,N 5th St/W Carver St
185,36.495891,-94.782366,/State Hwy 127/US Hwy 59
185,36.195932,-94.779724,State Hwy 10 Scn
185,36.553817,-94.932524,E0320 Rd
160,36.615990,-94.808658,E Hwy 59
216,36.525383,-94.962148,S Coves Dr/Pheasant Cir
160,36.408805,-94.876641,E 420 Rd
185,36.644892,-94.792758,S 605 Rd/S 605 Ct
216,36.475756,-94.983442,Sunny Wood/1st St
185,36.177578,-94.583503,Beaver Springs Rd/US Hwy 59
160,36.503155,-94.815950,/State Hwy 127
160,36.557280,-94.930806,/Tradition Cir
185,36.553667,-94.968529,/Old Farm Rd
160,36.232509,-94.868957,N4565 Rd/S 570
160,36.564218,-94.779350,S 617 Loop
160,36.524951,-94.880902,E 340 Rd/S 560 Rd
160,36.439325,-94.782317,N Main St
246,36.585319,-94.766027,/E 11th St
160,36.219700,-94.793007,/E0550 Rd
246,36.570071,-94.770674,/S Main St
216,36.580388,-94.784193,/Moffatt
216,36.557494,-94.917959,/Ponca Ave
160,36.488629,-94.782284,US Hwy 59
160,36.648385,-94.757817,S 626 Rd/E 254 Rd
185,36.598042,-94.822864,S 593 Rd/E 290 Rd
160,36.490787,-94.908661,Miller Dr
160,36.426318,-94.800259,/N 7th St
216,36.207510,-94.779669,/US Hwy 59
160,36.570106,-94.808807,Rockie Dr
185,36.520724,-94.970739,/Circle Dr
160,36.502035,-94.831694,E 360/State Hwy 127
658,36.176381,-94.566398,/US Hwy 412/US Hwy 59
160,36.591329,-94.764096,E 5th Pl/S Osage St
160,36.488542,-94.791270,S 610 Rd//N4620 Rd
216,36.648593,-94.721338,254 Loop/S646rd
160,36.359453,-94.831750,Rd 4579
160,36.481159,-94.994990,Hines Point Rd/Connors Pt Rd
445,36.572615,-94.769488,/S Main St
552,36.591324,-94.774441,W 5th St/S Center St
160,36.179332,-94.637243,N4700 Rd/US Hwy 59
246,36.621022,-94.813976,E Hwy 59
334,36.428698,-94.794618,N 3rd St/W Broadway St
160,36.310221,-94.776705,S 618 Rd/US Hwy 59
390,36.580541,-94.782660,Leisure Rd
276,36.604594,-94.747496,S 630 Rd/E 285 Ct
185,36.607105,-94.792542,N 36th St/Lee St
160,36.552861,-94.916351,4540 Rd
160,36.208851,-94.799833,Voag
160,36.205181,-94.805094,Tulsa Ave/US Hwy 412 Alt
160,36.638617,-94.683555,/E 260 Rd
160,36.630479,-94.811728,NW 108th St
160,36.430565,-94.789652,E Monroe St
216,36.557500,-94.918203,Lakeview St/Ponca Ave
160,36.582802,-94.829877,E 300 Rd
160,36.597947,-94.737766,E 290 Rd
216,36.653317,-94.759338,S 630 Rd
160,36.645794,-94.692937,E 255 Rd/S 663 Rd
276,36.176344,-94.574598,US Hwy 59/Sassfrass St
160,36.641751,-94.705213,/E 258 Loop
216,36.215188,-94.975982,Cherokee Tpke
185,36.600455,-94.789876,Firebird Rd/Firebird Ln
185,36.321969,-94.720829,/E047.0 Rd
246,36.595282,-94.757077,Zarchary Dr/E 3rd St
185,36.615690,-94.863530,E 279 Rd
160,36.624065,-94.907916,State Hwy 85A
185,36.638529,-94.707136,E 260 Rd/S 655 Rd
185,36.170201,-94.771656,Bear Lake Rd/Fox Ridge Dr
160,36.211972,-94.802142,/Buchanan Ave
390,36.559706,-94.774262,/E 315 Loop
276,36.557638,-94.768277,E 318 Rd/Carmac Rd
185,36.593000,-94.750461,E 293 Rd
160,36.190724,-94.778060,E 57th St
160,36.592819,-94.861305,Port Duncan Blvd/Grand Lake Dr/Miami Dr/Vinita Cir
160,36.599830,-94.823283,/S 593 Rd
185,36.403979,-94.714095,S 654 Rd
185,36.190653,-94.795070,/W 57th St
160,36.166233,-94.744325,Canvas Back Trl
185,36.649538,-94.737999,/E 252 Rd
160,36.176332,-94.594181,Cedar Dr
185,36.179094,-94.619333,White Oak St/N4710 Rd
216,36.578685,-94.799561,Michaels St/Kelly St
185,36.562591,-94.759376,S 628 Ln
185,36.646523,-94.721045,S646rd
216,36.553746,-94.813215,/E 320 Pl
160,36.177320,-94.583504,Cr 727/Beaver Springs Rd/US Hwy 59
185,36.610157,-94.800779,E Hwy 59/Palmer Rd
160,36.605795,-94.792529,Circle Drive Pl/N 36th St
185,36.652287,-94.819410,S 590 Rd/E Hwy 59
160,36.177979,-94.689308,US Hwy 412
160,36.600174,-94.729479,/S 640 Rd
418,36.433279,-94.777796,N Melton Dr/E Melton Dr
160,36.482762,-94.989014,/Morrow Pt
160,36.583687,-94.970141,Hwy 85
418,36.595588,-94.764525,N Osage St/Osage St/1st St
246,36.614581,-94.804643,/Katie Dr/Terry Ln
185,36.586937,-94.784762,Hillcrest Dr
246,36.553988,-94.767967,E 320 Rd
185,36.430565,-94.789321,E Monroe St
160,36.537384,-94.975768,Thompson Pt/E 330 Rd
246,36.363046,-94.830099,/Rd 4579/Cr 595 Rd
160,36.542072,-94.960269,Pebble Beach
185,36.531067,-94.961963,S Coves Dr/Sage Grouse Cir
185,36.540915,-94.977437,Arrowhead Rd/Arrowhead Loop / Oak Rd
160,36.423498,-94.899279,/E0410 Rd
185,36.423173,-94.965650,State Hwy 20
160,36.597941,-94.712344,/E 290 Rd
276,36.589315,-94.773157,W 7th St/S Spring St
160,36.523734,-94.962363,Eagle Ln/S Coves Dr
160,36.462203,-94.972087,/S 510 Rd
160,36.219726,-94.815388,E0550 Rd/N4600
185,36.590260,-94.859970,Dogwood Ln
160,36.627008,-94.906535,/E 270 Rd
216,36.378842,-94.800682,460 Rd
185,36.533060,-94.976322,Lakeside Dr/S 505 Rd
160,36.600571,-94.771680,/Davis St
185,36.400792,-94.822951,US Hwy 59
160,36.586976,-94.834561,E 297 Rd/S 586 Rd
160,36.205128,-94.958248,N4520 Rd/US Hwy 412 Alt
185,36.535959,-94.965894,Blue Herron
160,36.215183,-94.979317,US Hwy 412 Alt
160,36.211949,-95.011317,/N4490 Rd
276,36.207716,-94.803945,Woods Ave/Tahlequah St
216,36.568204,-94.975735,Hwy 85/E 310 Rd
185,36.285346,-94.773436,Cr 620
334,36.627652,-94.815111,104th St NW/E Hwy 59
185,36.606836,-94.796303,Circle Dr/E Hwy 59
160,36.647476,-94.744567,S 634 Loop/S 634 Ln
185,36.179636,-94.601409,US Hwy 59/Maple St
160,36.589575,-94.864663,Privateer Dr/Oklahoma Cir
185,36.212412,-94.779647,US Hwy 59
160,36.578962,-94.851831,S Hwy 125/E 303 Rd
216,36.534665,-94.975001,S 505 Rd
160,36.209249,-94.797470,Voag/Cherokee St
246,36.293232,-94.666778,N4680 Rd/S 680
276,36.578418,-94.771923,S Broadway St/W 18th St
276,36.421155,-94.805404,S 11th St/W Washbourne St
185,36.670642,-94.981370,E 240 Rd/S Hwy 69
185,36.206551,-94.803949,Woods Ave
185,36.423566,-94.787087,/State Hwy 20
216,36.596904,-94.743616,/S 637 Rd
160,36.559803,-94.923448,Crescent Dr/Pawnee Ave
160,36.219715,-94.845949,E0550 Rd
185,36.183406,-94.777433,State Hwy 10 Scn
334,36.574962,-94.766993,Walmart Pl
160,36.625271,-94.815204,98th St NW/E Hwy 59
216,36.425061,-94.791314,W Gray St/N 1st St
246,36.544536,-94.953422,/Pt O'Woods
160,36.556324,-94.766967,Falmouth Ct
276,36.599797,-94.747490,/S 630 Rd
390,36.595775,-94.755304,State Hwy 10
418,36.573941,-94.773751,Fairview Circle Dr/State Park Rd
185,36.257823,-94.765933,US Hwy 59
305,36.590349,-94.768009,S Hazel St/E 6th St
160,36.555658,-94.927888,/Legand Pl
1278,36.577498,-94.769090,/S Main St
160,36.578992,-94.799545,Kelly St
185,36.452350,-94.780036,/E 390 Rd
160,36.541211,-94.966049,/Felts Ln
160,36.186115,-94.711705,/D0581 Rd/E 573 Rd
160,36.205191,-94.799066,Tulsa Ave/Oak St
160,36.266716,-94.692833,Kirby/N Colcord Ave
185,36.172670,-94.581323,Blackjack Ln//Fox Croft Cir
160,36.519086,-94.916712,N4537 Rd/S 540 Rd
160,36.545439,-94.957819,Marion/Pebble Beach
160,36.582937,-94.784753,Park Pl/W 13th St
185,36.179366,-94.613579,/US Hwy 59/N4714
334,36.626070,-94.815184,100th St NW/E Hwy 59
160,36.525647,-94.988417,/Hwy 85
185,36.187228,-94.707877,Old 33 Hwy/D0581 Rd/US Hwy 59
216,36.563786,-94.783229,S 616 Loop
160,36.483054,-94.921443,Eagle Dr
185,36.479503,-94.908835,/Oak Dr
160,36.403887,-94.602436,/Westside Rd
160,36.196075,-94.797221,/E 556 Rd
160,36.286369,-94.773618,US Hwy 59
185,36.211940,-94.788737,Cherokee Tpke
160,36.626821,-94.811804,102th St NW/Wolf Creek Dr
362,36.430578,-94.794643,N 3rd St/W Monroe St
185,36.554442,-94.766719,S 624 Rd/Hyannis St
216,36.603180,-94.873792,/286 Rd
185,36.586137,-94.782490,N Sycamore/Leisure Rd
160,36.641137,-94.762505,E 259 Rd/S 624 Rd
160,36.467019,-94.755468,S 630 Rd/N4640 Rd/E 380 Rd
216,36.615526,-94.918333,Broadway/E Hwy 85A
276,36.206132,-94.778376,/Welch St
216,36.588290,-94.757862,E 9th St/
185,36.515615,-94.979657,S 4505 Rd
445,36.417877,-94.804210,S 10th St/W Redbud St
246,36.416800,-94.808303,S 13th St/S Main St
160,36.638543,-94.683545,/E 260 Rd
185,36.652300,-94.762380,/E 248 Rd
160,36.531045,-94.936084,/S 525
185,36.647571,-94.743866,S 634 Loop
472,36.592941,-94.770609,/S Grand St
160,36.541125,-94.957525,Spyglass Hill
185,36.572935,-94.778900,Brentwood Dr
160,36.418934,-94.798072,W Stiver St/W Lindly St
160,36.631793,-94.898776,Moose Dr/S Deer Run Rd
160,36.654167,-94.779039,E 250 Dr/S 613 Ln
160,36.408932,-94.836297,Pritchett Rd/State Hwy 20
185,36.625373,-94.810329,Edgewater
160,36.293184,-94.780340,E 500
185,36.420089,-94.797645,W Krause St
185,36.581578,-94.873721,Prdr
160,36.544633,-94.988588,Duck Creek Blvd/Hwy 85
160,36.546439,-94.964057,Barryman Turn/Felts Ln
160,36.432361,-94.794598,N 3rd St
160,36.646551,-94.666395,S 676 Rd
418,36.573923,-94.772564,State Park Rd
185,36.448851,-94.912122,/C R 392
160,36.212277,-94.815336,/N4600
276,36.572369,-94.770728,Cozy Dr
160,36.655542,-94.903847,543 Rd
246,36.599800,-94.786804,Estates Dr/E Hwy 59
185,36.408945,-94.825045,/State Hwy 20
160,36.421593,-94.802792,S 9th St
710,36.593443,-94.776456,W 3rd St
160,36.392865,-94.796371,/460 Rd
160,36.583275,-94.744362,E 297/S 636 Rd
185,36.598016,-94.828893,Lake Breeze Rd/Lighthouse Springs Dr
160,36.591806,-94.764094,E 4th Pl
160,36.210539,-94.802494,Boundary St/N Kansas St
276,36.413431,-94.814579,S 17th St/S Main St
160,36.601203,-94.795404,/Estates Dr
185,36.582886,-94.795257,W 13th St/Dubois
160,36.179154,-94.628274,/N4705 Rd
276,36.597942,-94.765505,3rd St/N Cherokee St
334,36.589149,-94.758058,Pritchard St/E 7th St
160,36.563248,-94.647659,E 314 Trl/S 690 Rd
160,36.412594,-94.715553,State Hwy 20
160,36.653479,-94.794125,S 604 Ln
160,36.630658,-94.891348,S 550 Rd
160,36.578416,-94.916729,E 0305 Rd/S 4540 Rd
390,36.420082,-94.801532,/W Krause St
160,36.604108,-94.783734,Sunrise Blvd
185,36.414415,-94.834098,/E 416 Rd
185,36.313210,-94.777932,S 620 Rd/US Hwy 59
160,36.625221,-94.750716,E 270 Rd
160,36.561111,-94.841190,S Hwy 125/
160,36.209268,-94.805913,Main St
160,36.383651,-94.800211,460 Rd
246,36.583056,-94.766218,/E 13th St
160,36.501306,-94.845064,S 580 Rd
216,36.414295,-94.818138,S 20th St/W Boston Ave
160,36.618254,-94.815444,Cedar Oak Blvd/
658,36.591842,-94.774460,/S Center St
160,36.411930,-94.734620,State Hwy 20/Ns 464 Rd
160,36.552631,-94.928235,Legand Pl
305,36.643577,-94.793648,E 259 Rd/S 605 Rd
160,36.437823,-94.777605,/E Monroe Ave
185,36.581022,-94.822372,E 301/590 Rd
185,36.343093,-94.799721,/US Hwy 59
160,36.210313,-94.797452,Cherokee St
185,36.422216,-94.790137,S Hampton Cir/S Hampton Dr
160,36.408764,-94.867082,State Hwy 20/W 42
160,36.563846,-94.764913,Terrace Dr
160,36.554582,-94.782341,/E 319 Rd/S 615 Rd
160,36.488620,-94.791270,S 610 Rd//N4620 Rd
160,36.392579,-94.818106,US Hwy 59
160,36.576675,-94.883423,/555 Rd
160,36.451094,-94.816051,/State Hwy 127
160,36.205545,-94.800837,/Maple Ln
185,36.576429,-94.772016,/S Broadway St
246,36.597948,-94.746154,/E 290 Rd
216,36.590715,-94.757057,Cox Dr
185,36.632876,-94.818966,/Pinoak St
216,36.179094,-94.679558,US Hwy 412/S 700 Rd
216,36.417300,-94.809319,/S 14th St
216,36.582244,-94.780807,Hummingbird Ln
276,36.163024,-94.851025,Dogwood Dr/State Hwy 412A
160,36.179307,-94.646175,/US Hwy 59
160,36.644790,-94.792189,S 608 Ct
160,36.587235,-94.834555,/S 586 Rd
216,36.205219,-94.849625,US Hwy 412 Alt
185,36.592575,-94.762458,Fisher St
160,36.182927,-94.566405,S State Line Rd
246,36.482744,-94.991365,Estelle St
160,36.490683,-94.908526,Miller Dr/Petty Pl
160,36.421143,-94.809162,W Washbourne St/S 14th St
160,36.598054,-94.876807,E 290 Rd/S 559 Rd
160,36.455382,-94.780319,E 385 Rd
185,36.624148,-94.810779,Keller Rd/Edgewater Dr
160,36.582811,-94.809267,Quail Run Rd/600 Rd/E 300 Rd/W 13th St
160,36.506926,-94.937395,Pr Rd 065
185,36.540915,-94.979744,Fox Run Rd/Arrowhead Rd/Arrowhead Loop / Oak Rd
160,36.416066,-94.881791,State Hwy 20/S 559 Rd
160,36.625200,-94.701138,E 270 Rd
185,36.524526,-95.003449,/E 340 Rd
160,36.499646,-94.782304,US Hwy 59
160,36.585529,-94.782490,Leisure Ln/Leisure Rd
390,36.592422,-94.769280,W 4th St/E 4th St/S Main St
160,36.179490,-94.662073,US Hwy 59
185,36.532640,-94.773407,E 336 Ln/S 620 Rd
160,36.205189,-94.803521,/Tulsa Ave
160,36.597947,-94.741654,E 290 Rd
246,36.449163,-94.786805,Starr St/Shotpouch Dr
216,36.422482,-94.800457,S 7th St/W Delaware St
418,36.430551,-94.783396,/E Monroe St
246,36.580106,-94.779692,Lakeview/Ski
185,36.585328,-94.763572,E 11th St
160,36.391969,-94.818113,US Hwy 59
160,36.501041,-94.784140,/E 356 Pl
160,36.204480,-94.797467,Cherokee St
160,36.652728,-94.853031,S Hwy 125/E 250 Rd
185,36.594420,-94.755583,Shun Di
216,36.557268,-94.918008,Lakeview St/Lakeside St
185,36.590189,-94.860327,Hickory Pl/Dogwood Ln
160,36.623300,-94.817047,Sunset Cir
160,36.561933,-94.970724,S 4510 Rd
160,36.597947,-94.737583,/E 290 Rd/640 Rd
305,36.428690,-94.795794,N 4th St/W Broadway St
276,36.604239,-94.873449,S Hwy 125/
216,36.576765,-94.764544,S 625 Rd
160,36.597939,-94.768235,/Madison
246,36.492335,-94.854088,State Hwy 127/S 575 Rd
160,36.176115,-94.776560,State Hwy 10 Scn/Hidden Valley Rd
160,36.208956,-94.779660,/US Hwy 59
160,36.568830,-94.767754,/Lake Road 3/Mutt Mantle Ln
246,36.428590,-94.798591,/W Broadway St
185,36.246148,-94.969779,D4518 Rd
216,36.520325,-94.971329,/Circle Dr
160,36.610109,-94.802394,Orange Ln
246,36.191002,-94.712540,US Hwy 412/US Hwy 59/US Hwy 412 Alt
160,36.555690,-94.917594,Choctaw Ave/Grandview Dr
499,36.572366,-94.776725,Christmas Ln/Coon Hollow
185,36.579282,-94.823017,E 301 Pl
305,36.423337,-94.808539,W Cherokee St
216,36.210381,-94.779657,US Hwy 59
160,36.347436,-94.701799,D0463 Rd/N4660 Rd
246,36.426819,-94.795796,N 4th St/W Price St
185,36.534855,-94.965394,Boat Ramp
185,36.178962,-94.588009,/US Hwy 59
160,36.657947,-94.778024,S 612 Rd
160,36.605364,-94.867848,E 285 Rd
160,36.592179,-94.803445,Bay Shore
362,36.604680,-94.764374,E 286 Pl/S 621 Ct
160,36.584523,-94.823381,S 592 Ct
276,36.594329,-94.779286,W 3rd St/E Hwy 59/E O Daniel Pkwy
246,36.205218,-94.778863,/Tulsa Ave
185,36.570240,-94.770583,/S Main St
276,36.597949,-94.746098,E 290 Rd
160,36.582563,-94.809267,Quail Run Rd/600 Rd
216,36.210494,-94.803717,Boundary St
160,36.423566,-94.672581,/State Hwy 20
362,36.424112,-94.791307,/N 1st St
216,36.562249,-94.759179,S 628 Pl/E 313 Rd
185,36.582828,-94.803573,/Har-Ber on Ks Loop/W 13th St/Kayla St
160,36.210266,-94.806476,/Delaware St
185,36.647661,-94.743838,S 634 Loop//E 255 Ln
185,36.423355,-94.816895,/Cr 411
185,36.590268,-94.779327,W 6th St/Golf St
276,36.449151,-94.785355,Starr St/Shotpouch Dr
185,36.515325,-94.927995,E 341 Loop
160,36.474322,-94.983499,/State Hwy 28
160,36.211247,-94.779651,Cherokee Tpke/US Hwy 59
160,36.587264,-94.766660,E 10th St/S Mill St
160,36.264024,-94.698191,Wheeler/Main St
160,36.540660,-94.960995,Pebble Beach
334,36.176511,-94.578763,US Hwy 59
334,36.588206,-94.773125,Spring St
185,36.205116,-94.878292,US Hwy 412 Alt
160,36.476945,-94.782097,/US Hwy 59
160,36.572069,-94.778471,Lakewood Dr
246,36.611398,-94.868133,S 561 Rd
246,36.597948,-94.783672,E0290 Rd/N 16th St W
160,36.163246,-94.565816,US Hwy 59
216,36.596113,-94.754124,State Hwy 10
160,36.622898,-94.913068,Park Dr/Woods Dr/Beech St
160,36.563451,-94.777616,S 618 Rd
160,36.584444,-94.808293,Poplar Ln/W 11th St
185,36.579285,-94.780862,Ski/Ski St
160,36.642861,-94.708001,S 654 Loop/E 259 Loop
216,36.501768,-94.854056,S 575 Rd
160,36.598061,-94.878740,/E 290 Rd
160,36.572045,-94.927822,Grand Rio Cir/Grand Rio Dr
160,36.519377,-94.916744,N4537 Rd/E 340 Rd/E 340 Ln
246,36.433857,-94.796913,Newberry St
185,36.430984,-94.799151,NW 6th St
185,36.321963,-94.719606,/E047.0 Rd
185,36.475758,-94.982473,Sunny Wood/2nd Ave
160,36.656236,-94.903905,E 250 Rd/543 Rd
526,36.580218,-94.768138,E 16th St/Acorn St
246,36.210690,-94.803960,Woods Ave
185,36.612448,-94.735237,/E 280 Rd
216,36.524902,-94.775162,/E 340 Rd
246,36.511441,-94.987858,Lindberg Ln
160,36.652855,-94.812535,S 593 Ln
246,36.212270,-94.930441,Cherokee Tpke
160,36.261450,-94.691621,S Larmon St
185,36.585318,-94.767921,S Hazel St/E 11th St
160,36.627978,-94.963372,S 510 Rd
160,36.437823,-94.777487,/E Monroe Ave
216,36.557488,-94.917899,Ponca Ave/Lakeside St
160,36.595741,-94.866437,/E 294 Rd
160,36.190881,-94.583356,Beaver//E 570 Rd
160,36.211799,-94.806454,/Delaware St
160,36.585933,-94.836820,E 297 Ln
160,36.474984,-94.916755,/Hickory Rd
185,36.576472,-94.800748,/Shasten St
160,36.585705,-94.837579,E 297 Ln
216,36.582577,-94.780818,/Hummingbird Ln
160,36.559244,-94.815194,E 317 Rd
160,36.576615,-94.927427,/Burbin St
160,36.170119,-94.749702,Blue Sky Trl
160,36.632021,-94.782611,S 613 Rd
160,36.574450,-94.776029,State Park Rd
552,36.593504,-94.764551,Osage St/E 3rd St
160,36.618252,-94.815249,Cedar Oak Blvd/
160,36.419201,-94.798663,S 6th St/W Ingram St
160,36.598283,-94.822870,S 593 Rd
160,36.646458,-94.693355,/E 254 Rd
160,36.628228,-94.769522,S 620 Rd
160,36.451860,-94.785136,Shotpouch Dr
305,36.606882,-94.793960,Circle Drive Pl/Circle Dr
160,36.510382,-94.844990,E 350 Rd/S 580 Rd
160,36.437640,-94.978018,E 400 Rd
185,36.642648,-94.765747,/S 621 Rd
160,36.470754,-94.755454,/N4640 Rd
160,36.558681,-94.776152,E 316 Ln
160,36.576506,-94.854520,E Lee Rd/Lakeside Dr
185,36.423134,-94.964359,/State Hwy 20
305,36.588225,-94.771831,S Broadway St/Broadway/W 9th St
160,36.556549,-94.917918,Lakeside St/Osage
160,36.506007,-94.983806,Lakeside Dr
160,36.589091,-94.861051,Dogwood Ln/Privateer Dr
160,36.643700,-94.706588,/S 655 Rd
160,36.423488,-94.898597,E 410 Rd/E0410 Rd/N 455
160,36.540914,-94.976446,/Arrowhead Rd
246,36.589407,-94.765455,S Cherokee St/E 7th St
185,36.578556,-94.795207,Red Fox Ct
276,36.597952,-94.745510,/E 290 Rd
160,36.624063,-94.652954,S 680 Rd
185,36.423655,-94.787409,/State Hwy 20
185,36.285761,-94.773017,US Hwy 59
160,36.568409,-94.929786,Pike St/Ross Dr
160,36.412744,-94.819508,S 21st St/Mulberry St
160,36.584523,-94.823943,S 592 Ct/S 592 Ln
160,36.196015,-94.797420,Cherokee St
216,36.611372,-94.868505,S 561 Rd
216,36.557489,-94.919012,Ponca Ave/Miami Ave
160,36.628425,-94.963374,E 269 Rd/S 510 Rd
246,36.420816,-94.789908,S Hampton Cir
499,36.431320,-94.782386,/N Main St
160,36.563435,-94.776296,S 618 Ln/S 619 Ln
160,36.553910,-94.785562,E 320 Rd/
160,36.586574,-94.806132,Ash St/Alpine Dr
160,36.229213,-94.815411,E0540 Rd/N4600
160,36.432041,-94.793516,NW 2nd St
305,36.597942,-94.755329,N 3rd St
305,36.632254,-94.818822,113 St
160,36.634572,-94.813471,Ballerina Cir/NW 124th St/Ballerina Dr
185,36.632666,-94.814905,113th St/E Hwy 59
185,36.599708,-94.756500,S 626 Rd
160,36.212402,-94.807062,Echo Forest Rd
160,36.540024,-94.970705,Bill Hardesty Ln
185,36.553985,-94.765553,E 320 Rd/S 624 Rd
185,36.474239,-94.916570,/Ridge Crest Dr
276,36.564770,-94.782549,S 616 Loop/S616 Loop/S616
160,36.519076,-94.916431,E 340 Rd
160,36.576991,-94.867950,/E 304 Rd
160,36.423563,-94.671273,/State Hwy 20
185,36.556167,-94.769905,E 319 Rd
160,36.505894,-94.983879,/Lakeside Dr
160,36.597988,-94.812601,E 290 Rd
334,36.419237,-94.802277,S 9th St
160,36.564105,-94.775244,S 619 Rd
185,36.414184,-94.882601,E 416 Rd/S 559 Rd/N4559 Rd
185,36.257068,-94.692836,S Colcord Ave
