Estimated daily crossings,Latitude,Longitude,Name
305,44.789736,-93.502276,Swift St/Shakopee Ave E
185,44.652265,-93.644251,Aberdeen Ave/Old Highway 169 Blvd
160,44.616350,-93.335975,230th St E/Grandview Way
160,44.549634,-93.587450,6th St NW/6th Ave NW
160,44.762365,-93.473101,Rock Ridge Cir/Pembina Ln
276,44.775509,-93.378423,State Hwy 13/126th St W
216,44.794872,-93.533252,Shumway St S
246,44.771642,-93.410346,Grove Dr
334,44.748395,-93.376590,Rhode Island Ave
276,44.679298,-93.639718,/Quaker Ave
305,44.733092,-93.383732,Cedarview Cir
334,44.667948,-93.634465,Creek Ln S
185,44.788321,-93.504868,10th Ave E/Sibley St S
216,44.750813,-93.375089,Shoreside Cir/Connelly Pkwy
334,44.778250,-93.475633,Sharon Pkwy
160,44.708402,-93.456627,Butternut Cir NW
185,44.747724,-93.399653,141st St/Kensington Ave NE
526,44.745406,-93.339846,Natchez Ct/W 142 1/2 St
185,44.788338,-93.543579,Madison St S/10th Ave W
216,44.795969,-93.542507,Adams St S
276,44.743556,-93.341245,Ottawa Ave/W 144th St
472,44.798805,-93.527441,Co St Aid Hwy 69/Holmes St N
185,44.733410,-93.355468,Valley View Dr/Hillside Trl
160,44.569286,-93.283449,Skyline Cir/263rd St E
216,44.547984,-93.568514,4th St NE/Lyndale Ave N
334,44.740473,-93.368171,/Lockslie Trl
216,44.747598,-93.341727,W 141st St/Princeton Ave
246,44.711503,-93.403813,Victoria Curv SE
185,44.727504,-93.490432,Marschall Rd/Howard Lake Rd NW
216,44.733667,-93.329305,Hanrehan Trl/Oakcrest Ct
334,44.622951,-93.762391,S Elm St/E Main St/N Elm St
185,44.617861,-93.316585,Deer Haven Ct
185,44.764949,-93.408881,Moraine Cir
276,44.749403,-93.344575,140th St W/Quentin Ave S
160,44.608887,-93.724561,Harvest Way/Bluff Ct
216,44.765133,-93.395081,Preserve Ct
185,44.681464,-93.338620,185th St E/Natchez Ave/Cleary Lake Ave
185,44.714020,-93.406080,Parkview Circle S E
305,44.622797,-93.748668,Johnson Memorial Dr/225th St W/Main St E
160,44.629608,-93.440249,Prdr/Panama Ave
526,44.742607,-93.341454,Ottawa Ave/W 145th St
185,44.792547,-93.532658,Shumway St S/6th Ave W
305,44.674862,-93.625812,Broadway St N
216,44.772366,-93.497345,French Trace Ave/Brittany Dr
276,44.703265,-93.444061,Simpkins Dr SW/170th St SW
185,44.668377,-93.627583,3rd St E
160,44.772458,-93.508206,Highpoint Curve/Highpoint Curv
160,44.781483,-93.493597,Granite Dr
246,44.735730,-93.340571,River Wood Cir
605,44.666627,-93.638822,Seville Dr/Eldorado Dr
216,44.780235,-93.529737,Applegate Ln/Vierling Dr W
185,44.722273,-93.400553,Timberview St SE/Hidden Oaks Cir SE
246,44.665148,-93.629105,Riverside Ln/Sunset Dr
185,44.686010,-93.343053,Oak Hill Ln
216,44.783086,-93.531479,Jeff St/Westwind Ave
160,44.562646,-93.337667,Evergreen Trl/Fairway Hill Dr
185,44.758277,-93.426675,Henning Cir NE
418,44.772368,-93.480485,Philipp Dr/18th Ave E
160,44.603474,-93.749017,Hickory Blvd
246,44.771804,-93.378881,Eagle Creek Pkwy/State Hwy 13/128th St W
305,44.657053,-93.675271,Delaware Ave/Johnson Memorial Dr
246,44.771518,-93.495876,Faribault St
499,44.717341,-93.419012,St Paul Ave/160th St SE
334,44.732605,-93.371927,149th Pl/Pinto Ln
160,44.738920,-93.414087,Pine Rd NE
334,44.564626,-93.326728,Main St/Drew Ave
1355,44.765761,-93.578346,Johnson Memorial Dr/Chestnut Blvd
736,44.659356,-93.638937,Marlane Cir/Hillside Dr
185,44.723771,-93.421320,Stefan Cir SE/Rutledge St SE
246,44.731311,-93.439527,Eagle Creek Ave NE
216,44.781221,-93.546739,Presidential Ln
185,44.776989,-93.423058,Cambridge Rd/Windsor Dr S
216,44.757047,-93.400190,Wildwood Cir/Wildwood Dr
246,44.688917,-93.500966,Langford Ave/Country Trl E/Marschall Rd
445,44.724754,-93.450251,154th St NW
362,44.682409,-93.641452,Bradbury Cir/Chatum Ln
276,44.594587,-93.298064,I- 35/245th St E
276,44.659987,-93.610481,W 200th St/Twin Oak Cir
160,44.782524,-93.560714,/Bonnevista Dr
305,44.780689,-93.423271,Windsor Dr
160,44.703669,-93.452542,Willow Beach Trl SW/Sycamore Trl SW
185,44.795528,-93.424246,Co Rd 101
246,44.739936,-93.388920,Glendale Ave SE
185,44.721806,-93.448357,Island View Rd NW
160,44.765341,-93.478067,Baneberry Cir
216,44.745571,-93.382317,Timothy Ave
160,44.707442,-93.379347,167th St E/Texas Ave
246,44.750232,-93.586270,/Johnson Memorial Dr
305,44.785017,-93.530625,Hennes Ave
246,44.726058,-93.454303,Wild Horse Cir/Crane Ct NW
736,44.740482,-93.378274,Sumter Ave S
710,44.775167,-93.413886,Co Rd 18
160,44.652563,-93.501193,E 205th St/Langford Way
216,44.793047,-93.517158,7th Ave E/Market St S
216,44.766103,-93.429392,Pike Lake Rd
185,44.761410,-93.356579,Alabama Ave S/W 134th St
526,44.775157,-93.487540,England Way/Queen Ave/King Ave
276,44.568935,-93.351762,Seurer St/Overlook St
185,44.774416,-93.425178,Whitehall Rd/Windsor Dr S
160,44.714310,-93.409551,Bounty St SE/Crossandra St SE
216,44.747905,-93.389124,Boone Ave/Ridgewood Ln
246,44.783563,-93.559635,115th St W/Frontage Rd
216,44.768735,-93.489368,Cardinal Dr/Mathias Rd
362,44.703795,-93.460128,Spring Lake Rd SW
216,44.774193,-93.518857,Liberty Cir/Liberty Cir Pvt
185,44.737624,-93.371174,147th Ct
246,44.752963,-93.358208,Colorado Ave S/139th St W
390,44.732313,-93.370964,Chestnut Ln
160,44.695506,-93.424405,Lone Pine Ct/Mushtown Rd
390,44.761762,-93.484003,Omega Dr/Molina St
390,44.798961,-93.515117,Dakota St S/2nd Ave E
160,44.772697,-93.506371,Highpoint Curve
216,44.793106,-93.528331,6th Ave W/Atwood St S
334,44.754986,-93.395872,Carriage Hill Rd
160,44.551126,-93.579457,7th St NW/1st Ave NW
334,44.781189,-93.519076,Monarch St/Homestead St
160,44.683398,-93.354581,Eagle Creek Ave
216,44.749988,-93.359177,Dakota St S/Dakota Ave/Loftus Ln
185,44.787766,-93.448787,11th Ave E/11th Ave
334,44.649134,-93.643306,Bridle Creek Dr/Firethorne Trl
216,44.722857,-93.413365,Lemley Cir SE
185,44.738574,-93.389291,Oakland Beach Ave/Oakland Beach Ave SE
762,44.618426,-93.759486,S Ash St/Johnson Memorial Dr
362,44.791771,-93.404023,Shakopee Byp/Crest Ave
334,44.773338,-93.483639,Wyndam Ct/Wyndam Dr
185,44.762575,-93.491247,Ponds Way/Ponds Ct
216,44.783863,-93.495227,Murphy Ct
246,44.766428,-93.429817,134th St/Pike Lake Rd/Eagle Creek Blvd
160,44.650499,-93.633484,Waterford Way
185,44.726635,-93.454290,Crane Ct NW
216,44.677538,-93.630073,North Ct
185,44.712433,-93.480323,Berens Ct NW
216,44.783205,-93.511011,Sage Ln/Aster Ln
160,44.652562,-93.499483,Langford Ave/E 205th St
160,44.604257,-93.768124,Meridian Ave/E Century St/W Century St
246,44.790070,-93.521565,Sommerville St S/Shakopee Ave E
216,44.721354,-93.409594,Woodside Rd SE/Santee Cir SE
334,44.780094,-93.525400,Whitney Ave/Bluestem Ave
305,44.776981,-93.522923,Appleblossom Ln/Lewis St S
185,44.745739,-93.399951,Cedarwood St NE/Meadow Ave NE
246,44.778473,-93.371003,State Hwy 13
246,44.750243,-93.586554,/Johnson Memorial Dr
631,44.668800,-93.631712,Wood St N/3rd St W
185,44.615019,-93.758146,Shannon Cir
160,44.767707,-93.483694,Tiflawn Ct/Omega Dr
160,44.618861,-93.777143,W Park St/S Buffalo St
160,44.746297,-93.452850,White Diamond Rd NW
276,44.761226,-93.505293,E Co Rd 78/Marschall Rd/Co Rd 78
216,44.747575,-93.398374,Kings Ct/141st St
216,44.705067,-93.414741,Crimson Ct SE/Blind Lake Trl SE
160,44.796115,-93.492352,Woodside Ct
526,44.654415,-93.635684,Olympic Hills Cir/Olympic Hills Ct
185,44.703398,-93.458775,Creekview Cir SW
334,44.782212,-93.437646,Wakefield Cir
185,44.667220,-93.620717,/E 2nd St
216,44.799470,-93.512382,Naumkeag St S/2nd Ave E
472,44.787138,-93.410134,Shakopee Byp/Stagecoach Rd
160,44.656238,-93.457092,202nd Ct E
160,44.727310,-93.385089,152nd Pl/Aquila Ave S
362,44.798329,-93.399216,Shakopee Byp/US Hwy 169
305,44.700045,-93.411789,Wilderness Cir SE/Wilderness Trl SE
216,44.609489,-93.746729,Morningside Way
1252,44.781878,-93.508212,Heather St/Vierling Dr E
185,44.701011,-93.431489,Pondview Trl SE
305,44.735280,-93.375840,Sumter Ave
216,44.700205,-93.398843,Revere Way
160,44.605853,-93.737574,Mallard Ln
185,44.766117,-93.495491,Alden Ave
305,44.765896,-93.355657,130th St Ln/Alabama Ave/McQuiston Ct
334,44.764812,-93.330105,Glenhurst Ct
418,44.738551,-93.388578,Glendale Ave SE/Rustic Rd SE/Oakland Beach Ave
185,44.669345,-93.625336,4th St E
246,44.768155,-93.492756,Pheasant Run St/Thrush St
185,44.681909,-93.642601,Bradbury Cir
185,44.736598,-93.421775,Beach St NE
160,44.613824,-93.768139,S Meridian St/Johnson Memorial Dr
526,44.742607,-93.374207,/Quebec Ave/W 144th St
160,44.726167,-93.423814,Red Oaks Rd
305,44.724975,-93.442365,Majestic Ln NW
526,44.732345,-93.475319,Dakota Pkwy
216,44.676016,-93.629732,Scott Lane Dr/Valley Green Park
658,44.714594,-93.422877,Dakota St SE/Hastings Ave SE
160,44.736801,-93.499396,Marschall Rd/Norton Dr
418,44.724923,-93.405501,State Hwy 13
185,44.543818,-93.400469,Jonquil Ave/30th St W
276,44.761698,-93.470526,Molina St
216,44.740732,-93.411620,Amblewood Dr NE/Carriage Hill Rd NE
216,44.605523,-93.782711,Johnson Memorial Dr
216,44.615120,-93.779002,Horizon Ct
472,44.782659,-93.463498,Shakopee Byp/Canterbury Rd To Nb Hwy169
216,44.607427,-93.770133,Cobblestone Ln/Ivy Hills Rd
362,44.760815,-93.377761,Dan Patch Dr/132nd St
445,44.741542,-93.461951,Fox Run NW/Fox Trl NW
276,44.587445,-93.297603,I- 35
216,44.663855,-93.500054,Butterfly Ln
472,44.725497,-93.403087,Timber Trl SE/Fish Point Rd SE/Omega Trl SE
305,44.700486,-93.415131,Wilderness Cir/Wilderness Trl SE
185,44.782361,-93.396405,13th Ave E/Hillsboro Ave
334,44.799325,-93.520986,Fillmore St S/Fillmore St N/1st Ave E
1589,44.742162,-93.378622,/S Park Dr
216,44.733845,-93.467148,Pheasant Run Ct NW
160,44.757162,-93.574860,Steve Dr/Ann Dr
246,44.572993,-93.361837,260th St E
418,44.796962,-93.523375,Sommerville St S
276,44.740980,-93.403428,Birchwood Ave NE/Shady Beach Trl NE
216,44.606547,-93.766189,S Chestnut St
246,44.741317,-93.468778,Waterfall Ct NW
160,44.763679,-93.329286,Glenhurst Ave
185,44.723332,-93.425815,Red Oaks Rd/Rutledge St SE/Red Oaks Rd SE
160,44.674580,-93.419646,Mushtown Rd/190th St E
710,44.746430,-93.328704,Egan Dr/Glenhurst Ave
762,44.707966,-93.427583,State Hwy 13
334,44.733480,-93.348510,River Oak Dr/River Oak Ct/Bridgewater Dr
160,44.785871,-93.495262,Austin St/Austin Ct
552,44.714815,-93.423958,Main Ave SE/Dakota St SE
305,44.800026,-93.515376,Dakota St/Dakota St S/1st Ave E
362,44.573078,-93.353769,Webster St/Main St
334,44.673848,-93.627513,Johnson Memorial Dr
246,44.721488,-93.411529,Flagstaff Cir SE
160,44.780263,-93.535785,Veirling Dr/Vierling Dr
160,44.783316,-93.493581,Murphy Ave/Village Dr/Heritage Dr
246,44.756417,-93.389342,Boone Ave/137th St W
362,44.742466,-93.405590,Aspen Ave NE
362,44.798763,-93.398827,US Hwy 169
246,44.742606,-93.340436,Natchez Ave/W 145th St
305,44.724643,-93.445190,154th St NW/Foxtail Trl NW/Drake Ave NW
305,44.678836,-93.621267,Johnson Memorial Dr/Broadway St N
216,44.764954,-93.469645,Canterbury Rd
246,44.746797,-93.450333,140th St NW/McKenna Rd NW
334,44.701029,-93.408493,Rivr Birch Pl
334,44.553575,-93.567811,Bavaria Ln
185,44.717524,-93.452933,Artic Cir NW/Northwood Rd NW
185,44.664558,-93.631711,Jurgens Dr/Juergens St
216,44.737118,-93.353167,Yosemite Ave S/Lone Oak Dr
160,44.627601,-93.766705,N Chestnut St/E Beaver St
246,44.781979,-93.517950,Mint Cir
552,44.797765,-93.525051,Lewis St S/2nd Ave E
160,44.796600,-93.494449,Ash St/Spruce St
160,44.757712,-93.574652,Ann Cir
216,44.704660,-93.404306,Industrial Cir S/Credit River Rd SE
160,44.780984,-93.532250,Fireside Ct
526,44.745195,-93.333654,River Bend Pl/Joppa Ave S
216,44.648767,-93.643306,Bridle Creek Dr/Prospect Pointe Rd
276,44.797295,-93.536810,1st Ave W/Clay St N
160,44.752770,-93.398297,138th Ct
216,44.785700,-93.496916,Davis Ct
362,44.758319,-93.583493,133rd St W/Johnson Memorial Dr
788,44.798741,-93.525273,Lewis St S/1st Ave E
160,44.726143,-93.423866,Red Oaks Rd/Red Oaks Rd SE
216,44.778420,-93.353009,Xenwood Ave/Frontage Rd
185,44.759062,-93.338009,W 135th St/Glendale Rd
185,44.768005,-93.500174,Sarazin St/Mooers Ave
160,44.684735,-93.471780,Newport Ave
305,44.737182,-93.453892,White Tail Ridge/Wilds Vw NW
390,44.715479,-93.414283,Bounty St SE/Franklin Trl SE
276,44.766866,-93.350765,Vernon Ave
216,44.757468,-93.388692,/Carriage Hill Rd/Carriage Hill Dr
160,44.758252,-93.399948,135th St/Wildwood Dr
185,44.717244,-93.379323,Texas Ave
246,44.728544,-93.454883,Wood Duck Trl NW/Wilds Pkwy NW
305,44.774322,-93.487519,England Way/Queen Ave/King Ave
185,44.756792,-93.451368,Brewer Dr NW/Walter St
185,44.790122,-93.514295,Dakota St S/Shakopee Ave E
160,44.665832,-93.390352,Bernard Ave
160,44.789942,-93.555738,Chaparral Ave/3rd Ave
185,44.659578,-93.444747,200th St E/Prdr
334,44.654944,-93.636110,Olympic Hills Cir/Hope Ave
362,44.762325,-93.348994,Vernon Ct/Vernon Ave
305,44.652308,-93.634845,Hope Ave
185,44.770430,-93.417336,Switchgrass Ct/Crossings Blvd/Switchgrass Ln
276,44.709906,-93.415120,Credit River Rd/Credit River Rd SE
160,44.704066,-93.411749,Fish Point Rd
710,44.798887,-93.508667,Marschall Rd/3rd Ave E
362,44.764008,-93.333522,W 132nd St/Joppa Ave S
160,44.674154,-93.371776,Credit River Blvd/190th St E
160,44.627165,-93.766677,E Forest St/N Chestnut St
185,44.736202,-93.423705,Beach St NE/Rosewood Rd NE
160,44.698411,-93.434490,174th St E/Panama Ave
160,44.666775,-93.631712,Wood St S/1st St W
305,44.797180,-93.529391,Atwood St S/2nd Ave W
305,44.772161,-93.409919,Grove Dr
305,44.728679,-93.399693,Flandrau Cir SE
160,44.572873,-93.616167,260th St W
185,44.743779,-93.400316,Shady Beach Trl NE
276,44.772359,-93.481875,Wyndam Ct/18th Ave E
305,44.765647,-93.480572,Fountain Dr/Staghorn Dr
445,44.666334,-93.628934,1st St W/1st St E/S Varner St/Sunset Dr
160,44.612259,-93.298159,Logan Way
472,44.720817,-93.438177,Eagle Creek Ave NE/Grainwood Cir NE
160,44.630565,-93.482266,Vergus Ave/E 220th St
579,44.777885,-93.559501,Shakopee Byp/Old Brick Yard Rd
305,44.764742,-93.359206,/Dakota Ave S/132nd St
160,44.699863,-93.428781,Overlook Dr SE/Toronto Ave SE
216,44.675779,-93.628699,Valley Green Park/Oak Cir
246,44.781464,-93.545472,Parkview Ter
160,44.639015,-93.358969,Covered Bridge Rd
334,44.734318,-93.356830,N View Ln/Hillside Trl
390,44.746552,-93.399017,Egan Dr
185,44.788309,-93.514368,10th Ave E/Dakota St S
160,44.761954,-93.509829,Danita Cir
216,44.792592,-93.492275,Meridian Dr
499,44.741461,-93.340684,S Park Ct/S Park Dr
185,44.710753,-93.476891,Bandel Pass NW/Belmont Ave NW
216,44.757169,-93.445926,Dogwood Ln/Tinta Ln
160,44.666689,-93.460184,Fairlawn Ave/195th St E
526,44.543575,-93.578586,Main St W
246,44.757991,-93.349945,136th St W/Webster Ave
160,44.718808,-93.450280,Island Cir NW/Island View Rd NW
362,44.602651,-93.787778,Belle Plaine Trl/Johnson Memorial Dr
418,44.799158,-93.522417,Spencer St S/1st Ave E
160,44.605873,-93.369725,Highview Ln
160,44.792003,-93.515697,8th Ave E/Minnesota St S
185,44.761389,-93.328730,Glenhurst Ave
185,44.641105,-93.328714,Frontier Ln/France Blvd
246,44.625197,-93.778495,N Cherry St/W State St
246,44.715822,-93.419040,Oak St SE/St Paul Ave
246,44.715643,-93.490268,161st St E/Marschall Rd
362,44.738030,-93.351322,Oak View Ct/Oconnell Ave
160,44.725045,-93.464697,154th St NW/Orion Rd NW
160,44.777475,-93.540574,/Marystown Rd
305,44.706784,-93.465812,Shoreline Blvd/Howard Lake Rd NW
1123,44.713380,-93.422875,Eagle Creek Ave SE/Hwy 13
185,44.733085,-93.580832,Minnesota Valley Bluff Dr/W 150th St
788,44.778988,-93.469568,Dean Lakes Blvd/Eagle Creek Blvd/Canterbury Rd
160,44.600192,-93.798513,Johnson Memorial Dr/German Rd
710,44.618502,-93.759775,Commerce Dr E
185,44.613631,-93.748886,Lindsey Ln/Scott Ln
160,44.795978,-93.530518,Scott St S/3rd Ave W
246,44.702598,-93.404240,Graystone Ct
499,44.747957,-93.332251,141st St W
246,44.790645,-93.410557,Co Hwy 101/Crest Ave
185,44.563680,-93.334775,Oak St/Whispering Hills Ln
305,44.733641,-93.376677,Sumter Ave S/Crimson Ln
246,44.663841,-93.635482,Sunset Dr
246,44.798285,-93.520721,Fillmore St S
276,44.735928,-93.348624,River Wood Dr/Oakwood Pl
246,44.702711,-93.399743,Credit River Rd/Eagle Creek Ave/Revere Way
160,44.729595,-93.401534,Indian Ridge Cir SE
390,44.734270,-93.454362,Timberwolf Trl NW/Timberwolf Cir NW
246,44.669986,-93.641491,Johnson Memorial Dr
216,44.660054,-93.611931,W 200th St/Sand Creek Dr/Sand Creek Blvd
216,44.778955,-93.350454,State Hwy 13
305,44.661238,-93.638185,/Sunset Dr
160,44.782747,-93.486455,Emerald Ln E/Jasper Rd
185,44.769433,-93.516429,Westchester Ln/Wstchester Ave/Westchester Ave
216,44.779576,-93.457557,Bulrush Blvd/Savanna Dr
246,44.763374,-93.376970,Taylor Dr
246,44.568906,-93.345204,Seurer Ct
276,44.733556,-93.371979,Pinto Ln
160,44.652489,-93.505988,Parkfield Ave/E 205th St
246,44.757955,-93.356361,W 135th St/Alabama Ave S
472,44.735079,-93.346962,River Oak Pl/Dufferin Dr
160,44.714992,-93.390890,St Francis Ln/Sue Ann Ln
185,44.672440,-93.633395,Syndicate St/Hwy 169/Johnson Memorial Dr
216,44.772947,-93.343827,Quentin Ave
185,44.784164,-93.349761,Vernon Ave
185,44.722858,-93.409785,State Hwy 13
499,44.752226,-93.389402,Boone Ave
160,44.746632,-93.463423,Wilds Path NW/140th St NW
160,44.695622,-93.459672,Sunray Ave SW/Sunray Cir SW
246,44.644846,-93.707332,Johnson Memorial Dr
185,44.784668,-93.491849,Hauer Trl
160,44.570192,-93.343135,Jean Way/Francis Ln/Francis Ct
185,44.711096,-93.462834,Tahinka Pl NW
865,44.799744,-93.509028,Marschall Rd
445,44.545052,-93.568420,Lyndale Ave N/1st St NE
305,44.559953,-93.580196,History Ct NW/Music St NW
160,44.683079,-93.453509,Yorkshire Ave
246,44.708522,-93.426383,Anna Trl SE/State Hwy 13
160,44.764858,-93.379570,132 St/State Hwy 13
246,44.789391,-93.490896,Jeffery Allen Dr
390,44.663252,-93.636537,Crestview Cir/Sunset Dr
185,44.759176,-93.378943,Dan Patch Ct
185,44.772294,-93.509568,Havenview Dr
276,44.734035,-93.353341,River Oak Dr/Credit View Dr
160,44.743176,-93.364700,Featherstone Dr/Featherstone Trl
160,44.737270,-93.419615,Beach St NE
216,44.545056,-93.565589,Sunset Ave N/1st St NE
216,44.611189,-93.744580,E Orchard St/Green Acre Ct
276,44.544842,-93.587670,1st St NW/6th Ave NW
305,44.778727,-93.375558,State Hwy 13/Rhode Island Ave
160,44.703215,-93.411369,Fawn Ct SE
185,44.634982,-93.343810,Dundee Dr
185,44.661415,-93.382240,Broadview Dr/Texas Ave
216,44.749986,-93.358968,Dakota Ave/Loftus Ln
160,44.768012,-93.403692,Preserve Ct/Preserve Trl
305,44.712608,-93.415229,Franklin Cir SE/Summer St SE
334,44.744543,-93.340507,143rd Ct
185,44.763928,-93.338894,Glendale Rd/W 132nd St
305,44.672174,-93.635115,Johnson Memorial Dr
160,44.778003,-93.368847,State Hwy 13
160,44.669437,-93.627742,4th St E/Rice St
185,44.646531,-93.644165,Aberdeen Ave
185,44.778005,-93.531473,McIntosh Ct/McIntosh Cir
499,44.716023,-93.405200,Wren Ct SE
246,44.684604,-93.357600,Eagle Creek Ave
526,44.747292,-93.389387,/Boone Ave
160,44.627180,-93.768184,W Beaver St/E Forest St/N Meridian St/W Forest St
185,44.734239,-93.334560,River Xing
160,44.754945,-93.502676,Leavitt Woods Ln/Chateau Ave
334,44.746555,-93.399436,Egan Dr/140th St NE
631,44.773739,-93.506953,Greenwood Ct/17th Ave E
246,44.546521,-93.300089,I- 35
246,44.746527,-93.393980,Conroy St NE/Egan Dr
160,44.567035,-93.353771,Aaron Dr/Zane Ave
160,44.777191,-93.441590,Oxford Rd S/Ashbourne Cir
390,44.779149,-93.339946,State Hwy 13/Ottawa Ave
736,44.749904,-93.379678,State Hwy 13/Connelly Pkwy
160,44.636796,-93.440304,Panama Ave
246,44.734293,-93.393826,Estate Ave SE
276,44.735623,-93.354975,Meadowood Dr/Dufferin Dr
334,44.740634,-93.352297,Yosemite Ave S/O'Connell Rd/Oconnell Ave
216,44.764415,-93.483509,Omega Dr/Clary Ct
185,44.608566,-93.748439,Lindsey Ln/Sunrise Ln
305,44.773131,-93.510453,Elmwood Ave
185,44.728286,-93.460597,Dakota Trl S/Dakota Trl E
160,44.569350,-93.343162,Francis Ln
246,44.564605,-93.328085,Main St/Elm St
160,44.660339,-93.468868,199th St E/Erin Ave
246,44.610404,-93.758330,E Orchard St/Orchard Cir
362,44.549507,-93.561639,Highview Dr NE/Ironwood Ave
216,44.708854,-93.432907,Creekside Cir SE
160,44.721422,-93.376542,S Allen Blvd
305,44.719115,-93.432618,Bass St SE/West Ave SE
160,44.701512,-93.388463,Johanna Dr
160,44.543648,-93.511917,Teale Ave/280th St E
160,44.543883,-93.383330,30th St W
276,44.771398,-93.389635,Creek Way
390,44.724926,-93.468422,154th St NW/154th St W/Scott County 83
305,44.737375,-93.338242,River Crossing Ct/River Xing
185,44.771453,-93.508913,Olive Rd/Weston Ln
1252,44.731228,-93.471158,Dakota Trl NW
445,44.799520,-93.525436,Co St Aid Hwy 101/Lewis St N/Co St Aid Hwy 69
160,44.752118,-93.397644,138th Ct/138th St W
185,44.725619,-93.409580,Candy Cove Trl SE/Manor Dr
276,44.703727,-93.434425,/Panama Ave/170th St SW
160,44.753512,-93.395406,138th St W
246,44.735364,-93.439609,Eagle Creek Ave NE/Jeffers Pass NW/Coachman Ln NE
185,44.722434,-93.410580,State Hwy 13
865,44.731187,-93.469618,Scott County 83/Dakota Trl NW
390,44.796038,-93.450385,Valley Park Dr S/Co Hwy 101/Co Rd 101
216,44.723221,-93.424256,Lakeview Cir SE/Rutledge St SE
362,44.672085,-93.635069,Hwy 169/Johnson Memorial Dr
216,44.696079,-93.452616,Skinner St SW/Sunray Blvd SW
185,44.750679,-93.360846,Edgewood Ave/140th St W
579,44.781074,-93.503696,Ramsey St/Vierling Dr E
160,44.572378,-93.359414,Mac St/Wagner Way
185,44.610422,-93.759664,S Ash St/E Orchard St
305,44.715098,-93.425395,Erie Ave SE/Dakota St SE
185,44.736291,-93.361514,147 St/Hampshire Ave S/147th St W
185,44.687002,-93.318404,Judicial Rd
160,44.780981,-93.540933,Vierling Dr/Adams St S
185,44.780214,-93.412545,Cord18 To Cord101/Co Rd 18
160,44.734951,-93.435309,Carriage Ct NE
334,44.792821,-93.491449,Alysheba Rd/Alysheba Ct
305,44.741699,-93.468603,Waterfall Way NW/Waterfall Ct NW
334,44.716055,-93.406820,Crossandra St SE/Mallard Way SE
216,44.732166,-93.435011,Appaloosa Trl NE/Hidden Pond Trl NE
246,44.621349,-93.753271,Poplar St/E Prairie St
418,44.725575,-93.450868,Wilderness Ridge Rd NW/Wilds Pkwy NW
185,44.751083,-93.397157,Woodridge Cir/Woodridge Way
246,44.771349,-93.509702,Evergreen Ln/Olive Rd
160,44.707245,-93.463116,Center Rd SW/Northwood Rd NW
185,44.753854,-93.356881,Brunswick Ave S/138th St W
185,44.789323,-93.500964,Miller St S/Shakopee Ave E
160,44.800216,-93.537753,Clay St N
472,44.746552,-93.338839,Natchez Ave/Egan Dr
160,44.782583,-93.398516,13th Ave E
160,44.791005,-93.490621,Affirmed Dr/Flamingo Dr
160,44.623509,-93.290552,Pinto Ln/225th St E
185,44.616197,-93.444484,230th St E
185,44.761915,-93.581499,130th St W/Johnson Memorial Dr
246,44.633009,-93.730193,Old Highway 169 Blvd/Johnson Memorial Dr
185,44.624003,-93.760892,N Linden St/E Church St
185,44.735490,-93.435363,Carriage Ct NE/Coachman Ln NE
185,44.546979,-93.582523,3rd St NW
185,44.786471,-93.428490,70th St
445,44.798917,-93.523911,1st Ave E
246,44.733138,-93.372184,149th Ln/Oregon Ave S
160,44.766195,-93.399070,Creek Ridge Ln
362,44.798441,-93.398816,Hwy 169
334,44.716929,-93.457258,Shady Cove Pt
185,44.726528,-93.396559,153rd St W
246,44.542994,-93.849666,280th St W/Johnson Memorial Dr
276,44.712856,-93.406266,Meadowview Ct SE/Fish Point Rd
216,44.740852,-93.483964,Wacipi Dr/Dakota Pkwy
160,44.591909,-93.440330,Panama Ave/Miller View Rd
185,44.664820,-93.631016,Nolden Ln/Sunset Dr
160,44.670178,-93.355763,Eagleview Ln/Credit River Blvd
185,44.703016,-93.455753,170th St SW/Sunset Trl SW
216,44.763992,-93.332325,Inglewood Ave/W 132nd St
160,44.762290,-93.514585,Cortland Cir
334,44.602513,-93.787507,Belle Plaine Trl/Johnson Memorial Dr
160,44.623530,-93.303177,Logan Ave/225th St E
276,44.661191,-93.636213,Cedar Lane Dr/Cedar Lane Cir
216,44.623531,-93.298005,I- 35/225th St E
305,44.719014,-93.435739,Eagle Creek Ave SE
216,44.775432,-93.495867,Hummingbird St
160,44.747581,-93.345343,141st St W
216,44.623532,-93.298363,I- 35/225th St E
246,44.756845,-93.449858,Walter St/Brewer Dr
305,44.623001,-93.769744,N Willow St/W Main St/S Willow St
246,44.739990,-93.346947,S Park Cir
246,44.758149,-93.384534,Carriage Hill Alcove
216,44.792065,-93.414301,/Stagecoach Rd
185,44.741981,-93.529665,Moonlight Dr
216,44.692795,-93.616041,Valley View Dr
216,44.751318,-93.334795,Glendale Trl
305,44.782291,-93.392148,/Co Hwy 101/Co Rd 101
160,44.781246,-93.559828,Old Brick Yard Rd
160,44.714208,-93.404232,Parkview Dr SE
362,44.653603,-93.635676,Old Highway 169 Blvd/Hope Ave
276,44.587460,-93.297598,I- 35
276,44.790681,-93.409874,Sb Hwy169 To Cord101/Co Rd 101
472,44.714038,-93.419055,St Paul Ave
185,44.572507,-93.583985,W 260th St/Helena Blvd/260th St W
160,44.744524,-93.362690,Chadwick Ct
305,44.799681,-93.518134,Market St N/Market St S/1st Ave E
390,44.781039,-93.476351,Tyrone Dr S/Eagle Creek Blvd
160,44.653550,-93.622824,O'Day Dr/Green Ash Ct
160,44.717190,-93.371785,Creekwood Dr
246,44.695255,-93.452545,Sunray Blvd SW/Thorton Dr SW
160,44.622920,-93.759437,S Ash St/N Ash St/E Main St
160,44.723618,-93.473974,154th St W
185,44.610512,-93.768099,S Meridian St/E Orchard St
216,44.795363,-93.518731,Main St S
276,44.772393,-93.409853,Grove Dr/Grove Pl
246,44.765203,-93.338223,Glendale Rd/W 131 1/2 St
445,44.724594,-93.442354,154th St NW/Majestic Ln NW
160,44.696525,-93.426354,Mushtown Rd/Ridgewood Ct SE
160,44.672316,-93.631781,/Wood St N
246,44.731570,-93.339009,Hanrehan Lake Blvd/Clearwater Cir
305,44.715243,-93.417648,Jordan Ave SE
160,44.550104,-93.582776,7th St NW
472,44.543545,-93.565016,Main St E
160,44.766343,-93.353374,W 131st Street Cir
276,44.742906,-93.470832,Brookmere Blvd NW
185,44.716448,-93.422173,Kop Pkwy/Main Ave SE
160,44.566933,-93.341267,Judy Ct/Shelly Ln/Shelly Ct
216,44.730346,-93.341608,Hanrehan Lake Blvd/Bridgewater Dr
276,44.708497,-93.446135,Inguadona Beach Cir SW/Pershing St SW
160,44.784309,-93.508789,Pioneer Ct
160,44.688621,-93.468573,180th St E
160,44.703424,-93.436538,170th St SE/170th St SW
160,44.782323,-93.549334,Harrison St S/Presidential Ln
418,44.740674,-93.381677,Boudin St NE/Commerce Ave
216,44.543523,-93.558336,E Main St
334,44.774975,-93.494724,Hamel Ln/McGregor Ln
160,44.795423,-93.450575,Broadband Blvd/Valley Park Dr S/Valley Industrial Blvd N
246,44.752039,-93.452431,Thunderbird Cir NW/Thunderbird Cir
185,44.779335,-93.554932,River Rock Ln/Boulder Pointe
160,44.664824,-93.630561,Juergens St/Sunset Dr
526,44.616395,-93.763612,E Raven St/S Walnut St/Johnson Memorial Dr
216,44.620858,-93.766784,S Chestnut St/E Prairie St
160,44.598112,-93.595722,Helena Blvd
579,44.777000,-93.463131,Bulrush Blvd/Savanna Dr
362,44.736959,-93.358191,Credit View Dr/N Ridge Dr/Dufferin Dr
631,44.746473,-93.389714,Greenway Ave NE/Boone Ave/Egan Dr
390,44.753856,-93.360390,Edgewood Ave/Connelly Pkwy
305,44.776343,-93.540756,Shakopee Byp/Marystown Rd
160,44.790095,-93.504851,Sibley St S/Shakopee Ave E
276,44.749211,-93.352952,Yosemite Ave S/W 141st St
185,44.761911,-93.338141,Natchez Ave/W 133rd St
160,44.616212,-93.440289,230th St E/Panama Ave
160,44.570351,-93.353771,Webster St/Paul St
445,44.752753,-93.360358,/Edgewood Ave
185,44.553258,-93.324694,Pinehurst Dr/Pinehurst Ct
334,44.784316,-93.408751,/Stagecoach Rd
216,44.667340,-93.627567,2nd St E
276,44.713162,-93.400160,Crossandra St SE/Parkview Dr SE
216,44.734553,-93.459462,Wilds Ln NW/Wilds Pkwy NW
160,44.559014,-93.338553,Natchez Ave
276,44.721958,-93.410715,Candy Cove Trl SE/Flagstaff Cir SE
160,44.752949,-93.356899,Brunswick Ave S/139th St W
305,44.753840,-93.355558,Alabama Ave S/138th St W
160,44.568276,-93.353976,Zane Ave
216,44.785967,-93.530643,Apgar St S/Thomas Ave
216,44.771304,-93.532905,Gotlund Ln/Caspian Ln
390,44.752415,-93.360542,/Edgewood Ave
185,44.609595,-93.744400,Green Acre Ct
334,44.782311,-93.509860,Kennsington Dr/Vierling Dr E
390,44.715624,-93.432668,Eagle Creek Ave SE/West Ave SE
160,44.662463,-93.635334,Eischens Ln
160,44.668140,-93.647912,Acorn Way
276,44.789347,-93.406693,Shakopee Byp/Co Rd 101
160,44.630549,-93.751281,Provence Ln
246,44.776290,-93.341837,W 125th St/Princeton Ave
185,44.543627,-93.523218,280th St W/Hwy 13
246,44.776295,-93.340015,W 125th St/Ottawa Ave
552,44.784396,-93.419470,Shakopee Byp/Cord18 To Sb Hwy169
445,44.730299,-93.451758,Wood Duck Trl NW/Wood Duck Dr NW
418,44.774646,-93.511029,Providence Dr/Countryside Dr
160,44.700641,-93.455738,Spruce Trl SW/Sunset Trl SW
160,44.630713,-93.293275,Pillsbury Ave
216,44.717310,-93.398875,160th St SE
276,44.723952,-93.452154,Spring Glen Cir
362,44.777338,-93.336404,Lynn Ave/W 124th St
305,44.774934,-93.495071,McGregor Ln
362,44.777877,-93.520171,Co Rd 79/Sand St
246,44.749946,-93.376653,Walters Way
160,44.740900,-93.429059,Robin Rd NE/Pike Lake Trl NE
160,44.764874,-93.379848,132 St
276,44.795285,-93.428956,Co Rd 101
160,44.703216,-93.520854,Baseline Ave/170th St W/170th St E
185,44.759953,-93.382636,Carriage Hill Rd
305,44.741029,-93.338751,Natchez Cir
499,44.778409,-93.340027,Ottawa Ave/123rd St W
185,44.744892,-93.404289,Cedarwood Trl NE/Cedarwood Ct NE
276,44.631076,-93.733321,Old Highway 169 Blvd/Johnson Memorial Dr
246,44.733388,-93.375543,Ponds Edge Path/Crimson Ln
216,44.760737,-93.335573,Lynn Ave/W 134th St
216,44.735318,-93.353375,River Oak Dr/Dufferin Dr
362,44.731434,-93.438334,Raspberry Ridge Rd NE/Hidden Pond Trl NE
390,44.656405,-93.630009,Old Highway 169 Blvd
216,44.783164,-93.563204,Bonnevista Ter/Dardanelle Ln/Cedar Ter
334,44.772840,-93.494336,Dublin Ln
305,44.785266,-93.506148,Prairie Ct S
246,44.763231,-93.349002,132nd Ln/Vernon Ave
390,44.792061,-93.507931,Marschall Rd/Garden Ln
305,44.761124,-93.520268,130th St W/Townline Ave/E Co Rd 78
246,44.544828,-93.579247,1st St NW/1st Ave NW
160,44.729615,-93.466699,Dakota Trl NW
160,44.735261,-93.364946,Idaho Ave S/148th St W
1982,44.742259,-93.380102,State Hwy 13/S Park Dr/Commerce Ave
185,44.738062,-93.340464,Natchez Pl
185,44.775239,-93.341826,Princeton Ave/126th St W
334,44.735987,-93.347517,River Wood Dr/Oakborough Dr
160,44.547764,-93.573590,A/4th St NE
334,44.620213,-93.756584,Commerce Dr E/Laredo St S
216,44.779672,-93.551848,Boulder Pointe/Polk St S
276,44.679436,-93.620828,Broadway St/Johnson Memorial Dr
305,44.706863,-93.442376,Westbury Ave SW
160,44.768068,-93.338783,132nd St/Bohn Ct/McColl Dr
246,44.726585,-93.457093,Wood Duck Trl
216,44.621013,-93.756488,Commerce Dr/E Prairie St
246,44.665287,-93.617036,Lydia Rd/Colony Ct
305,44.625141,-93.772630,N Grove St/W State St
160,44.757954,-93.369185,Maryland Ct
305,44.731819,-93.341348,Clearwater Cir
216,44.727596,-93.489334,Howard Lake Rd/Howard Lake Rd NW
362,44.790210,-93.492531,Alysheba Rd/Cascade Dr
305,44.727139,-93.460656,Bobcat Trl NW
579,44.781478,-93.481673,Balsam Trl
160,44.629491,-93.471000,Newport Ave/E 220th St
472,44.665930,-93.628974,Water St/Sunset Dr
160,44.616190,-93.582692,230th St W/Xanadu Ave
185,44.602258,-93.378879,240th St E/Texas Ave
305,44.741001,-93.460421,Fox Hollow NW
185,44.652289,-93.648617,Prospect Pointe Rd/Old Highway 169 Blvd
160,44.701160,-93.433242,Maple Ln
305,44.776756,-93.431369,Sussex Ln/Hartley Blvd S
216,44.771738,-93.339399,Ottawa Ave/128th St
216,44.773551,-93.526786,Ardennes Ave/Dongola Ln
185,44.737325,-93.434864,Canter Ln NE/Chestnut Ln NE
160,44.794798,-93.531726,4th Ave W/Apgar St S
1615,44.800784,-93.509257,Marschall Rd/1st Ave E
216,44.566205,-93.573290,A
305,44.758278,-93.344749,Quentin Ave S/Quentin Ct
185,44.732785,-93.541797,W 150th St/Marystown Rd
185,44.683120,-93.639774,Quaker Ave
305,44.764179,-93.358133,W 132nd St
160,44.695601,-93.466836,Rustic Hill Dr/Sunrise Ct
418,44.709031,-93.440635,Spring Ave SW/Pershing St SW
246,44.731416,-93.439534,Eagle Creek Ave NE/Eagle Creek Cir NW/Raspberry Ridge Rd NE
160,44.753204,-93.395993,138th St W/Woodhill Dr
160,44.695703,-93.460102,Fairlawn Ave
185,44.630516,-93.440263,220th St E/Panama Ave
185,44.576998,-93.838931,Johnson Way/Johnson Memorial Dr
160,44.670126,-93.609212,Morlock Dr
526,44.745432,-93.356880,W 143rd St
160,44.766042,-93.581261,Jackson Hts
160,44.774487,-93.495858,Mockingbird Ave/Hummingbird St
362,44.730299,-93.436204,Appaloosa Trl NE/Raspberry Ridge Rd NE
160,44.776130,-93.359110,Dakota Ave/125th St
185,44.606412,-93.402439,Prdr
160,44.698199,-93.382394,Flemming Cir/Flemming Rd
276,44.745505,-93.429428,Pike Lake Trl NE/Fountain Hills Dr NE
185,44.752188,-93.367689,Connelly Ct
305,44.737004,-93.360346,Dakota Ave
216,44.764239,-93.506245,/Knoll Dr
334,44.733293,-93.374458,Arbor Ln/Crimson Ln
216,44.732019,-93.372180,Oregon Ave S/150th St W
246,44.777848,-93.422909,Windsor Dr
160,44.797486,-93.535366,1st Ave W/Pierce St N
579,44.745678,-93.328820,143rd St W
160,44.766825,-93.520244,Hillwood Dr/Townline Ave/126th St W
684,44.741690,-93.382304,Denese St NE/Timothy Ave NE
334,44.749490,-93.329474,140th St W
160,44.663520,-93.480546,Vergus Ave
160,44.543731,-93.605329,280th St W/Naylor Ave
185,44.737437,-93.474529,Sioux Trl NW
160,44.749890,-93.394162,Woodridge Path
1123,44.762692,-93.483924,Omega Dr/Asarum Ct
334,44.755787,-93.393490,/137th St W
499,44.798650,-93.527475,1st Ave W/Holmes St N/Holmes St S/1st Ave E
362,44.667299,-93.623292,2nd St E/East St/E 2nd St
185,44.561375,-93.354110,Zane Ave
276,44.674481,-93.624955,Broadway St N To Nb Hwy169/
246,44.786480,-93.515092,11th Ave E/Minnesota St S
216,44.677728,-93.637895,9th St
1407,44.765886,-93.578566,Johnson Memorial Dr/Chestnut Blvd
246,44.664453,-93.618259,Homestead Dr
246,44.798243,-93.520708,Fillmore St S/2nd Ave E
160,44.608085,-93.748411,Lindsey Ln
276,44.763336,-93.377159,Taylor Dr
185,44.695077,-93.453667,Grist St SW/Thorton Dr SW
160,44.576679,-93.358795,Dakota Ave
334,44.760141,-93.379699,State Hwy 13
276,44.713856,-93.437206,Lakeside Ave SE/Colorado St SE
216,44.781471,-93.487805,Vierling Dr E
445,44.708961,-93.426002,State Hwy 13
160,44.730885,-93.407509,Maves Trl
246,44.746430,-93.387626,Egan Dr
160,44.758776,-93.449366,McKenna Rd NW
160,44.729627,-93.403738,Indian Ridge Cir SE
160,44.753847,-93.454549,Lois Ln
246,44.773756,-93.487500,17th Ave E/England Way
305,44.627482,-93.750878,Deer Creek Pkwy/River Wood Ln
246,44.773256,-93.426175,Windsor Cir
390,44.743772,-93.469727,Wilds Path NW/Scott County 83
185,44.543073,-93.876696,280th St W
160,44.623298,-93.522066,Baseline Blvd
160,44.795245,-93.398697,River Rd/Crest Ave
305,44.625041,-93.759359,N Ash St/E State St
1459,44.746486,-93.333415,Glendale Rd/Egan Dr/Joppa Ave S
185,44.740801,-93.384213,Lois Ave NE/Boudin St NE
160,44.777429,-93.491543,Chartreux Ave/Balinese St
185,44.703034,-93.452526,Sycamore Trl SW/170th St SW
499,44.616538,-93.763756,Commerce Dr E/S Walnut St
334,44.788293,-93.521568,10th Ave E/Sommerville St S
305,44.714811,-93.434685,Lakeside Ave SE/Birch Ave SE
788,44.618657,-93.759488,Commerce Dr E/S Ash St
160,44.671006,-93.402942,193rd St E/Meadowlark Ln
216,44.550097,-93.584626,7th St NW/4th Ave NW
160,44.677095,-93.639948,Quaker Ave
334,44.764760,-93.356037,Alabama Ave/132nd St
160,44.752585,-93.371163,Maryland Ave/Connelly Pkwy
160,44.560959,-93.579149,Speech St NW/English Ave NW
185,44.802987,-93.528374,/Co Hwy 101
276,44.713101,-93.391723,Suel Cir/Suel Ln
216,44.775222,-93.382967,126th St W/Creek View Ave
160,44.624046,-93.765265,E Church St/N Cedar St
160,44.729625,-93.403486,Indian Ridge Cir SE
185,44.782596,-93.400624,13th Ave E/Private Dr
160,44.543712,-93.460744,280th St E
185,44.560809,-93.334973,Cambridge Ln/Glenborough Dr
736,44.782234,-93.469669,Shakopee Byp/Canterbury Rd
276,44.795357,-93.500450,Sarazin St/Greenway Ave
160,44.771148,-93.498973,Anton Ct/Anton Way
605,44.777515,-93.511598,/Shakopee Byp
216,44.753080,-93.379319,Ventura Pl/W 138th St
160,44.703207,-93.432921,Mushtown Rd
160,44.617859,-93.302056,Ridge Cir
160,44.666266,-93.371765,196th St E
185,44.777860,-93.365188,State Hwy 13
160,44.612268,-93.750480,Lacy Ct
276,44.767364,-93.353205,130th St Ln/Yosemite Ave S
891,44.774695,-93.490913,Chadum Ln/Dublin Trl
334,44.676070,-93.640975,7th St/Quaker Ave/Ervin Industrial Blvd
160,44.556105,-93.579298,1st Ave NW
185,44.731780,-93.391463,150th/150th St SE
185,44.667155,-93.340998,Credit River Blvd/195th St E
185,44.741825,-93.412856,Fisher Ave NE
276,44.740019,-93.379887,145st NW
216,44.756644,-93.542043,Oak Cir S
246,44.740854,-93.368182,/Lockslie Trl
305,44.669450,-93.632949,Mertens St/4th St W
276,44.746110,-93.387608,Harbor View Cir NE
276,44.769135,-93.511574,Countryside Dr/Westchester Ave/Valley View Rd E
334,44.756290,-93.333540,Lynn Cir
579,44.801781,-93.510192,Bluff Ave E/Marschall Rd
160,44.626148,-93.768181,E Court St/N Meridian St/W Court St
552,44.655904,-93.632985,Robert Rd/Stuart Dr
160,44.758859,-93.393413,Windsor Ave/136 St
276,44.764121,-93.356639,Alabama Ave S/W 132nd St
185,44.625135,-93.774106,N Eagle St/W State St
185,44.565362,-93.338757,Natchez Ave
160,44.630561,-93.542311,220th St W
216,44.651235,-93.642858,Bridle Creek Dr/Bridle Creek Bay
276,44.756215,-93.352334,W 137th St/Xenwood Ave
185,44.698736,-93.456484,Fairview Rd SW/Sunset Trl SW
160,44.543800,-93.412521,30th St W
276,44.767222,-93.331677,131st St/Glenhurst Cir
185,44.688941,-93.480724,Vergus Ave/Langford Blvd
160,44.630639,-93.674181,Delaware Ave/W 220th St/220th St W
160,44.780866,-93.540930,Vierling Dr/Adams St S
276,44.757363,-93.355997,136th St W/Alabama Ave S
185,44.608733,-93.760535,Frontier Cir
185,44.576088,-93.359278,Oriole St/James Pkwy
216,44.709790,-93.435462,Tranquility Ct/Five Hawks Ave/Priorwood St SE
185,44.732968,-93.497250,Marschall Rd/W 150th St
185,44.731159,-93.367271,Dakota Ave/150th St W
160,44.698918,-93.428791,Parkwood Dr SE/Toronto Ave SE
185,44.790158,-93.527748,Atwood St S/Shakopee Ave W
160,44.630504,-93.493373,Meadow Wood Ct/E 220th St
305,44.778628,-93.378956,Frontage Rd/13th Ave E
185,44.729378,-93.407432,Forest Cir SE
216,44.727874,-93.448912,Fox Tail Trl NW/Fox Tail Trl/Wilderness Ridge Rd NW/Fox Tail Ct
216,44.742356,-93.441673,Enclave Ct NW/Station Pl NW
160,44.667674,-93.647620,Acorn Way/Johnson Memorial Dr
246,44.568909,-93.345508,Seurer St/Wild St/Seurer Ct
160,44.544808,-93.575592,1st St NE/1st Ave NE
305,44.797619,-93.517607,Market St S/3rd Ave E
246,44.778551,-93.441270,Ashbourne Cir
305,44.736950,-93.358938,Overlook Dr/Dufferin Dr
276,44.778957,-93.349843,State Hwy 13/Vernon Ave
160,44.591900,-93.441496,Medowview Ln/Miller View Rd
499,44.739951,-93.340483,147th St W/147th Ct
246,44.795302,-93.536300,3rd Ave W
631,44.777233,-93.511155,Shakopee Byp/Nb Hwy169 To Marschall Rd S
160,44.673173,-93.336198,Greenview Ct
185,44.623985,-93.759396,N Ash St/E Church St
246,44.673145,-93.633628,Syndicate St
160,44.669420,-93.629011,N Varner St/4th St E/4th St W/Varner St
276,44.576365,-93.298443,I- 35/
246,44.734106,-93.345610,River Oak Dr
185,44.622866,-93.750351,Old Highway 169 Blvd/Co Hwy 6
160,44.641696,-93.336836,Monterey Trl
246,44.799868,-93.516756,1st Ave E/Minnesota St S
160,44.738160,-93.378927,146th Terrance
185,44.624068,-93.769708,N Willow St/W Church St
216,44.703156,-93.439810,Turner Dr SW/170th St SW
160,44.613588,-93.746187,Henry Cir/Scott Ln
246,44.737765,-93.430185,Chestnut Ln NE/Coachman Ln NE
216,44.616676,-93.759490,S Ash St/E Raven St
160,44.613382,-93.759581,Butler Dr/S Ash St
246,44.667329,-93.613412,Minnesota Valley Electric Dr/Country Trl W/E 2nd St
362,44.750707,-93.383920,West Virginia Ct
710,44.746000,-93.380788,Commerce Ave
160,44.695712,-93.466427,Rustic Hill Dr/Rustic Hill Ct
185,44.709795,-93.432049,Priorwood St SE
216,44.722939,-93.465931,Woodland Cir NW
185,44.731837,-93.394340,Green Oaks Trl SE/150th St SE
160,44.768031,-93.336121,Lynn Ave/132nd St/Glendale Rd/McColl Dr
246,44.756728,-93.345538,136th St W
246,44.664738,-93.632747,Adams Ln/Sunset Dr
185,44.669846,-93.331283,Overland Dr/Towering Oaks Trl
160,44.630626,-93.421056,Mushtown Rd/220th St E/McMahon Ln
276,44.765423,-93.328726,Glenhurst Ave
216,44.732537,-93.433181,Appaloosa Trl NE/Manitou Rd NE
160,44.729707,-93.460646,Dakota Trl N/Dakota Trl E
216,44.669424,-93.627576,4th St E
334,44.732222,-93.407490,Storms Cir SE
160,44.674693,-93.638156,Creek Ln/Creek Ln N
305,44.740366,-93.469731,Stonecrest Path NW/Wilds Pkwy NW/Scott County 83
216,44.651203,-93.392342,Boone Ave
160,44.720258,-93.453486,Artic Cir NW
246,44.770232,-93.341762,Forest Glen Ct
160,44.658895,-93.391455,Texas Ave
418,44.775961,-93.490066,Downing Ave
216,44.729011,-93.435829,Lords St NE/Manitou Rd NE
160,44.750614,-93.398284,Woodridge Ct
185,44.544814,-93.577478,Central Ave N/1st St NW/1st St NE
160,44.727131,-93.403149,Shannon Ln/Shannon Trl SE
276,44.705398,-93.406313,Adelmann St/Credit River Rd SE
276,44.721304,-93.403786,Huron St SE/Fish Point Rd SE
305,44.772710,-93.510242,Highpoint Curv
216,44.800827,-93.516983,Bluff Ave E/Minnesota St S
472,44.717675,-93.420294,Main Ave SE/160th St SE
472,44.657444,-93.631930,Chad Cir/Hillside Ave
362,44.800385,-93.512615,Naumkeag St N/Naumkeag St S/1st Ave E
216,44.605775,-93.739571,Ridge Ln/Farmer Ridge Trl
185,44.753856,-93.537786,Rosewood Cir
160,44.768045,-93.337110,132nd St
334,44.775885,-93.409051,Riverside Dr/Grove Cir
276,44.750019,-93.369142,Maryland Ave/W 140th St/Louisiana Ave
185,44.569916,-93.361468,Park St
185,44.550947,-93.577706,7th St NW/Central Ave N/7th St NE
216,44.788285,-93.513587,10th Ave E/Dakota St S
334,44.792906,-93.529809,6th Ave W/Scott St S
185,44.665141,-93.627517,Rice St S
185,44.710137,-93.439374,Roanoke St SE/Dutch Ave SE
390,44.763782,-93.487003,Ormond Dr/Crane St
305,44.558029,-93.584227,Helena Blvd/4th Ave NW/Twelfth St NW
246,44.676387,-93.638759,Hooper Ct/8th St
605,44.740489,-93.340493,147th Ct
160,44.732725,-93.437195,Hidden Pond Trl NE
185,44.769021,-93.483442,Omega Dr/Glacier Dr
246,44.542993,-93.849761,280th St W
160,44.674241,-93.394253,/Highview Ct/190th St E
216,44.756449,-93.388292,Ashcroft Rd
362,44.739389,-93.433080,Surrey Ln NE/Carriage Hills Pkwy
362,44.758914,-93.373617,Nevada Ave
1200,44.717436,-93.429754,Cambridge Cir
216,44.703665,-93.448503,Walnut Ave SW/Basswood Cir SW
579,44.675446,-93.631592,Valley Green Park/Spruce Cir/Meadow Ln
246,44.649489,-93.627760,Meadow Wood Ct/Helena Blvd
216,44.759384,-93.336233,Lynn Ave/W 135th St
246,44.766048,-93.500173,Sarazin St/Alden Ave
185,44.789686,-93.556213,Chaparral Ave
185,44.744197,-93.403104,Cedarwood Trl NE/Aspen Ave NE
160,44.567228,-93.360636,Cedric Ln/Rowena Curve
788,44.778954,-93.343936,State Hwy 13/Quentin Ave
362,44.549846,-93.577634,Central Ave N
390,44.647559,-93.641909,Rose Ct
334,44.792601,-93.496770,Parkway Ave
276,44.731927,-93.339898,Clearwater Ct/Clearwater Cir
246,44.734364,-93.352136,Dufferin Ct
160,44.704527,-93.430647,Tower St SE/Duluth Ave SE
305,44.789146,-93.406973,Shakopee Byp/Co Hwy 101
246,44.635629,-93.724906,Johnson Memorial Dr/Park Blvd
185,44.611173,-93.743286,E Orchard St/Farmers Way
216,44.780752,-93.566079,Elwood Ter/Cedar Ter
185,44.550989,-93.566587,Forest Green Cir/7th St NE
216,44.759090,-93.332347,Inglewood Ave/Inglewood Cir
160,44.763171,-93.358278,Brunswick Ave S
160,44.612264,-93.753503,Meadow Pl/Meadow Ct/Maple St
305,44.775296,-93.492517,Hamilton Ln
710,44.798545,-93.526752,Holmes St S/1st Ave E
185,44.573083,-93.351338,Church St/Main St
605,44.730685,-93.469606,Scott County 83
160,44.778536,-93.526134,Whitney Ave/Orchard Pkwy/Braeburn Dr
185,44.718868,-93.453226,Fremont St NW
246,44.665299,-93.617729,Colony Ct
390,44.775735,-93.561359,Old Brick Yard Rd/Colburn Dr
552,44.543564,-93.569861,Pershing Ave N/Main St E
839,44.775844,-93.500185,Sarazin St/Downing Ave
276,44.757445,-93.354572,Zarthan Ave S
276,44.698683,-93.445384,Turner Dr SW
216,44.726231,-93.460423,Black Bear Cir NW/Bobcat Trl NW
276,44.746564,-93.399897,Kensington Ave NE/140th St NE/Meadow Ave NE
185,44.729297,-93.433468,Fairbanks Trl NE/Lords St NE
185,44.759319,-93.348981,W 135th St/Vernon Ave
160,44.609884,-93.743028,Farmers Way
185,44.546063,-93.563371,2nd St NE/Rising Moon Aly
185,44.776667,-93.592282,Chestnut Blvd
160,44.713077,-93.390097,Suel Ln/St Francis Ln
185,44.741973,-93.463425,Fox Trl NW
160,44.784277,-93.497518,Sapphire Ln/Heritage Dr
276,44.744588,-93.374336,Lake Ridge Dr/Quebec Ave
160,44.703146,-93.384279,170th St E/John Deere Ln
216,44.698304,-93.385568,Flemming Ln/Flemming Rd
246,44.568909,-93.339489,Holly Ct/Aaron Dr
418,44.666306,-93.627541,1st St E
305,44.752673,-93.451849,Otherday Cir NW
246,44.735865,-93.474878,Community Center Dr NW
418,44.774428,-93.418033,Stratford Cir/Stratford Dr
305,44.747240,-93.343099,Providence Ln
185,44.749283,-93.388580,Connelly Pl
445,44.708867,-93.441896,Dunkirk Ave SW/Pershing St SW
216,44.783233,-93.553545,Taylor St S/12th Ave W
185,44.761856,-93.381280,/133 St/Virginia Ave
185,44.690970,-93.424488,Lone Pine Ct
246,44.708671,-93.429731,Anna Trl SE/Duluth Ave SE
334,44.744712,-93.340414,143rd St W/143rd Ct
276,44.761425,-93.348986,W 133rd St/Vernon Ave
246,44.715504,-93.403554,Crossandra Cir SE
276,44.776286,-93.422509,Berkshire Ct/Windsor Dr S/Berkshire Ln
246,44.767568,-93.482673,Tiflawn Ct
160,44.652374,-93.628407,Helena Blvd
305,44.747878,-93.386322,Ridgewood Ln
216,44.750879,-93.344557,139th St W/Quentin Ave S
216,44.751376,-93.505168,Marschall Rd/Blue Heron Trl
185,44.769703,-93.343669,Quentin Ave/Forest Glen Ct
276,44.551896,-93.569407,Gooseberry Ln
658,44.782124,-93.503687,Dalles Dr/Ramsey St
216,44.752013,-93.360592,/Edgewood Ave
160,44.743882,-93.362777,Chadwick Ct/Chadwick Dr
305,44.770919,-93.412726,Crossings Blvd/Penstemon Ln
1046,44.778419,-93.336410,Lynn Ave/123rd St W
276,44.799907,-93.525560,Lewis St N/Co Hwy 101
185,44.723814,-93.418914,Rutledge St SE/Ridgemont Ave SE
246,44.671836,-93.630414,6th St/West St N/6th St W
216,44.724055,-93.450864,Glynwater Trl NW/Spring Glen Cir
216,44.758291,-93.345494,Quentin Ct
185,44.740416,-93.373238,Hunters Ln/Kestrel Dr
813,44.727947,-93.438787,Nautica Cir NE
579,44.739527,-93.376305,Quebec Ave
185,44.796020,-93.443645,Park Dr
658,44.738858,-93.433064,Surrey Ln NE
216,44.752792,-93.507423,Wood Duck Trl
334,44.775248,-93.339397,Ottawa Ave/126th St W
305,44.765312,-93.338477,W 131 1/2 St
276,44.659936,-93.628153,Broadway St S
185,44.559551,-93.336147,Weston Ct
160,44.557967,-93.581669,Twelfth St NW/Science Ave NW
216,44.773057,-93.507626,Crestview St/Elmwood Ave
305,44.743418,-93.466690,Badger Cir NW/Cougar Path NW
160,44.778707,-93.550311,Vierling Dr/Stone Meadow Blvd
160,44.791025,-93.512486,Eastview Cir/Prairie St S
160,44.790085,-93.510361,Naumkeag St S/Shakopee Ave E
160,44.745351,-93.347081,143rd St W/Toledo Ave S
499,44.711000,-93.416281,Credit River Rd SE
334,44.780757,-93.497335,Sapphire Ln/Vierling Dr E
276,44.764767,-93.353447,Yosemite Ave S/132nd St
216,44.743820,-93.432251,Fountain Hills Ct NE
276,44.735351,-93.437422,Bridle Ridge Trl NE/Coachman Ln NE
334,44.709450,-93.443932,Roosevelt St SW/Ramsey Ave SW
246,44.669441,-93.630389,4th St W/West St N
216,44.781925,-93.433923,Hartley Blvd N/Falmouth Curve/Danbury Curv
246,44.775937,-93.389001,Boone Ave/125th St W
160,44.681421,-93.532824,Redwing Ave/Country Trl W
160,44.657948,-93.468839,Erin Ave
160,44.794921,-93.420567,/Co Hwy 101/Co Rd 101
305,44.664819,-93.613314,Minnesota Valley Electric Dr
160,44.619264,-93.743310,Hickory Blvd
390,44.708842,-93.424231,/Franklin Trl SE
813,44.740911,-93.380744,State Hwy 13/Hwy 13
216,44.768156,-93.476756,Hackberry Ln/Thrush St
160,44.766370,-93.391466,Meadow Ln/Preserve Trl
276,44.801353,-93.512865,Naumkeag St N/Bluff Ave E
160,44.704653,-93.379420,169th St E/Texas Ave
185,44.668361,-93.623026,Kreuser Rd
185,44.611547,-93.768118,S Meridian St
160,44.752778,-93.373381,Nevada Cir
185,44.672945,-93.383921,Margaret Ln
216,44.790164,-93.529223,Scott St S/Shakopee Ave W
246,44.732808,-93.388360,Glascow Trl SE
160,44.713541,-93.480253,Edgewood Dr NW/Berens Ct NW
334,44.792436,-93.542601,5th Ave W
160,44.705596,-93.412324,Cottonwood Ln SE/Blind Lake Trl SE/Fish Point Rd
305,44.774777,-93.482054,Philipp Dr/17th Ave E
246,44.788567,-93.404832,Co Rd 101
216,44.760581,-93.353411,Yosemite Ave S/W 134th St
216,44.751449,-93.367800,Kentucky Ave
160,44.645318,-93.439863,Hickory Trl/Panama Ave
246,44.751262,-93.382336,139th St W/Virginia Ave
472,44.671330,-93.635741,Triangle Ln N/Creek Ln N
276,44.775271,-93.332778,Inglewood Ave/126th St W
160,44.688693,-93.471691,180th St E
246,44.624965,-93.745134,Johnson Memorial Dr
418,44.740236,-93.470598,Stonecrest Path NW/Brookmere Blvd NW
276,44.737561,-93.432693,Surrey Ln NE/Chestnut Ln NE
160,44.543971,-93.315025,Thomas Ave
160,44.549873,-93.579449,1st Ave NW
246,44.770436,-93.493802,Groveland Way/Quail Dr
160,44.692428,-93.450076,Wedgewood Ln
246,44.791884,-93.529540,Scott St S/7th Ave W
216,44.732263,-93.435399,Black Oak Rd NE/Hidden Pond Trl NE
160,44.589567,-93.515285,Cedar Point Rd/E Cedar Lake Dr
362,44.710547,-93.424196,State Hwy 13
276,44.657235,-93.675274,Delaware Ave/Johnson Memorial Dr
160,44.543539,-93.551042,E Main St
185,44.721769,-93.557210,157th St W
160,44.696198,-93.450921,Skinner St SW
499,44.775488,-93.491453,Bedford Ln
160,44.543089,-93.879923,280th St W
362,44.741484,-93.349305,Woodbridge Ln/S Park Dr
160,44.630444,-93.419991,Prdr/McMahon Ln
305,44.774477,-93.517761,Liberty Cir/Liberty St
472,44.785915,-93.413503,Shakopee Byp/Co Rd 18
445,44.740322,-93.422698,Bluebird Trl NE/Carriage Hills Pkwy
216,44.763363,-93.379674,State Hwy 13/Williamsberg Dr
185,44.744056,-93.358883,144th St W/Dakota Ave
499,44.788320,-93.507309,10th Ave E/Legion St S
305,44.774864,-93.336298,Lynn Ave/126th St W
246,44.732006,-93.384056,Cedarview Cir
185,44.718781,-93.432620,West Ave SE
246,44.728627,-93.464714,Orion Rd NW
246,44.768071,-93.339727,Ottawa Dr/McColl Dr
216,44.798522,-93.519319,Main St/2nd Ave E
160,44.571691,-93.339462,Dorothy Ln
246,44.791408,-93.524924,8th Ave E/8th Ave W/Holmes St S
160,44.732232,-93.512345,Westridge Dr/W 150th St
160,44.723451,-93.437474,Eau Claire Trl NE/Eau Claire Cir NE
499,44.799386,-93.522488,Spencer St S
185,44.718309,-93.451018,Island Cir NW
305,44.756512,-93.348977,W 137th St/Vernon Ave
334,44.722540,-93.399306,Timberview St SE
445,44.738377,-93.357311,Brunswick Ave S/N Ridge Dr
185,44.743689,-93.429413,Pike Lake Trl NE/Embassy Cir NE
246,44.607035,-93.740097,Pheasant Ct
160,44.752354,-93.347944,Utica Ave/W Hidden Valley Dr
445,44.713909,-93.419054,St Paul Ave
362,44.743963,-93.447973,Parkview Ln NW
185,44.732852,-93.382423,Hamilton Rd
216,44.772026,-93.530555,Koeper Ave/17th Ave
160,44.658461,-93.610194,Twin Oak Cir
684,44.773468,-93.506333,Elmwood Ave
185,44.797264,-93.520464,Fillmore St S/3rd Ave E
276,44.622782,-93.749228,Co Hwy 6/Johnson Memorial Dr/225th St W
160,44.568915,-93.349033,Seurer St/Anna St
305,44.701279,-93.399377,Revere Way
185,44.569913,-93.359571,Park St/Mac St
185,44.783411,-93.558798,115th St W/Old Brick Yard Rd/Co Rd 69
160,44.714397,-93.408317,Crossandra St SE
305,44.545075,-93.559341,11th Ave N/1st St NE
160,44.728797,-93.402611,Oak Ridge Cir SE/Fulbright Cir SE
160,44.703351,-93.436498,Heritage Ln SE
216,44.790978,-93.410556,Co Rd 101/Crest Ave
418,44.699935,-93.411079,Wilderness Cir SE
362,44.757112,-93.332800,Inglewood Ave/136th St W
160,44.637834,-93.388557,Bonita Way
276,44.789199,-93.406340,Shakopee Byp/Hwy 169/Co Rd 101
185,44.702514,-93.432647,Mushtown Rd/Maple Ln
216,44.741338,-93.467382,Wilds Dr/Wilds Pkwy NW
390,44.554656,-93.298847,I- 35
216,44.550259,-93.584619,4th Ave NW
499,44.752577,-93.389403,Boone Ave/Woodhill Dr/139th St W
160,44.704119,-93.407252,Adelmann St/Adelmann St SE/Cottonwood Ln SE
160,44.718854,-93.453467,Artic Cir NW
276,44.779537,-93.548089,Vierling Dr/Boulder Pointe
216,44.761036,-93.334129,W 134th St/Kipling Ave S
160,44.543866,-93.324154,Beard Ave
216,44.599291,-93.289534,242nd Ct E
276,44.736406,-93.429769,Landau Ln NE
185,44.688580,-93.452760,180th St E
185,44.618743,-93.765349,E Park St/S Cedar St
246,44.797391,-93.527954,Fuller St S
276,44.774319,-93.481296,Philipp Dr/Philipp Ave
160,44.777120,-93.426580,Cambridge Rd/Sussex Ln
276,44.616143,-93.763580,Johnson Memorial Dr
246,44.740259,-93.587727,Johnson Memorial Dr/145th St W
160,44.568903,-93.348164,Wild Wings Pass/Seurer St
362,44.652977,-93.643378,Ridge St/Lillian St
216,44.766032,-93.332993,W 131st St
185,44.741665,-93.455238,Wilds Rdg Ct NW
390,44.797954,-93.523608,Sommerville St S/2nd Ave E
684,44.715158,-93.420833,Minnesota St SE/Evanston Ave SE
305,44.674831,-93.652153,Heritage Trl/Lodge Dr
160,44.753825,-93.354132,138th St W/Zarthan Ct
185,44.772034,-93.506441,Idlewood Way
160,44.763523,-93.479192,Swallowtail Dr/Crane St
216,44.711766,-93.438416,Cates St SE/Park Ave SE
185,44.674351,-93.639525,190th St W/Valley View Dr/W 195th St
246,44.745981,-93.346558,Toledo Ave S
160,44.773565,-93.527939,Breton St/Ardennes Ave
1123,44.742341,-93.380877,Commerce Ave
305,44.658266,-93.632665,Hillside Ave
160,44.630858,-93.331662,Wagon Wheel Trl
185,44.749506,-93.390332,Ridge Point Ct
499,44.673933,-93.630040,Maple Dr/Elm Ln
334,44.738844,-93.364618,146th St W/Idaho Ave S
185,44.781935,-93.478426,Secretariat Dr/Pine Tree Ln/Eagle Creek Blvd
185,44.763921,-93.489375,Cardinal Dr/Teal St
216,44.723288,-93.417146,Hope St SE/Mitchell Cir SE
305,44.779046,-93.353069,Xenwood Ave/State Hwy 13/Yosemite Ave
334,44.778412,-93.422758,Windsor Dr
160,44.672813,-93.602842,Naylor Ave/Country Trl W
185,44.747644,-93.354523,Loftus Dr
684,44.738519,-93.387327,Maple Trl/Rustic Rd SE
246,44.776330,-93.534016,Shakopee Byp
216,44.777967,-93.532280,McIntosh Ct
160,44.543700,-93.597238,280th St W/11 Ave NW
160,44.789774,-93.546960,6th Ave W/Harrison St S
185,44.678453,-93.636823,Hooper St
216,44.569349,-93.341714,Jean Way
552,44.793541,-93.541666,4th Ave W/Adams St S
216,44.713355,-93.405264,Fish Point Rd SE/Cardinal Ridge Trl SE
334,44.795473,-93.515765,Minnesota St S
185,44.558931,-93.332035,Longridge Dr
185,44.765995,-93.350459,W 131st St/Vernon Ave
552,44.717794,-93.419565,State Hwy 13/Hwy 13 S
160,44.772258,-93.527991,Breton St
160,44.786481,-93.495247,11th Ave E//Austin St
160,44.748905,-93.341712,140th St W/Princeton Ave
445,44.701997,-93.410721,/Fawn Meadow Curv SE
160,44.568136,-93.354052,Knights Rd
418,44.751576,-93.358156,Colorado Ave S
160,44.736764,-93.366373,Jersey Ave S/147th St W
185,44.545907,-93.582272,2nd St NW/3rd Ave NW
216,44.767280,-93.485730,Viola Ct
658,44.741323,-93.377292,Southridge Ct
390,44.620805,-93.759417,S Ash St/E Prairie St
185,44.552484,-93.567456,Bernas Ln/Philipp Pkwy
362,44.676372,-93.628667,Oak Cir
160,44.748178,-93.336123,Lynn Ave/Lynn Ct
390,44.674897,-93.625035,Johnson Memorial Dr
276,44.651542,-93.643308,Bridle Creek Bay
246,44.782207,-93.530610,Koeper Ave/Monnens Ave
160,44.725497,-93.436773,Calmut Ave NE
160,44.706448,-93.320417,Lower 167th St E
185,44.630454,-93.750752,Riverview Ln/Provence Ln
216,44.549641,-93.584663,6th St NW/4th Ave NW
526,44.739308,-93.367678,S Park Dr
276,44.719126,-93.433306,Bass St SE
185,44.770096,-93.499335,Groveland Way/Anton Way/Saint Francis Ave
390,44.741681,-93.461354,Fox Trl NW
334,44.743470,-93.357929,144th Ct
160,44.543924,-93.658002,280th St W
160,44.566677,-93.349092,Overlook Dr/Anna St
246,44.723840,-93.424307,Lakeview Cir SE
246,44.547997,-93.558393,4th St NE/Cottonwood Ln
160,44.724828,-93.455683,154th St NW
499,44.773458,-93.506935,Highpoint Curv
160,44.675168,-93.638377,Valley View Dr
160,44.633629,-93.334255,Canter Ln/Wagon Wheel Trl
185,44.724993,-93.474844,Trl of Dreams NW/Mystic Lake Blvd NW
499,44.757120,-93.334447,136th St W/Lynn Ave
160,44.795792,-93.531952,Apgar St S/3rd Ave W
185,44.545901,-93.582907,2nd St NW
246,44.637761,-93.338580,Canter Ln/Monterey Ave
390,44.671828,-93.635996,Johnson Memorial Dr/Creek Ln N
1097,44.748235,-93.329562,141 St
160,44.622801,-93.562207,Harlow Ave/225th St W
276,44.623985,-93.756475,Church St E/Aspen Ln
160,44.744454,-93.410372,Candlewood Ln NE/Shore Ln NE
246,44.616664,-93.761365,E Raven St
246,44.620852,-93.753093,Poplar St/Johnson Memorial Dr
160,44.715407,-93.367477,Hampshire Ave S
334,44.728023,-93.445253,Fairway Heights Ct NW
185,44.793692,-93.490279,Eastway Ave/Shenandoah Dr/Canterbury Access Rd
160,44.795577,-93.439720,Co Rd 101
160,44.543917,-93.657118,280th St W
276,44.740543,-93.358074,Brunswick Ave S/S Park Dr
305,44.779353,-93.341780,Princeton Ave
185,44.767362,-93.486378,Ormond Dr/Viola Ct
579,44.787382,-93.409478,Hwy 169
362,44.732866,-93.384812,Cedarview Cir
1355,44.705318,-93.434995,Hwy 13 S/Langford Blvd
216,44.730427,-93.439974,Eagle Creek Cir NW
276,44.726116,-93.474864,Mystic Lake Blvd NW/Park Pl NW
813,44.748800,-93.328708,141 St/Glenhurst Ave
390,44.742400,-93.352060,Woodbridge Dr/Oconnell Ave
1304,44.670540,-93.639483,2nd St W/Johnson Memorial Dr
160,44.795526,-93.490356,Pinewood Dr/Shenandoah Dr
160,44.727408,-93.383244,152nd Pl
160,44.750843,-93.340992,Ottawa Ave/139th St W
160,44.762227,-93.357191,Alabama Ave S/W 133rd St
276,44.774664,-93.514809,Cobblestone Way/Providence Dr
362,44.791240,-93.493494,Gannon Dr/Flamingo Dr
305,44.615063,-93.762502,Haralson Dr
160,44.661602,-93.394344,Broadview Dr
185,44.776776,-93.409412,Crossings Blvd/Grove Cir
418,44.543616,-93.582252,Main St W/3rd Ave NW
305,44.742984,-93.351533,Woodbridge Ln/Oconnell Ave
276,44.732278,-93.385596,149th St
160,44.727651,-93.393960,Flag Ave/152nd St W
246,44.733637,-93.371479,Mustang Path
185,44.788344,-93.526190,Fuller St S/10th Ave W
334,44.553180,-93.567028,Philipp Pkwy/Bavaria Ln
185,44.704315,-93.420437,Hillcrest St SE/Blind Lake Trl SE
445,44.757173,-93.332084,136th St W/Huntington Ave
216,44.782251,-93.562480,Bonnevista Ter/
276,44.711157,-93.418213,Timber Crest Dr/Bluff Heights Trl SE
216,44.670687,-93.627361,5th St E/Rice St N
305,44.798618,-93.517827,Market St S/2nd Ave E
362,44.703723,-93.401742,Welcome Ave SE
246,44.757566,-93.444497,/Tinta Ln
334,44.709261,-93.419884,Franklin Trl SE/Lyons Ave SE
160,44.543862,-93.644358,280th St W
445,44.728335,-93.443900,Fairway Heights Rd NW/Jeffers Pass
185,44.558569,-93.582563,Math Ct NW
305,44.795477,-93.534845,3rd Ave W/Pierce St S
185,44.666048,-93.617029,Lydia Rd/Maple Ln
185,44.782229,-93.486577,Jade Cir/Jasper Rd
736,44.773739,-93.506218,17th Ave E
216,44.775879,-93.495577,Brittany Ct/Downing Ave
185,44.762320,-93.358276,Brunswick Ave S/W 133rd St
334,44.774556,-93.495031,Dublin Trl W
276,44.796054,-93.521633,Spencer St S/4th Ave E
160,44.762115,-93.407243,McGuire Cir/McGuire Ct
160,44.738073,-93.335232,River Run Ct
917,44.713235,-93.421603,Evanston Ave SE/Credit River Rd SE
216,44.781044,-93.492339,Limestone Dr/Vierling Dr E
334,44.703205,-93.445504,Willow Ln SW/170th St SW
305,44.790896,-93.502542,Roundhouse Cir S
499,44.786017,-93.413213,Shakopee Byp/Co Rd 18
334,44.766639,-93.332978,W 131st St
185,44.572860,-93.624631,Delmar Ave/260th St W
160,44.762936,-93.371798,Taylor Dr/Nevada Ave
445,44.785889,-93.551831,11th Ave W/Polk St S
160,44.757517,-93.516273,Fairhaven Dr/Abbey Pt
160,44.728314,-93.490971,Marschall Rd
246,44.718826,-93.451978,Fremont St NW/Fremont Ave NW
216,44.551714,-93.567194,Philipp Pkwy/Vrtis Ln
216,44.704944,-93.447102,Elm Ave SW/Basswood Cir SW
305,44.543529,-93.556312,E Main St
246,44.776527,-93.520177,Shakopee Byp/Co Rd 79/Townline Ave
390,44.791464,-93.403998,Hwy 169
160,44.745584,-93.390025,Greenway Ave NE/Wild Oaks Ter
185,44.613605,-93.747545,Jaymie Ct/Scott Ln
185,44.594965,-93.318616,Xerxes Ave/245th St E
418,44.779676,-93.513079,Sage Ln/Lilac Ct
305,44.570168,-93.298615,/I- 35
305,44.736979,-93.360037,Dakota Ave
334,44.714659,-93.429150,Eagle Creek Ave SE/Duluth Ave SE
216,44.745174,-93.390417,Conroy St NE/Greenway Ave NE
418,44.753008,-93.328717,Glenhurst Ave
246,44.735876,-93.369776,Maryland Ave/148th St W
246,44.746803,-93.423705,Rolling Oaks Cir NE/140th St NE
160,44.558443,-93.283266,Pillsbury Ave/270th St E
160,44.679585,-93.571671,Pueblo Ave/Country Trl W
362,44.752333,-93.360561,/Edgewood Ave
185,44.761621,-93.473439,Molina St
216,44.714025,-93.478906,Stemmer Ridge Rd NW
276,44.759339,-93.349690,W 135th St/Webster Ave
418,44.732201,-93.437946,Timberglade Cir NE/Hidden Pond Trl NE
445,44.786953,-93.533956,McDevitt St/Pierce St S
390,44.731682,-93.347809,Bridgewater Dr
334,44.672383,-93.629079,/N Varner St/Varner St
334,44.778475,-93.373107,State Hwy 13
160,44.729621,-93.402661,Oak Ridge Cir SE/Indian Ridge Cir SE
216,44.779690,-93.549917,Stone Meadow Blvd/Boulder Pointe
216,44.788344,-93.544924,Monroe St S/10th Ave W
472,44.720227,-93.414880,State Hwy 13/Franklin Trl SE
1615,44.783460,-93.469698,Canterbury Rd
185,44.697938,-93.457306,Sunset Trl SW
216,44.743990,-93.466690,Badger Cir NW
390,44.739563,-93.469724,Scott County 83
418,44.726154,-93.402683,State Hwy 13
246,44.778944,-93.553091,Quarry Ln/Agate Curve
216,44.753264,-93.350049,138th St W/Vernon Ave
305,44.626094,-93.759363,E Court St/N Ash St
160,44.765476,-93.391835,Falcons Way/Meadow Ln
334,44.733014,-93.370404,Calumet Ct
160,44.703228,-93.436543,Heritage Ln SE
160,44.742749,-93.384374,Lois Ave NE/Natalie Rd NE
216,44.777253,-93.406289,Stagecoach Rd/Hansen Ave
160,44.673915,-93.332744,Edgewood Ln
276,44.766510,-93.488413,Williams St/Cardinal Dr
246,44.671602,-93.394873,Highview Ct
246,44.625867,-93.746384,Old Highway 169 Blvd/1st St NE
418,44.763918,-93.340523,Glendale Ln/W 132nd St
216,44.607517,-93.741693,Farmer Ridge Trl
445,44.761085,-93.378848,Williamsberg Dr
160,44.688779,-93.369792,Cleary Lake Ave
445,44.557900,-93.574114,A/12th St NE/Twelfth St NW
216,44.546970,-93.574601,3rd St NE/Church Ave N
160,44.737885,-93.421813,Hemlock Cir
160,44.552614,-93.565369,Bruzek Ln
362,44.682406,-93.640913,Bradbury Cir/Chandler Ct
160,44.743774,-93.345549,Quentin Ave/W 144th St
216,44.677611,-93.637677,9th St/Hooper St
276,44.786686,-93.504853,Sibley St S
418,44.619634,-93.756042,Johnson Memorial Dr/Laredo St S
305,44.760438,-93.329669,134th Cir/134th Ln/Glenhurst Ave
445,44.713748,-93.432815,West Ave SE/Colorado St SE
362,44.799066,-93.515152,Dakota St S/2nd Ave E
246,44.713394,-93.405407,Cardinal Ridge Trl SE/Fish Point Rd
276,44.759809,-93.376342,Rhode Island Ave S
276,44.676109,-93.638994,Hooper Ct
334,44.771893,-93.520198,Townline Ave/17th Ave
246,44.709579,-93.419063,Franklin Trl SE
390,44.734823,-93.350409,Dufferin Ct/Dufferin Dr
160,44.780583,-93.439224,Wakefield Cir/Wakefield Ct
185,44.778223,-93.524151,Sand St
246,44.796179,-93.543186,1st Ave W/Co Rd 69
552,44.786451,-93.412864,Shakopee Byp/Sb Hwy169 To Cord18
160,44.730053,-93.387536,Aquila Ave S/Journey Ln
160,44.739619,-93.337220,Kipling Ave S
305,44.757679,-93.354701,136th St W/Zarthan Ave S
160,44.775729,-93.436517,Oxford Rd S/Oxford Pl
160,44.757186,-93.576160,Ann Dr
305,44.732703,-93.387863,State Hwy 13
390,44.763558,-93.335027,Kipling Ave S/W 132nd St
499,44.727474,-93.459105,Eagles Rdg NW/Bobcat Trl NW
216,44.703056,-93.399482,Credit River Rd SE/Revere Way
185,44.730372,-93.411389,Fish Point Rd SE
2009,44.742230,-93.379953,Hwy 13/S Park Dr
216,44.792994,-93.416375,Stagecoach Rd
160,44.766849,-93.521112,S Shannon Dr/Shannon Dr/126th St W
334,44.757692,-93.354865,136th St W
276,44.679268,-93.638974,/Rebecca Dr
246,44.733055,-93.381101,Stafford Trl
390,44.749481,-93.333564,140 St W/Glendale Rd
160,44.707989,-93.462757,Northwood Rd NW
362,44.705025,-93.422954,Tacoma Cir SE/Lyons Ave SE
160,44.725688,-93.437875,Windsong Cir NE
185,44.760489,-93.387867,134th
160,44.793265,-93.526912,6th Ave W/Fuller St S
160,44.671489,-93.338717,Overland Dr/Natchez Ave
362,44.547855,-93.561631,4th St NE/Co Rd 37
246,44.724066,-93.412052,Wood Lawn Cir SE/Candy Cove Trl SE
185,44.748403,-93.338013,Natchez Ln
160,44.761036,-93.399022,McColl Dr
276,44.778474,-93.375536,Frontage Rd/Rhode Island Ave
216,44.731646,-93.390032,State Hwy 13/Ensign Ave S/150th St SE
160,44.711501,-93.433566,Albany Ave SE/Cates St SE
1174,44.746110,-93.379840,State Hwy 13
390,44.757498,-93.359189,W 135th St/Dakota Ave S
185,44.794409,-93.534628,4th Ave W/Pierce St S
216,44.761837,-93.343658,W 132nd St
390,44.543554,-93.566933,Lexington Ave N/Main St E
362,44.724575,-93.441277,154th St NW/Marsh St NW
216,44.620925,-93.777100,S Buffalo St/W Prairie St
160,44.628699,-93.301289,Logan Ave
216,44.705982,-93.455006,Dewitte Ave SW
185,44.576886,-93.838623,Johnson Memorial Dr/Johnson Way
216,44.567383,-93.342975,Shelly Ln/Aaron Dr
276,44.776345,-93.540521,Shakopee Byp/Marystown Rd
160,44.563536,-93.325384,Chowen Ave/266th St E
185,44.565632,-93.337867,Evergreen Ct
305,44.546998,-93.584751,3rd St NW/4th Ave NW
216,44.735086,-93.377282,Stafford Trl
185,44.559285,-93.338482,Natchez Ave
246,44.801773,-93.500471,Viking Steel Rd/Co Rd 101
216,44.666071,-93.620143,Maple Ln
185,44.703508,-93.459131,Creekview Cir SW
216,44.783334,-93.497573,Murphy Ave/Sapphire Ln
499,44.715321,-93.404617,Crossandra St SE/Fish Point Rd SE
305,44.757811,-93.354583,136th St W/Zarthan Ave S
276,44.786567,-93.527797,Atwood Ct/Atwood St S
160,44.612660,-93.756612,Butler Dr/O'Brien Pkwy
216,44.778933,-93.555033,Boulder Pointe/Agate Curve
216,44.762011,-93.332585,Inglewood Ave/W 133rd St
160,44.720309,-93.409995,Candy Cove Trl SE/Centennial St SE
276,44.761599,-93.477933,Meadowlark Ln/Molina St
276,44.765141,-93.499147,Wilhelm Pl
185,44.777081,-93.540417,Marystown Rd
334,44.677675,-93.622151,/Johnson Memorial Dr
185,44.761040,-93.469600,Valley View Rd/Canterbury Rd
185,44.681587,-93.650588,Dakota Pt/185th St W
276,44.773128,-93.510191,/Elmwood Ave
305,44.776235,-93.520179,Shakopee Byp/Townline Ave
362,44.735435,-93.342155,River Wood Cir/River Wood Dr
246,44.795548,-93.525968,4th Ave W/Holmes St S/4th Ave E
1982,44.783696,-93.469695,Canterbury Rd
160,44.573235,-93.299841,/Co Hwy 2/260th St E
418,44.778298,-93.514772,Sage Ln/Primrose Ln/Thistle Ln
246,44.708894,-93.589584,W 166th St/Berkshire Ave
160,44.565656,-93.325386,265th St E
246,44.761689,-93.581624,Johnson Memorial Dr
418,44.746635,-93.409180,140th St NE/Crest Ave NE
305,44.716747,-93.431457,Cambridge Cir/Cambridge Cir SE
390,44.800193,-93.469551,Canterbury Rd/Co Rd 101
185,44.695018,-93.455215,Thorton Dr SW
334,44.778190,-93.347899,/123rd St W/123rd St
160,44.681520,-93.344050,Lone Oak Ct/Eagle Creek Ave
736,44.775770,-93.469576,/17th Ave E/Canterbury Rd
185,44.573193,-93.296988,/Co Hwy 2/Deuce Rd
160,44.707753,-93.590251,Berkshire Ave
334,44.746588,-93.402115,Aspen Ave NE/140th St NE
160,44.623729,-93.522024,Baseline Blvd
185,44.753577,-93.469672,Canterbury Rd
472,44.786351,-93.413254,Sb Hwy169 To Cord18/Cord18 To Sb Hwy169
160,44.701623,-93.405027,Graystone Ct/Adelmann St
305,44.795092,-93.517188,5th Ave E/Market St S
160,44.793051,-93.514303,7th Ave E/Dakota St S
276,44.712046,-93.462551,Knollridge Dr NW
246,44.759884,-93.390715,Boone Ave/134th/McColl Dr
246,44.791245,-93.526390,8th Ave W/Fuller St S
216,44.784480,-93.413369,Co Rd 18/Cord101 To Cord18
160,44.723140,-93.426005,Red Oaks Rd
160,44.547987,-93.571492,Lincoln Ave N/4th St NE
160,44.778875,-93.529691,Applegate Ln/Orchard Pkwy
736,44.654188,-93.643519,Ridge St
160,44.761125,-93.449313,McKenna Rd NW
276,44.783460,-93.412901,Co Rd 18/Cord18 To Nb Hwy169
216,44.721100,-93.431024,West Ave SE
185,44.786491,-93.516781,11th Ave E/Market St S
305,44.788989,-93.406591,/Shakopee Byp/Co Hwy 101
160,44.790131,-93.526244,Fuller St S/Shakopee Ave W
216,44.642439,-93.370463,Clemwood Dr
216,44.775632,-93.385914,126th St W
160,44.705410,-93.460310,Center Rd SW/Terrace Cir SW
736,44.747354,-93.328940,141st St
216,44.752709,-93.394851,Woodhill Ct/Woodhill Dr
160,44.706372,-93.420627,Dublin Rd SE/Blind Lake Trl SE
246,44.775667,-93.480343,17th Ave E
305,44.557939,-93.579055,English Ave NW/Twelfth St NW
305,44.765370,-93.340986,Ottawa Dr/W 131 1/2 St
216,44.711190,-93.490339,Marschall Rd
185,44.735965,-93.433893,Trotters Trl NE/Coachman Ln NE
185,44.724186,-93.436490,154th St NW/Calmut Ave NE
305,44.733491,-93.475855,Dakota Pkwy
216,44.550173,-93.584623,4th Ave NW
305,44.692640,-93.457156,Maple Dr
362,44.766204,-93.486995,Lahoma Ct/Ormond Dr
185,44.744194,-93.360066,Edgewood Ave/Brook Ln
160,44.567031,-93.351780,Overlook Dr/Overlook St/Aaron Dr
185,44.743544,-93.396926,Orchard Cir NE/Shady Beach Trl NE
185,44.772056,-93.508209,Highpoint Curve
362,44.781926,-93.519083,Monarch St/Mint Cir
276,44.777414,-93.464917,Dean Lakes Trl/Eagle Creek Blvd/Coneflower Ln
185,44.734514,-93.337193,Monterey Ave S
276,44.785351,-93.507283,Legion St S/Prairie Ln
160,44.698690,-93.429383,Mushtown Rd
362,44.792188,-93.535514,6th Ave W/Clay St S
160,44.714825,-93.457869,Lake Haven Ct/Northwood Rd NW
216,44.709323,-93.318386,Linch Path
185,44.703609,-93.458972,Creekview Cir SW
160,44.761603,-93.472775,Molina St/Pembina Ln
246,44.741884,-93.467714,Waterfall Way NW/Wilds Dr
160,44.735998,-93.388477,Seven Acres St SE/Oakland Beach Ave SE
334,44.624006,-93.762369,N Elm St/E Church St
246,44.649245,-93.638590,Bridle Creek Ln
276,44.672380,-93.636379,Creek Ln N
246,44.650122,-93.639629,Firethorne Trl/Bridle Creek Ln
362,44.799009,-93.515133,Dakota St S
160,44.755570,-93.385383,Ashcroft Rd/Ashcroft Bay
472,44.731146,-93.437516,Black Oak Rd NE/Raspberry Ridge Rd NE
334,44.747963,-93.387135,Ridgewood Ln/Zinran Ave
276,44.783913,-93.413304,/Co Rd 18
246,44.692978,-93.403896,Trailhead Ln SE/Revere Way
185,44.697320,-93.379187,174th St E/Texas Ave
160,44.796944,-93.514553,Dakota St S/4th Ave E
160,44.543338,-93.717583,280th St W/Hickory Blvd
160,44.783809,-93.558348,Co Rd 69
185,44.746725,-93.414199,Ferndale Ave NE/140th St NE
334,44.622715,-93.745129,225th St W/Main St E
334,44.668637,-93.634557,2nd St W
445,44.700850,-93.410706,Wilderness Cir SE/Wilderness Trl SE
160,44.792685,-93.494646,Meridian Ct
185,44.764945,-93.334130,Joppa Ave S
605,44.781319,-93.481055,Norway Trl
390,44.728352,-93.433328,Fairbanks Trl NE/Quaker Trl NE
216,44.734601,-93.381257,Virginia Ave
160,44.726114,-93.423915,/Red Oaks Rd SE
390,44.775937,-93.508208,Weston Ct
472,44.737664,-93.384570,Maple Trl/Rustic Rd SE
160,44.732716,-93.356002,Overlook Dr/Valley View Dr
472,44.783417,-93.432449,Shakopee Byp
185,44.795505,-93.491136,Timber Ct/Pinewood Dr
185,44.781737,-93.499662,Ruby Ln/Ruby Cir
160,44.761975,-93.583800,130th St W/Dem Con Dr
526,44.744682,-93.335761,River Bend Pl/Kipling Ave S
160,44.742335,-93.484618,Dakota Pkwy
160,44.543702,-93.597519,280th St W
160,44.711508,-93.588011,Berkshire Ave
185,44.764942,-93.409045,/Moraine Cir/Portage Ln
160,44.712028,-93.417961,Credit River Rd SE/St Paul Ave
276,44.682944,-93.639775,Quaker Ave/185th St W
362,44.759058,-93.354357,W 135th St/Zarthan Ave S
216,44.677022,-93.636498,9th St/Valley View Dr
418,44.783802,-93.474814,Secretariat Dr
160,44.608723,-93.766147,Shea St/S Chestnut St
499,44.778533,-93.476762,Tyrone Dr/Sharon Pkwy
160,44.621567,-93.316350,Hunters Ridge Rd/Woodhill Blvd
305,44.775959,-93.491530,Chartreux Ave/Downing Ave
390,44.720507,-93.437881,Eagle Creek Ave NE/Grainwood Trl
160,44.603304,-93.602911,Helena Blvd/Saint Benedict Rd
246,44.788677,-93.549358,6th Ave W/Harrison St S
276,44.794577,-93.515730,Milwaukee Ct
185,44.709721,-93.442236,Roosevelt St SW/Dunkirk Ave SW
526,44.714496,-93.422398,Hwy 13/Hwy 13 S/Dakota St SE
445,44.737288,-93.383678,State Hwy 13/Rustic Rd SE
185,44.688770,-93.404232,180th St E/Revere Way
216,44.745330,-93.382328,Natalie Rd NE/Timothy Ave NE/Timothy Ave
276,44.770743,-93.339346,Ottawa Ave/W 129th St
605,44.783117,-93.430771,Shakopee Byp
216,44.592128,-93.818766,Blakeley Trl/Johnson Memorial Dr
276,44.543577,-93.584833,280th St W/4th Ave NW/Main St W
160,44.547252,-93.557859,3rd St NE
185,44.771958,-93.382101,Eagle Creek Pkwy/Creek View Ave
246,44.775380,-93.517684,Liberty St/Princeton Ave
276,44.775246,-93.340004,Ottawa Ave/126th St W
160,44.737397,-93.540832,Tyrol Ln/Tyrol Dr/Tyrol Cir
472,44.655051,-93.642248,Leon St/Ridge St
418,44.663118,-93.620890,Firewatch Dr/Arabian Dr
185,44.739744,-93.332938,Joppa Ct
445,44.737061,-93.470510,Sioux Trl NW/Scott County 83
216,44.729078,-93.435281,Quaker Trl NE/Lords St NE
246,44.740015,-93.380013,145st NW/145th St W
185,44.607902,-93.761961,S Elm St/E Evergreen St
305,44.675880,-93.624783,Broadway St/Broadway St N
445,44.797854,-93.523580,Sommerville St S/2nd Ave E
160,44.748884,-93.340360,Ottawa Ave/140th St W
216,44.778036,-93.549655,Sandstone Curve/Stone Meadow Blvd
216,44.662096,-93.389305,Broadview Dr/Bernard Ave
185,44.736627,-93.432610,Coachman Ct
216,44.781868,-93.491046,Emerald Ln/Onyx Dr
390,44.779122,-93.341793,State Hwy 13/Princeton Ave
160,44.750490,-93.365584,/140th St W
276,44.616658,-93.760968,E Raven St
160,44.659761,-93.582698,W 200th St/Xanadu Ave
160,44.753801,-93.409092,Muhlenhardt Rd/Co Rd 18/Crest Ave NE
185,44.780403,-93.535053,Veirling Dr/Cider Cir
276,44.706702,-93.444644,Willow Ln SW/Priorwood Ln SW
185,44.567954,-93.342539,Francis Ln/Aaron Dr
305,44.558005,-93.583226,Twelfth St NW
305,44.746794,-93.369051,Egan Dr/Louisiana Ave
246,44.607080,-93.738475,Mallard Ln/Dove Ct
246,44.779367,-93.547894,Stone Meadow Blvd/Boulder Pointe
185,44.573040,-93.355859,Main St/Todd St
160,44.616689,-93.771315,W Raven St/S Market St
185,44.771557,-93.540929,Marystown Rd
160,44.787743,-93.551656,6th Ave W
334,44.737808,-93.370146,McCann Ct
684,44.779140,-93.338198,State Hwy 13
216,44.798025,-93.531065,1st Ave W/Scott St S/Scott St N
185,44.680457,-93.639764,Quaker Ave/Ervin Industrial Blvd
305,44.797279,-93.529399,Atwood St S
276,44.790817,-93.410192,/Co Rd 101
160,44.708452,-93.475275,Maple Grove Ln
160,44.679674,-93.360108,Meadow View Blvd/Cress View Ln
216,44.796333,-93.536610,2nd Ave W
445,44.667392,-93.630415,2nd St W/West St S/West St N
185,44.652264,-93.640830,Old Highway 169 Blvd/Marion Ln/Bridle Creek Ln
216,44.771337,-93.450081,Montecito Dr/Eagle Creek Blvd
185,44.667307,-93.622561,E 2nd St
362,44.739322,-93.366402,/S Park Dr
276,44.773951,-93.413905,Co Rd 18/Southbridge Pkwy
160,44.785837,-93.529721,Scott St S/Thomas Ave
185,44.659656,-93.572453,W 200th St/Pueblo Ave
185,44.757566,-93.388342,/Carriage Hill Rd
160,44.702336,-93.455260,Balsam St SW
185,44.767798,-93.521220,Shannon Dr/N Shannon Dr
185,44.687046,-93.318402,Judicial Rd
499,44.717510,-93.420074,Hwy 13 S/160th St SE
216,44.790987,-93.412002,Stagecoach Rd
246,44.718607,-93.418100,Jordan Ave SE/State Hwy 13
246,44.773770,-93.518905,Liberty Cir/Liberty Cir Pvt
160,44.548509,-93.566171,NE Highland Dr/Lexington Ave N
276,44.727572,-93.464709,Orion Rd NW
276,44.714266,-93.427182,Eagle Creek Ave SE/Arcadia Ave
246,44.729474,-93.588191,Johnson Memorial Dr
305,44.753863,-93.359184,Dakota Ave S/138th St W/Connelly Pkwy
216,44.702493,-93.434016,Panama Ave
605,44.618059,-93.760773,Commerce Dr E
185,44.753699,-93.405365,Wildflower Way
276,44.618566,-93.755674,Enterprise Dr/Laredo St S
160,44.552988,-93.569341,Liberty Ln
160,44.788336,-93.530656,Apgar St S/10th Ave W
418,44.780365,-93.385712,Co Hwy 101/Zinran Ave
160,44.695609,-93.460097,Fairlawn Ave/Sunray Ave SW
276,44.738397,-93.368986,McCann Ct/Louisiana Ave S
160,44.768923,-93.395107,Independence Ave/Creek Ridge Ln
216,44.774829,-93.419841,Old Carriage Ct
334,44.778176,-93.505339,Shakopee Byp/Marschall Rd
160,44.765320,-93.485305,Pampas Ct
185,44.763026,-93.493958,Pheasant Run St/Valley View Rd
552,44.727633,-93.452211,Fox Tail Trl/Big Horn Pass
185,44.606042,-93.737680,Mallard Ln/Quail Ct
305,44.775593,-93.464684,/Kinlock Way/Eagle Creek Blvd
160,44.672168,-93.626473,Broadway St N
445,44.761548,-93.352152,Elaine Ct
334,44.714284,-93.588781,Bluff Dr/Johnson Memorial Dr
334,44.724713,-93.448310,154th St NW/Fremont Ave NW
552,44.773989,-93.490379,Delaney Ln
658,44.740212,-93.378262,Sumter Ave S/Parkridge Ln
216,44.706259,-93.422472,Brunswick Ave SE/Lyons Ave SE
160,44.726929,-93.475866,Mystic Lake Blvd NW
246,44.766922,-93.491408,Blue Jay St/Ponds Way
185,44.676548,-93.638726,Hooper St/8th St
305,44.777205,-93.529386,Appleblossom Ln/Applegate Ln
216,44.568893,-93.338680,Natchez Ave/Aaron Dr
552,44.746393,-93.385819,Harbor Pl NE/Egan Dr
246,44.721807,-93.439530,Eagle Creek Ave NE/Highland Ave NW
216,44.703595,-93.453738,Vale Cir SW
334,44.775430,-93.491987,Lexington Ln
160,44.554049,-93.571446,Eclipse Pkwy N
160,44.708165,-93.412255,Fish Point Rd
160,44.629561,-93.751885,River Wood Ln
160,44.775710,-93.479788,17th Ave E
185,44.762248,-93.333512,W 133rd St/Joppa Ave S
445,44.757467,-93.352261,136th St W/Yosemite Ave S
216,44.742928,-93.372538,Savanna Oaks Dr/Peninsula Point Dr
334,44.677599,-93.621832,Johnson Memorial Dr
362,44.666523,-93.614044,Liberty Ln
305,44.772381,-93.511302,Newport Ave/Countryside Dr
185,44.728057,-93.460602,Dakota Trl E
160,44.710344,-93.431978,Priorwood St SE
185,44.801804,-93.526949,Co Hwy 101
526,44.654534,-93.635669,Olympic Hills Cir/Augusta Ct
160,44.689041,-93.474819,180th St E/Langford Blvd
185,44.713098,-93.377298,Creekwood Ln/Creekwood Rd
305,44.782438,-93.434779,Berwick Cir/Hartley Blvd N/Carlisle Curv
216,44.756460,-93.385625,Ashcroft Rd
160,44.594773,-93.303345,Logan Ave/245th St E
334,44.726991,-93.455669,Wild Turkey Ct NW
216,44.543618,-93.524327,State Hwy 19/280th St W
185,44.616209,-93.440905,/230th St E
185,44.700066,-93.424978,Woodview Ct SE
334,44.768011,-93.350839,Vernon Ave
362,44.784969,-93.451153,Valley Park Dr S/12th Ave/12th Ave E
216,44.742578,-93.348194,W 145th St/Raleigh Ave S
305,44.774870,-93.335580,Kipling Ave S/126th St W
418,44.706345,-93.427635,Village Lake Dr SE
994,44.745706,-93.351417,Oconnell Ct/Oconnell Ave
305,44.773033,-93.518989,Liberty Cir/Liberty Cir Pvt
160,44.732920,-93.329263,Oakcrest Ct
362,44.799440,-93.524156,1st Ave E
334,44.666868,-93.634944,Seville Dr/Creek Ln
185,44.789686,-93.542341,Jefferson St S/Shakopee Ave
526,44.669462,-93.631659,Wood St N/4th St W
305,44.703008,-93.450225,Spruce Trl/170th St SW
472,44.753459,-93.360378,/Edgewood Ave
185,44.622265,-93.501558,Langford Ave
390,44.796295,-93.450304,Valley Fair Dr/Valley Park Dr S/Co Rd 101
160,44.612966,-93.450260,Prdr
160,44.578186,-93.557578,Drexel Ave/257th St W
684,44.773976,-93.493554,Wexford Ln
362,44.728546,-93.398019,Marlen Cir SE/Green Oaks Trl SE
305,44.711368,-93.407567,Fish Point Rd
276,44.730356,-93.454267,Wood Duck Dr NW/Wood Duck Trl NW
276,44.735364,-93.436277,Carriage Ln NE/Coachman Ln NE
185,44.790326,-93.533735,Shakopee Ave W/Pierce St S
160,44.623516,-93.285751,Pine Trl/225th St E
160,44.666764,-93.340313,Natchez Ave/Credit River Blvd/Vernon Ave
246,44.630062,-93.735189,Johnson Memorial Dr
246,44.702419,-93.450230,Spruce Trl SW/Spruce Trl/Balsam St SW
216,44.757560,-93.449394,McKenna Rd NW
216,44.793538,-93.515702,Minnesota St S
160,44.701571,-93.427219,Toronto Ave SE
185,44.760266,-93.396573,134th St/Hillsboro Ave S
994,44.774693,-93.491441,Bedford Ln/Dublin Trl
216,44.782120,-93.544408,Monroe St S/Madison St S
216,44.755237,-93.333085,Inglewood Ave/W 137th St
185,44.769288,-93.499273,Groveland Way
334,44.705907,-93.433554,Creekside Cir SE/State Hwy 13
276,44.778974,-93.526947,Orchard Ct/Orchard Pkwy
579,44.743893,-93.468719,Cougar Path NW/Wilds Path NW
276,44.778243,-93.359524,State Hwy 13/Dakota Ave
1278,44.543518,-93.561472,E Main St/Co Rd 37/Main St E
185,44.609646,-93.758342,Orchard Cir
418,44.780819,-93.516426,Lupine Ct/Thistle Ln
185,44.610429,-93.755994,E Orchard St/Laredo Ave
160,44.703810,-93.419711,Blind Lake Trl SE
762,44.738641,-93.433057,Surrey Ln NE/Fox Hunt Ct NE
185,44.759614,-93.330516,Huntington Ave/Lower 134th St
813,44.774699,-93.491969,Lexington Ln/Dublin Trl
160,44.750166,-93.515489,Stonebrooke Dr/Stonebrook Dr
160,44.559735,-93.334700,Stirling Ct
499,44.710824,-93.416570,Credit River Rd SE
246,44.788327,-93.508842,10th Ave E/Shawmut St S
185,44.601505,-93.601417,240th St/Helena Blvd
579,44.775957,-93.490540,Balinese St/Downing Ave
216,44.569915,-93.360784,Park St/Wagner Way
216,44.725018,-93.465922,154th St NW/Woodland Cir NW
334,44.740062,-93.379691,/145st NW
160,44.668566,-93.390770,Bernard Ave
160,44.604741,-93.773051,Belle Plaine Trl
334,44.728545,-93.439324,Eagle Creek Ave NE/Lords St NE
160,44.648269,-93.634144,Vine St/Hope Ave
216,44.779243,-93.532853,Harvest Ln/Regent Dr
185,44.549866,-93.584645,4th Ave NW
216,44.750554,-93.387443,Aquila Ct/Aquila Ave
276,44.771410,-93.483312,Omega Dr/Wyndam Dr
499,44.775164,-93.413598,Co Rd 18
160,44.564477,-93.335125,Oak St/Prairie St
185,44.551387,-93.553806,Danube Cir NE/7th St NE
390,44.667303,-93.624570,Mill St/2nd St E
160,44.604761,-93.773348,Belle Plaine Trl
305,44.710619,-93.435213,Tranquility Ct
160,44.553950,-93.420364,Prdr/Zachary Ave
185,44.663726,-93.622248,Arabian Dr
216,44.750381,-93.367076,/140th St W
334,44.732481,-93.395843,Lori Rd/150th St SE
185,44.725819,-93.499312,Bridge Spur Rd
216,44.615122,-93.780904,Horizon Cir
246,44.558658,-93.299300,Irving Ave/270th St E
246,44.706809,-93.449287,Willow Beach St SW/Sycamore Trl
160,44.595795,-93.440268,Prdr/Panama Ave
160,44.723373,-93.438154,Eau Claire Cir NE
418,44.773731,-93.567977,Mobil Mnr W
185,44.794014,-93.515145,Milwaukee Ct
276,44.672091,-93.636586,Frontage Rd
160,44.728655,-93.440875,Regal Pass NW
216,44.799403,-93.512363,Naumkeag St S
216,44.733164,-93.435025,Highland Ct NE
185,44.631021,-93.440302,220th St E/Panama Ave
185,44.790582,-93.524694,Holmes St S
605,44.759064,-93.384236,Carriage Hill Rd/Carriage Hill Alcove
185,44.751406,-93.375825,Shoreside Cir
160,44.790993,-93.451180,Valley Industrial Blvd S/Valley Park Dr S
160,44.796236,-93.520073,4th Ave E
185,44.611948,-93.336558,Grandview Trl/Grandview Way
185,44.761254,-93.382966,133 Pl
185,44.624959,-93.749827,Park Ln/E State St
216,44.735610,-93.344555,Credit River Dr/Dufferin Dr
246,44.758830,-93.391795,Windsor Cir/Windsor Ave
246,44.773057,-93.507021,Highpoint Curv/Elmwood Ave
160,44.771087,-93.395891,Independence Ave/Creek Way
276,44.778454,-93.370805,State Hwy 13/Nevada Ave S
216,44.779079,-93.547535,Boulder Pointe
246,44.724262,-93.454733,Brookside Ln
160,44.636140,-93.395546,Century Ln/Harvest Hills Dr
362,44.778953,-93.348904,State Hwy 13
160,44.625037,-93.756459,E State St/Aspen Ln
605,44.739834,-93.378181,Sumter Ave S
362,44.772880,-93.334386,W 127th St/Joppa Ave S
216,44.763919,-93.490605,Ponds Way/Teal St
362,44.796379,-93.527668,3rd Ave W/Fuller St S
160,44.767633,-93.406166,Co Rd 18/Preserve Trl
216,44.726179,-93.473292,Park Pl NW
334,44.735764,-93.390074,Cove Ave
160,44.739308,-93.476872,Sioux Trl NW/Prairiegrass Dr NW
185,44.544834,-93.584818,1st St NW/4th Ave NW
160,44.785070,-93.480999,Vierling Dr E/Canterbury Access Rd
216,44.758340,-93.330452,W 135th St/Huntington Ave
276,44.792623,-93.511352,7th Ave E/Eastview Cir
160,44.671789,-93.633398,Syndicate St/6th St W
185,44.685825,-93.633272,Circle Dr/Mendoza Ave
185,44.668134,-93.623049,Kreuser Rd
246,44.713471,-93.479049,Stemmer Ridge Rd NW/Edgewood Dr NW
185,44.599322,-93.293419,Pillsbury Ave/242nd Ct E
246,44.703025,-93.453742,170th St SW
216,44.729164,-93.462974,Dakota Trl W/Dakota Trl NW
160,44.555106,-93.565960,Heritage Trl NE/Philipp Pkwy
185,44.777086,-93.540637,Marystown Rd
160,44.611398,-93.759590,S Ash St/Heritage Ln
246,44.791428,-93.502183,Sarazin St/Eagle Creek Blvd/Roundhouse Cir S
305,44.797247,-93.529396,Atwood St S
160,44.669992,-93.607907,Morlock Dr/Country Trl W
160,44.641260,-93.329246,Lucerne Blvd/France Blvd
216,44.774025,-93.398127,Independence Ave/Ensign Ave
185,44.745761,-93.382190,Timothy Ave NE/Commerce Ave NE
160,44.681662,-93.639758,Quaker Ave
305,44.743464,-93.467606,Cougar Path NW/Wilds Dr
445,44.738868,-93.354509,Meadowood Dr/N Ridge Dr
185,44.766340,-93.398988,Creek Ridge Ln
605,44.714794,-93.419061,Minnesota St SE/St Paul Ave
160,44.616178,-93.449194,230th St E/Prdr
334,44.742584,-93.345531,W 145th St/Princeton Ave
185,44.666665,-93.617021,/Lydia Rd
246,44.702831,-93.400064,Eagle Creek Ave
185,44.658700,-93.632348,Woodland Cir
216,44.543617,-93.553083,Alton Ave
445,44.545884,-93.584798,4th Ave NW/2nd St NW
160,44.635233,-93.332270,Boulder Creek Dr
305,44.774472,-93.498365,Mockingbird Ave
390,44.708495,-93.444876,Inguadona Beach Cir SW/Pershing St SW
160,44.625033,-93.755782,E State St
160,44.757075,-93.423816,Hickory Ln NE/Martindale St NE
160,44.601863,-93.303289,Logan Ave/Logan Way
762,44.618207,-93.759446,S Ash St/Johnson Memorial Dr
160,44.614716,-93.747514,Jaymie Ct
499,44.778931,-93.522907,E Mound St/Lewis St S
216,44.801526,-93.500469,Viking Steel Rd/Co Hwy 101
216,44.732125,-93.337678,Hanrehan Lake Blvd/Monterey Ave S
185,44.693998,-93.404922,Natures Way SE
276,44.565833,-93.358787,Saxon Dr/Harvest Dr
160,44.555820,-93.569141,Heritage Trl NE/Independence St
160,44.693145,-93.450392,Reed Way SW
334,44.774172,-93.494927,Limerick Ln
216,44.710833,-93.439321,Green Heights Trl SW/Park Ave SE/Dutch Ave SE
216,44.732750,-93.434596,Appaloosa Trl NE/Highland Ct NE
246,44.542994,-93.849369,280th St W/Johnson Memorial Dr
1123,44.763506,-93.483539,Omega Dr/Crane St
216,44.677315,-93.654526,Fox-Boro Way/Beaumont Ave
185,44.626164,-93.771166,N Market St/W Court St
160,44.750992,-93.457105,W Woodland Trl
185,44.759392,-93.344801,W 135th St/Quentin Ave S
185,44.753830,-93.354592,138th St W/Zarthan Ave S
276,44.711465,-93.415203,Brooks Cir SE/Franklin Trl SE
276,44.648179,-93.643299,Bridle Creek Dr/Trellis St
160,44.733342,-93.524893,Ridge Ct
160,44.801201,-93.514252,Bluff Ave E/Prairie St N
160,44.766045,-93.500900,Alden Ave
185,44.573904,-93.521644,Baseline Ave
305,44.736629,-93.452682,Wilds Vw NW
216,44.752216,-93.349769,W 139th St
185,44.741192,-93.428476,Robin Rd NE/Seagull Cir NE
390,44.543555,-93.568399,Lyndale Ave N/Main St E
216,44.723235,-93.424118,Rutledge St SE
160,44.628057,-93.757912,N Oak St/E Beaver St
276,44.742879,-93.448827,Parkview Ln NW/Jeffers Pkwy NW
334,44.771939,-93.520197,17th Ave E/Townline Ave
334,44.779120,-93.348689,State Hwy 13
276,44.722227,-93.410972,Candy Cove Trl SE/State Hwy 13
185,44.797454,-93.519060,Main St/3rd Ave E
276,44.705542,-93.445945,Basswood Cir SW
160,44.782414,-93.485345,Jade Cir
246,44.729932,-93.343334,Edgewater Ct
160,44.740117,-93.408277,Shore Trl NE
418,44.729046,-93.469567,Mystic Lake Blvd NW/Scott County 83/Flandreau Trl NW
160,44.763270,-93.472444,Rock Ridge Cir
246,44.777925,-93.550019,Stone Meadow Blvd/Stone Ct
246,44.780064,-93.423902,Devin Ln
160,44.767612,-93.497643,Mooers Ave/Mathias Rd
160,44.776010,-93.530573,Shakopee Byp/Koeper Ave
160,44.660578,-93.628067,Broadway St S/Lincoln Ave
305,44.679371,-93.621198,Broadway St
185,44.715946,-93.374800,Creekwood Rd/Creekwood Cir
305,44.798728,-93.517864,Market St S/2nd Ave E
246,44.769673,-93.531486,Gotlund Ln/Danube Ave/Caspian Ln
246,44.764413,-93.338787,Glendale Ct/Glendale Rd
526,44.745002,-93.343725,143rd St W/143rd Cir
216,44.711794,-93.403284,Victoria Curv SE
185,44.788290,-93.515805,10th Ave E/Minnesota St S
160,44.565974,-93.501912,Langford Ave
305,44.747897,-93.386508,Ridgewood Ln
736,44.774696,-93.492497,Hamilton Ln/Dublin Trl
160,44.757940,-93.449385,McKenna Rd NW
185,44.775313,-93.429940,Cambridge Rd
276,44.793599,-93.532957,Shumway St S/5th Ave W
246,44.624783,-93.747780,E State St/Old Highway 169 Blvd
246,44.784077,-93.505372,Marschall Rd/Prairie Ln
185,44.772112,-93.522736,Tarpan St
305,44.788325,-93.502288,10th Ave E/Swift St
246,44.665294,-93.632765,Nolden Ln/Adams Ln
185,44.621218,-93.285702,Pine Trl/Pine Cir
216,44.768736,-93.350308,W 130th St/Vernon Ave
185,44.626110,-93.762318,E Court St/N Elm St
185,44.736812,-93.540969,Tyrol Cir
160,44.682472,-93.435918,Lila Ln/Blake Rd
276,44.759891,-93.331943,Inglewood Ave/Lower 134th St
445,44.797894,-93.523591,Sommerville St S
418,44.799945,-93.469660,Co Hwy 101/Canterbury Rd
334,44.622035,-93.781457,W Sunset Dr/S West St
160,44.567868,-93.316583,Windrose Crv
445,44.741685,-93.335339,Kipling Ave S/Kipling Ct
334,44.739967,-93.381518,State Hwy 13
334,44.777357,-93.334584,W 124th St/Joppa Ave S
185,44.544995,-93.591429,1st St NW/8th Ave NW
185,44.745518,-93.430799,Fountain Hills Ct NE/Fountain Hills Dr NE
276,44.766258,-93.332616,W 131st St
185,44.743700,-93.396502,Hidden View Rd NE/Shady Beach Trl NE
276,44.785012,-93.534079,Hennes Ave/Pierce St S
216,44.543617,-93.525759,State Hwy 19
246,44.607423,-93.779362,Johnson Memorial Dr
472,44.749272,-93.334338,Kipling Ave S/140th St W/140 St W
185,44.623105,-93.781491,W Main St/N West St/S West St
216,44.706202,-93.452875,Todd Rd SW
216,44.731189,-93.414928,Frost Point Cir SE
246,44.755050,-93.348975,Vernon Cir/Vernon Ave
160,44.783598,-93.485912,Hauer Trl/Jasper Rd
216,44.753109,-93.379655,State Hwy 13
185,44.768107,-93.343574,Quentin Ave/132nd St/McColl Dr
160,44.760188,-93.395335,134th St
216,44.628172,-93.760805,N Linden St/E Beaver St
276,44.778617,-93.359496,Dakota Ave
334,44.796137,-93.529107,3rd Ave W/Atwood St S
305,44.732141,-93.465294,Orion Rd NW/Oakes Ln NW
472,44.726688,-93.458465,Eagles Rdg NW
334,44.788319,-93.510392,10th Ave E/Naumkeag St S
160,44.616157,-93.455659,Balsa Ave/230th St E
418,44.718539,-93.434505,Quincy St
160,44.728785,-93.392932,Ensign Ave S/151st St W
216,44.712036,-93.418554,Credit River Rd/Credit River Rd SE
160,44.661760,-93.633664,Juergens Cir/Rustle Rd
160,44.730937,-93.464701,Orion Rd NW/Orion Cir NW
160,44.616709,-93.768360,S Meridian St/E Raven St/W Raven St
160,44.797831,-93.532520,1st Ave W/Apgar St S
160,44.783294,-93.558568,115th St W//Old Brick Yard Rd
305,44.572611,-93.505244,Langford Ave/260th St E
334,44.733173,-93.465002,Wilds Ln NW/Hillside Cir NW
185,44.774269,-93.527916,Breton St/Morab Ave
499,44.727079,-93.437661,Schroeder Cir NE
445,44.775130,-93.410129,Crossings Blvd
362,44.797787,-93.516217,Minnesota St S/3rd Ave E
185,44.775106,-93.407299,Stagecoach Rd
246,44.774871,-93.334396,126th St W/Joppa Ave S
160,44.690525,-93.450126,Wedgewood Ln
185,44.633004,-93.382807,Kane Ave
216,44.704921,-93.430390,Maplewood St SE//Duluth Ave SE
185,44.735347,-93.438554,Cherry Ct NE/Coachman Ln NE
276,44.730880,-93.385793,151st St/Zinran Ave/Zinran Ct
160,44.755892,-93.329291,W 137th St/Glenhurst Ave
362,44.738025,-93.351849,Oak View Ct
160,44.626480,-93.398577,Winker Ln
160,44.788321,-93.499593,10th Ave E/Merrifield St
552,44.723569,-93.478744,154th St W
246,44.762495,-93.377706,133rd St W
362,44.682839,-93.640909,Chandler Ct
160,44.620841,-93.762435,S Elm St/E Prairie St
276,44.795011,-93.515730,Minnesota St S
418,44.544617,-93.561483,1st St NE/Co Rd 37
185,44.608210,-93.757069,Heritage Trl
185,44.648217,-93.639355,Trellis St/Jasmine Ln
305,44.558610,-93.580375,History Ct NW
579,44.713696,-93.424430,Eagle Creek Ave SE/Main Ave SE
216,44.746753,-93.419071,140th St NE
216,44.689058,-93.489990,Langford Blvd
185,44.560737,-93.333366,Cambridge Ln
276,44.783668,-93.412900,/Cord18 To Nb Hwy169
246,44.792254,-93.526602,7th Ave W/Fuller St S
276,44.766322,-93.485348,Lahoma Ct
246,44.547618,-93.559421,3rd St NE/Lady Slipper Ave NE
160,44.784602,-93.484918,Eagle Creek Blvd
605,44.755710,-93.354663,W 137th St/Zarthan Ave S
185,44.735683,-93.434898,Canter Ln NE/Coachman Ln NE
246,44.740221,-93.588015,Johnson Memorial Dr/145th St W
160,44.688443,-93.460288,Fairlawn Ave/180th St E
362,44.664457,-93.617032,Lydia Rd/Homestead Dr
185,44.730034,-93.493213,Marschall Rd/Eaglewood Ln
418,44.781008,-93.522239,Alexander Ct/Foxglove Ln
246,44.750325,-93.336977,139th St W
362,44.778018,-93.329783,Glenhurst Ave
658,44.707313,-93.430618,Anna Trl SE/Duluth Ave SE
216,44.736262,-93.352637,Yosemite Ave S
185,44.724012,-93.442576,Skyline Ave NW/Marsh St NW
160,44.675067,-93.638475,Valley View Dr/Creek Ln N
276,44.785995,-93.550665,11th Ave W/Tyler St S
943,44.746361,-93.375007,Egan Dr/Quebec Ave
160,44.584686,-93.297611,I- 35
216,44.782413,-93.483274,Pine Tree Ln/Vierling Dr E
276,44.735007,-93.429399,Manitou Rd NE
246,44.739904,-93.456210,Wilds Rdg Ct NW
185,44.757622,-93.388500,Carriage Hill Rd
160,44.700978,-93.415412,Wilderness Cir
160,44.700138,-93.454126,Spruce Trl SW/Sunrise Ave SW
305,44.658128,-93.630502,Hillside Dr/Park Dr
891,44.772383,-93.513226,Colonial St/Newport Ave
160,44.750418,-93.450929,Thunderbird Cir
305,44.701955,-93.408303,Deerfield Dr
736,44.778472,-93.335549,123rd St W
160,44.551063,-93.581132,7th St NW
160,44.557717,-93.851244,Johnson Memorial Dr
246,44.798340,-93.520739,Fillmore St S/2nd Ave E
160,44.648265,-93.646537,Stonebridge Path/Stone Creek Dr
185,44.731982,-93.368893,Louisiana Ave S/150th St W
552,44.774596,-93.494091,Dublin Trl W/Dublin Ln/Dublin Trl
216,44.744703,-93.337468,River Bend Pl
185,44.792291,-93.414048,/Co Hwy 101
865,44.740224,-93.376268,Parkridge Ln/Quebec Ave
160,44.711136,-93.484502,Belmont Ave NW
160,44.730030,-93.387703,Journey Ln
160,44.722367,-93.435512,Calmut Ave NE/Grainwood Cir NE
185,44.767339,-93.492739,Pheasant Run St/Ponds Way
185,44.698432,-93.399133,Revere Way
276,44.762581,-93.481687,Asarum Ct
160,44.738676,-93.375141,Quebec Pl
305,44.772151,-93.409054,Riverside Dr/Grove Dr
472,44.746655,-93.346672,/Egan Dr
185,44.775236,-93.342658,126th St W
362,44.665617,-93.629026,Sunset Dr
216,44.731634,-93.343532,Bridgewater Dr
185,44.747764,-93.520460,/Townline Ave
305,44.778855,-93.353011,Xenwood Ave/State Hwy 13
185,44.764554,-93.498252,Valley View Rd/Mathias Rd
160,44.620075,-93.290517,228th St E/Pinto Ln
246,44.730966,-93.347144,Bridgewater Ct
160,44.702067,-93.427268,Woodview Ct SE/Toronto Ave SE
160,44.585312,-93.288335,Pillsbury Ave
160,44.575003,-93.352340,Maverick Ave/Brady St
276,44.793645,-93.524016,6th Ave E/Lewis St S
160,44.562613,-93.337588,Fairway Hill Dr
305,44.733174,-93.334083,Hanrehan Lake Blvd/Hanrehan Trl/River Xing
216,44.716112,-93.398195,White Dr
216,44.777961,-93.548814,Sandstone Curve
276,44.739481,-93.460204,Wilds Rdg Ct NW/Wilds Pkwy NW
216,44.764840,-93.329286,Glenhurst Ct/Glenhurst Ave
552,44.797673,-93.525018,Lewis St S/2nd Ave E
185,44.674990,-93.628119,Hanover Ct
631,44.674578,-93.631968,Maple Dr/Evergreen Ln/Evergreen Cir
160,44.548921,-93.566735,NE Highland Dr/5th St NE
216,44.743497,-93.398274,Shady Beach Trl NE/Bayview Cir NE
276,44.752164,-93.340957,Ottawa Ave/W Hidden Valley Dr
246,44.781402,-93.533535,Applewood Way
185,44.760956,-93.384241,133 St
246,44.668367,-93.626060,3rd St E/Broadway St N
185,44.572568,-93.542404,Redwing Ave/W 260th St/260th St W
305,44.778956,-93.375555,State Hwy 13
246,44.776340,-93.541241,Shakopee Byp
160,44.598191,-93.338634,Natchez Ave
160,44.740107,-93.428727,Pike Lake Trl NE/Hummingbird Trl NE
246,44.607828,-93.763215,S Walnut St/E Evergreen St
334,44.661817,-93.637705,Cedar Lane Dr/Sunset Dr
160,44.779230,-93.554323,Quarry Ln/Slate Ave
390,44.699570,-93.414279,Deerfield Dr/Fish Point Rd
276,44.750858,-93.384378,139th St W/West Virginia Ct
160,44.600302,-93.285846,Black Walnut Dr/241st St E
160,44.560978,-93.333864,Cambridge Ln
246,44.766653,-93.396814,Preserve Alcove
160,44.753817,-93.353418,138th St W/Yosemite Ave S
839,44.732447,-93.467917,Pheasant Run Ct NW
185,44.664812,-93.630020,Park Dr/Sunset Dr
160,44.594693,-93.303347,Logan Ave/245th St E
185,44.794480,-93.525715,5th Ave E/5th Ave W/Holmes St S
185,44.672578,-93.633396,Johnson Memorial Dr
362,44.602222,-93.788322,Johnson Memorial Dr
362,44.799649,-93.525850,Levee Dr E
246,44.790262,-93.490560,Cascade Dr/Affirmed Dr
276,44.746258,-93.394029,Conroy St NE/Shady Beach Trl NE
631,44.668406,-93.630396,3rd St W/West St N
185,44.703115,-93.459110,Spring Lake Rd SW
160,44.682745,-93.463796,/Buck Lake Cir
362,44.744064,-93.364671,Featherstone Trl/Allen Dr
216,44.795756,-93.543760,Co Rd 69
418,44.672844,-93.630488,West St
160,44.703876,-93.447099,Elm Ave SW
160,44.756060,-93.454640,Lois Ln/Little Crow Dr/Walter St
160,44.752599,-93.380444,Utah Ave
1226,44.778985,-93.505322,Marschall Rd
276,44.785163,-93.511533,Goldenrod Ln/Naumkeag St S
216,44.772018,-93.507624,Highpoint Curve
216,44.770337,-93.516802,Valley View Rd E
160,44.556720,-93.574081,A/Heritage Trl NE
185,44.618731,-93.762443,S Elm St/E Park St
334,44.714214,-93.588537,Bluff Dr/Johnson Memorial Dr
185,44.737223,-93.339298,Natchez Ave
305,44.657763,-93.628421,Broadway St S
334,44.774864,-93.336972,Monterey Ave S/126th St W
445,44.699962,-93.410934,/Wilderness Cir SE
305,44.741034,-93.461952,Fox Run NW/Wilds Pkwy NW
160,44.604092,-93.770178,W Century St/Ivy Hills Rd
185,44.735915,-93.368942,Louisiana Ave S/148th St W
216,44.780265,-93.383808,Co Rd 101
160,44.782269,-93.560087,/Frontage Rd
216,44.543544,-93.552625,E Main St
160,44.637721,-93.362998,Bent Tree Cir/Dakota Ave
246,44.735442,-93.372701,Twin Ponds Crv
160,44.778924,-93.525584,Whitney Ave/E Mound St
185,44.709100,-93.394960,Birch Rd/Whitewood Ave
216,44.778102,-93.431343,Windsor Ln/Hartley Blvd S
246,44.778156,-93.371021,Nevada Ave S
185,44.700350,-93.415680,Wilderness Trl SE/Burr Oak Ln
160,44.753810,-93.352825,138th St W/Yosemite Ave S
362,44.745872,-93.405712,Birchwood/Cedarwood St NE
472,44.787109,-93.411026,Shakopee Byp
246,44.723667,-93.480039,154th St W
216,44.748762,-93.369136,Louisiana Ave/Amberwood Ln
1097,44.706795,-93.430398,State Hwy 13/Duluth Ave SE
185,44.751627,-93.377010,Shoreside Ct
160,44.616697,-93.766836,S Chestnut St/E Raven St
334,44.779005,-93.378048,State Hwy 13/Co Hwy 101
216,44.728909,-93.386955,Summit Oaks Bay
276,44.743428,-93.449107,Parkview Ln NW
160,44.709596,-93.487556,165th St E/McKay Ct
160,44.728594,-93.403220,Fulbright Cir SE
185,44.552653,-93.567961,Bernas Ln
710,44.781918,-93.481331,Norway Trl/Pine Tree Ln
305,44.780570,-93.423383,Windsor Dr
160,44.745317,-93.410553,Cedarwood St NE
185,44.797371,-93.502867,4th Ave E
276,44.780647,-93.385536,Zinran Ave/Co Rd 101
185,44.754287,-93.399468,Edgewood Cir
276,44.800429,-93.503753,Cavanaugh Dr
445,44.798749,-93.523806,Sommerville St S
160,44.750691,-93.354389,140th St W/Zarthan Ave S
160,44.648820,-93.542169,Redwing Ave/S Sutton Lake Blvd
305,44.752379,-93.350825,W 139th St/Vernon Ave
472,44.655268,-93.635224,Northland Ct
631,44.741206,-93.341472,Ottawa Ave/S Park Dr
216,44.773761,-93.484925,Independence Dr/17th Ave E
216,44.744424,-93.408522,Cedarwood Trl NE/Crest Ave NE
472,44.746332,-93.376407,Rhode Island Ave/Egan Dr
246,44.778876,-93.499222,Shakopee Byp/
160,44.626203,-93.775502,W Court St/N Elk St
246,44.566249,-93.312119,Oakridge Way/Windrose Curv/Windrose Ct
472,44.676215,-93.631755,Spruce Cir
185,44.744762,-93.427756,Embassy Cir NE
160,44.646367,-93.500852,Langford Ave/Langford Way
552,44.778754,-93.520175,Co Rd 79/E Mound St
362,44.712795,-93.434737,Birch Ave/Pleasant St SE
216,44.761677,-93.479213,Swallowtail Dr/Molina St
246,44.778614,-93.498935,Shakopee Byp/Marschall Rd S To Nb Hwy169
160,44.756608,-93.511242,Langston Ct
390,44.787981,-93.410220,Stagecoach Rd
246,44.755653,-93.543977,Oak Cir
418,44.742546,-93.335487,Kipling Ave S/W 144th St
160,44.616475,-93.778998,Oakwood Cir
499,44.751422,-93.356927,Brunswick Ave S
276,44.767256,-93.581508,Jackson Hts
305,44.756728,-93.344749,136th St W/Quentin Ave S
185,44.761045,-93.359193,Dakota Ave S
276,44.707941,-93.423044,Brunswick Ave SE/Dublin Rd SE
185,44.785211,-93.491778,Park Ridge Dr/Hauer Trl
160,44.619167,-93.673568,Delaware Ave/228th St W
160,44.564431,-93.451793,Boulder Trl
185,44.715457,-93.410880,Bounty St SE/Fillmore Ave SE
216,44.736938,-93.364167,147th St W/Idaho Ave S
305,44.779239,-93.377998,State Hwy 13/Co Rd 101
160,44.561144,-93.580756,Speech St NW/Art St NW
185,44.698358,-93.457621,Fairview Rd SW
305,44.776000,-93.540565,Shakopee Byp/Marystown Rd
246,44.763818,-93.475386,Sandhill Dr/Whitetail Dr/Winterberry Ln
185,44.745075,-93.462227,Cougar Path NW/Woodchuck Trl NW
160,44.682775,-93.343811,Lone Oak Ct
216,44.731947,-93.377161,Sumter Ave S/150th St W
216,44.801444,-93.504223,Co Hwy 101/Co Rd 101/1st Ave E
160,44.785574,-93.513544,Dakota St S/Goldenrod Ln
185,44.748864,-93.396840,Hillsboro Ct
160,44.626827,-93.440211,Panama Ave
305,44.799145,-93.469939,Valley Industrial Blvd N/Canterbury Rd
216,44.702434,-93.453524,Sunrise Ave SW/Balsam St SW
246,44.618723,-93.760967,S Linden St/E Park St
216,44.708083,-93.412418,Credit River Rd SE/Fish Point Rd
160,44.752748,-93.491219,Wolf Ridge Ave/Wood Duck Trl
579,44.741350,-93.423190,Bluebird Trl NE/Partridge Ct NE
246,44.797361,-93.506185,4th Ave E/Shawnee Trl
334,44.675245,-93.624478,/Johnson Memorial Dr
216,44.764497,-93.349932,132 St W/W 132nd St
185,44.737294,-93.375650,Sumter Ave S/Twin Ponds Curv
185,44.775321,-93.373784,Pennsylvania Ave S/126th St W
216,44.722394,-93.449169,Island View Rd NW/Fremont Ave NW
1174,44.783025,-93.469704,/Canterbury Rd
216,44.772345,-93.500197,Sarazin St/French Trace Ave
445,44.738902,-93.349974,Oak View Ct
160,44.701310,-93.427357,Toronto Ave SE
216,44.703102,-93.379481,170th St E/Texas Ave
246,44.775028,-93.522629,Tarpan St/Pottok Ln
362,44.727848,-93.456004,Wild Turkey Ct NW/Wood Duck Trl NW
305,44.772972,-93.560999,Old Brick Yard Rd
160,44.766928,-93.480786,Staghorn Dr
185,44.790114,-93.512472,Prairie St S/Shakopee Ave E
185,44.741485,-93.455758,Wilds Rdg Ct NW
