Estimated daily crossings,Latitude,Longitude,Name
276,40.806988,-96.717345,H St/S 3rd St
160,40.842932,-96.755659,NW 25th St
276,40.835200,-96.620719,Leighton Ave/Ammon Ave
216,40.778722,-96.664504,S 39th St/Sheridan Blvd
2247,40.822785,-96.682206,W St/N 27th St
160,40.802567,-96.665640,S 38th St/D St
185,40.745204,-96.704674,Sundance Dr
445,40.815238,-96.672836,Q St/N 33rd St
160,40.757362,-96.679176,Moor Dr
1149,40.803021,-96.682255,S 27th St/Alpha St
160,40.965984,-96.761575,NW 30th St
334,40.838577,-96.702325,Cornhusker Hwy
390,40.825742,-96.641798,Abbey Ct
499,40.784422,-96.651360,Van Dorn St/S 51st St/S 51st Ct
362,40.798890,-96.675177,A St/Capitol Pkwy
216,40.740321,-96.614802,State Hwy 2
305,40.805804,-96.693370,G St
216,40.813730,-96.739742,W O St/Capitol Beach Blvd
605,40.860895,-96.677197,N 31st St
185,40.798572,-96.770511,Timber Ridge Cir
216,40.839674,-96.728328,W Belmont Ave
1149,40.826636,-96.706934,N 10th St/New Hampshire St
185,40.711703,-96.463834,S 190th St/Rokeby Rd
334,40.862501,-96.715970,Purple Heart Hwy
362,40.785821,-96.707185,I- 180/Hill St
526,40.798109,-96.705626,Washington St/S 11th St
160,40.793914,-96.730227,S Folsom St
246,40.836661,-96.712107,Cornhusker Hwy/I- 180
362,40.810065,-96.625186,S 70th St/L St
445,40.774877,-96.704690,Pioneers Blvd/State Hwy 2
276,40.755354,-96.679601,Briar Rosa Dr/Old Cheney Rd
362,40.796889,-96.671434,Normal Blvd
246,40.780369,-96.695167,Woodsshire Pkwy/Kings Hwy
216,40.803168,-96.606493,Carriage Way
658,40.813605,-96.711857,O St
160,40.657737,-96.658597,Main St/E St
160,40.758399,-96.663359,S 40th St/Wildbriar Ln
185,40.786820,-96.695732,Harrison Ave
334,40.801730,-96.741256,Homestead Expy
246,40.859768,-96.736447,W Britt Dr/NW Fairway Dr
305,40.916311,-96.528330,Cornhusker Hwy/N 142nd St
362,40.835135,-96.778504,W Thatcher Cir
390,40.850222,-96.709934,N 8th St/Benton St
246,40.657734,-96.659884,Main St/D St
246,40.771820,-96.678379,Teri Ln/Mark Ave
160,40.811443,-96.718801,M St/S 2nd St
160,40.758942,-96.597080,S 90th St/Turnberry Cir
736,40.805381,-96.699722,Goodhue Blvd/S 15th St
160,40.718982,-96.575647,State Hwy 2
160,40.914358,-96.535979,Guildford St/N 136th St
334,40.798254,-96.742755,SW 15th St/W Washington St
390,40.791525,-96.612120,S 80th St/Teal Cir
246,40.769713,-96.629306,Pioneers Blvd
276,40.740702,-96.640442,Kentwell Ln
472,40.769609,-96.625109,S 70th St/Pioneers Blvd
1046,40.851689,-96.687391,Irving St/N 23rd St
418,40.843563,-96.653658,N 48th St/Greenwood St
579,40.808044,-96.686511,S 24th St/J St
185,40.790335,-96.641556,S 58th St/Newton St
390,40.769858,-96.671635,Pioneers Blvd/Southgate Blvd
334,40.812561,-96.660891,S 42nd St/N St
305,40.805899,-96.719579,G St
216,40.788960,-96.682484,S 27th St/Park Ave
605,40.811537,-96.752077,Magnum Cir/Magnum Ct
216,40.771166,-96.640592,S 59th Street Ct
216,40.815594,-96.740996,W Q St/NW 13th St
362,40.731328,-96.666124,Pamilla Ln/Pablo Ln
185,40.909095,-96.867200,Harriet Cir
334,40.754509,-96.606102,/S 84th St
216,40.806583,-96.611248,Sandalwood Dr/Driftwood Dr
246,40.684536,-96.508954,Jefferson St/Birch St
160,40.850532,-96.788067,NW 49th St/W Luke St
334,40.759203,-96.653725,State Hwy 2/S 48th St
160,40.885760,-96.586419,Cornhusker Hwy/N 98th St
526,40.869713,-96.725243,NW 2nd Cir/W Fletcher Ave
216,40.850971,-96.658874,N 44th St/Colfax Ave/Colfax Cir
216,40.852803,-96.624868,N 70th St/Kearney Ave
185,40.857216,-96.649106,Superior St/N 52nd St
216,40.770646,-96.671632,Daniel Rd/Southgate Blvd
160,40.864610,-96.674771,Chariot Dr
813,40.804749,-96.704097,F St/S 12th St
472,40.812849,-96.751873,W N St
160,40.757930,-96.629485,S 68th Street Ct/S 68th St/Brushwood Ln
305,40.755253,-96.647312,S 53rd St
631,40.827112,-96.672859,N 33rd St/Starr St
185,40.850200,-96.705963,Benton St/N 11th St
334,40.789451,-96.748681,SW 19th St/W Jean Ave
160,40.755197,-96.588208,Old Cheney Rd
390,40.870407,-96.727223,NW 4th St/W Beal St
185,40.869390,-96.685785,Atwood Cir
216,40.804174,-96.730180,S Folsom St
552,40.867543,-96.705122,Turtle Creek Rd/N 11th St
305,40.782634,-96.706289,S 10th St
334,40.762871,-96.641583,Deerwood Dr/Dogwood Dr
305,40.833475,-96.675779,N 32nd St/Center St
160,40.742650,-96.602962,Rutherford Dr/S 86th St
160,40.619994,-96.626953,Lindale Cir/E 2nd St
305,40.793867,-96.624979,S 70th St/Lincolnshire Rd
160,40.769841,-96.668621,Pioneers Blvd/S 36th St
362,40.859984,-96.693732,Boston Cir/Preamble Ln
216,40.858867,-96.620037,Burlington Ave
185,40.783691,-96.618662,Wren Cir
1407,40.829190,-96.669665,N 35th St/E Campus Loop
305,40.761948,-96.690615,Goldenrod Cir/Grassridge Rd/Goldenrod Ln
579,40.727663,-96.669563,S 35th St/McLaughlin Dr
1511,40.822601,-96.694693,N Antelope Valley Pkwy
160,40.832230,-96.792603,NW 52nd St/W Partridge Ln
216,40.764635,-96.606138,Kathy Ln/S 84th St
305,40.849946,-96.728572,I- 80
246,40.816406,-96.633025,Q St
526,40.813420,-96.660896,O St/S 42nd St
160,40.822896,-96.631916,N 65th St/X St
813,40.810263,-96.693869,S 19th St/L St
216,40.740149,-96.672313,S 33rd St
334,40.838289,-96.672810,Baldwin Ave/N 33rd St
276,40.840292,-96.727125,NW 6th St/Gaslight Ln
185,40.748123,-96.606084,S 84th St
658,40.842508,-96.739643,/NW 12th St
334,40.787143,-96.646570,S 54th St/Myrtle St
499,40.843246,-96.622257,Greenwood Ct
276,40.852936,-96.704849,Lewis Ave/Elba Ave
445,40.812632,-96.672833,S 33rd St
472,40.795738,-96.623503,Sumner St/Sumner Pl
552,40.855118,-96.690317,Booth Cir/N 21st St
276,40.747748,-96.683249,Lone Tree Cir
216,40.839068,-96.631613,N 65th St
246,40.845537,-96.651046,N 50th St/Judson St
305,40.831641,-96.679565,Fair St/N 29th St
185,40.752404,-96.708877,Creekside Trl/Warlick Blvd
499,40.843831,-96.704788,Nelson St/Lewis Ave
276,40.779883,-96.622644,Sandford Ln
216,40.719227,-96.679480,S 29th St
160,40.795026,-96.740686,SW 12th St/W Arlington Ave
276,40.823332,-96.604515,N 86th Street Ct
246,40.831796,-96.686842,Whittier St/Fair St
1278,40.816363,-96.651495,N 50th St/Central Park Dr
499,40.830121,-96.601840,N 87th St/Delphinium Ln
2950,40.810300,-96.702620,S 13th St/L St
813,40.814866,-96.606064,N 84th St
418,40.792609,-96.702673,S 13th St/Plum St
736,40.811361,-96.693865,M St/S 19th St
390,40.834569,-96.683058,N 26th St
160,40.762361,-96.685801,Cheshire Ct S
276,40.746180,-96.672314,Manassas Pl
160,40.842877,-96.748727,N Park Rd/W Adams St
185,40.863698,-96.638038,Cornhusker Hwy
216,40.801658,-96.658471,C St/S 44th St
185,40.753474,-96.661750,S 41st St/Kipling Pl
334,40.834163,-96.624961,Garland St/N 70th St
216,40.791769,-96.738403,W South St
185,40.769897,-96.678452,Pioneers Blvd/Teri Ln
788,40.816859,-96.682238,R St/N 27th St
631,40.846547,-96.640190,Gladstone St/Touzalin Ave
994,40.803944,-96.682329,S 27th St/E St
605,40.740884,-96.673746,S 32nd St/Pine Lake Rd
445,40.846557,-96.705941,Groveland St/N 11th St
216,40.915702,-96.526343,Ivanhoe St
185,40.835118,-96.788296,W Thatcher Ln/NW 49th St
762,40.880974,-96.681828,N 27th St
216,40.622573,-96.626031,Stagecoach Ave/Conestoga Ave
390,40.808109,-96.715763,J St
246,40.796944,-96.745825,W Sumner St/Westland Cir
736,40.854270,-96.687372,Dodge St/N 23rd St
276,40.895125,-96.565308,I- 80/
160,40.775761,-96.731398,W Stockwell St
216,40.866433,-96.701915,N 13th St/Hawkfly Rd
390,40.769738,-96.605970,Pioneers Blvd
160,40.818464,-96.612915,Indian Rd/Trail Ridge Rd
968,40.826976,-96.630558,N Cotner Blvd
160,40.653888,-96.838498,SW 86th St/W Roca Rd
710,40.831636,-96.682113,Fair St/N 27th St
276,40.832739,-96.635772,Donald St
185,40.792333,-96.771123,Timber Ridge Rd/W Plum St
216,40.852040,-96.655627,Colfax Cir
276,40.920043,-96.531141,Newgate Ct
185,40.795699,-96.755896,W Apricot Ln/SW 26th St
246,40.840218,-96.708769,Garber Ave/N 9th St
362,40.728602,-96.682521,S 27th St/Jamie Ln
185,40.856377,-96.705599,Kent St/Grandview Blvd
160,40.835287,-96.675789,Leighton Ave/N 32nd St
762,40.819648,-96.709931,N 8th St
762,40.820752,-96.642916,N 57th St/Vine St
362,40.846202,-96.648443,Gladstone St/N 52nd St
216,40.846546,-96.633058,N 64th St/Gladstone St
185,40.785817,-96.705607,Hill St/S 11th St
276,40.793707,-96.702782,Peach St/S 13th St
418,40.744962,-96.677096,Alamosa Dr/S 30th St
276,40.753575,-96.611714,S 80th St/S 81st St
246,40.798029,-96.663282,Washington St/S 40th St
334,40.732509,-96.698836,Chloe Ln/S 16th St
216,40.800765,-96.668056,Mohawk St/S 37th St
390,40.738455,-96.644341,S 56th St/Red Rock Ln/Boboli Ln
246,40.814327,-96.787639,/NW 48th St
216,40.769302,-96.669550,Allendale Ct
390,40.811698,-96.653711,S 48th St
305,40.787978,-96.681292,Stratford Ave/Calumet Ct
185,40.815232,-96.674634,Q St/N 32nd St
276,40.760393,-96.673410,S 32nd St/Sequoia Dr
160,40.821764,-96.668078,Fontenelle St/W St
362,40.872165,-96.692150,Breckenridge Dr/N 19th St
216,40.845374,-96.688102,Judson St/N 23rd St
216,40.732233,-96.701526,Infinity Rd/S 14th St
216,40.763580,-96.672883,Serenity Cir
216,40.792612,-96.688400,S 23rd St/Harwood St
276,40.841991,-96.703869,N 12th St/Butler Ave
472,40.779210,-96.702823,S 13th St/Arapahoe St
160,40.786895,-96.731951,Folsom Byp/W Van Dorn Rd
160,40.877743,-96.731638,Fallbrook Blvd
216,40.794747,-96.604446,Norval Rd
160,40.846089,-96.791259,W Craw St
3699,40.815866,-96.708468,Q St/I- 180
160,40.794062,-96.619385,Lincolnshire Rd/Saint James Rd
185,40.754785,-96.678554,Londonshire Ct
499,40.809176,-96.696769,S 17th St/K St
216,40.907797,-96.501776,I- 80/N 162nd St
418,40.824892,-96.630574,Orchard St/N 66th St
216,40.741400,-96.656663,Elk Ridge Rd/Ash Hollow Ln
305,40.767053,-96.651451,S 50th St/Spruce St
246,40.813797,-96.758883,W O St/SW 27th St/NW 27th St
160,40.818224,-96.624349,Carol Cir
526,40.857301,-96.691060,N 20th St/Superior St
390,40.854891,-96.639912,Morrill Ave/Touzalin Ave
1097,40.827193,-96.710855,7th St
246,40.740265,-96.671543,S 33rd St/Phoenix Dr/S 34th St
658,40.871638,-96.723791,/NW 2nd Cir
216,40.753198,-96.624340,Culwells Ct
334,40.817109,-96.656930,R St/N 44th St
276,40.792616,-96.705658,Plum St/S 11th St
276,40.813730,-96.752821,W O St
362,40.751247,-96.700867,Old Farm Cir
276,40.801675,-96.654977,S 47th St/Hill Dr
185,40.773979,-96.649286,Cooper Ave/S 52nd St
362,40.871207,-96.689874,N 21st St/Greenspire Dr
185,40.853836,-96.705920,Vale St/N 11th St
3587,40.856486,-96.682139,Northview Rd/N 27th St
160,40.813065,-96.567713,N 112th St/O St/S 112th St
185,40.822306,-96.626729,W St/Bethany Park Dr
305,40.907642,-96.865305,Lincoln St/2nd St
246,40.800300,-96.702743,S 13th St/B St
445,40.749760,-96.666380,/Faulkner Dr
865,40.868197,-96.701271,Turtle Creek Rd
1798,40.840297,-96.649748,N 51st St/Madison Ave
579,40.837253,-96.683531,N 26th St/Kimarra Pl/Kimco Ct/Kimco Dr
160,40.788047,-96.672823,Lake St/S 33rd St
185,40.815470,-96.676275,Q St/N 31st St
839,40.827138,-96.701281,Claremont St/N 14th St
276,40.840721,-96.619667,N 75th St/Cleveland Ave
418,40.799194,-96.701399,A St/S 14th St
526,40.856721,-96.690960,Bilmar Cir
1046,40.857640,-96.643362,Cornhusker Hwy/Superior St
445,40.852013,-96.701098,Irving St/N 14th St
813,40.808084,-96.704075,S 12th St/Lincoln Mall
185,40.823732,-96.611426,Leo Ln/N 80th St
362,40.827090,-96.677629,N 30th St/Starr St
362,40.849359,-96.718358,Fairfield St
736,40.862554,-96.699067,Indigo Rd/N 15th St
472,40.849061,-96.701122,Fairfield St/N 14th St
216,40.704586,-96.647118,Liberty Ln/Dawn Ave
276,40.627109,-96.624558,E 9th St/Columbine Cir
305,40.837228,-96.670818,Huntington Ave
334,40.789389,-96.663280,S 40th St
605,40.824431,-96.689404,Stewart St/Y St
552,40.768807,-96.672873,S 33rd St/S 33rd Ct/State Hwy 2
216,40.862819,-96.737454,NW 12th St
552,40.770318,-96.690328,Kessler Blvd
185,40.918590,-96.534310,Kenilworth St/N 137th St
305,40.773629,-96.702210,S 13th St
160,40.876367,-96.671263,River Dr/River Cir
185,40.718423,-96.681620,Keystone Dr
813,40.878814,-96.682150,Whitehead Dr
305,40.880346,-96.698350,N 16th St/Frisco Dr
362,40.817031,-96.640729,R St/N Cotner Blvd
160,40.779402,-96.680084,S 29th St/Sherman St
305,40.846816,-96.624279,Hook Dr/Eagle Dr
185,40.739666,-96.646496,Stephanie Ln
1020,40.826245,-96.653720,N 48th St/Dudley St
160,40.864102,-96.692831,Morton Ct
246,40.814155,-96.621164,W Rio Rd/Prestwick Rd
246,40.834199,-96.620024,Garland St/Ammon Ave
185,40.754902,-96.591380,Mortensen Ct
276,40.811057,-96.681009,M St/S 28th St
216,40.823468,-96.656136,N 46th St
276,40.740661,-96.573598,/Pine Lake Rd
185,40.850980,-96.661864,Colfax Ave
160,40.744013,-96.649672,Happy Hollow Ln/S 51st St
968,40.810313,-96.708497,Capitol Pkwy W/I- 180/L St
552,40.764452,-96.625275,S 70th St
160,40.792691,-96.618553,Dover Ct
246,40.844116,-96.667635,Cornhusker Hwy/N 37th St
160,40.793302,-96.610686,Pinedale Ave/Iris St
276,40.844549,-96.647145,Knox St/N 53rd St
160,40.950473,-96.795758,NW 56th St
160,40.757795,-96.619704,Karl Dr
160,40.813886,-96.840109,W O St
276,40.805245,-96.627705,Foxcroft Ct
276,40.799638,-96.645058,Ellendale Rd
276,40.812570,-96.668298,S 37th St/N St
160,40.801987,-96.657207,Hill Dr
160,40.530993,-96.605630,1st St/Main St
246,40.748461,-96.629791,State Hwy 2/S 66th St
216,40.836448,-96.717150,N 3rd St/Countryside Ln
185,40.733392,-96.665760,S 38th St
246,40.736507,-96.644103,Thompson Creek Blvd
390,40.815896,-96.618670,Steinway Rd/N 75th St
526,40.820766,-96.647696,Vine St/Mahoney Dr
246,40.812265,-96.681001,S 28th St/N St
246,40.825914,-96.631890,N 65th St/Dudley St/N Cotner Blvd
160,40.918411,-96.529643,Lancashire St/N 141st St
658,40.796217,-96.682484,S 27th St/Garfield St
1278,40.812858,-96.624990,S 70th St
788,40.861045,-96.699710,Hilltop Rd/N 15th St
499,40.842499,-96.613863,Adams St/N 80th St
185,40.872146,-96.727484,NW 4th St/NW 5th St/W Joel St
276,40.807071,-96.718755,Capitol Pkwy W
160,40.783192,-96.749368,S Coddington Ave
472,40.857634,-96.714113,I- 180
246,40.769740,-96.644226,Pioneers Blvd/S 56th St
605,40.816365,-96.608265,Trailridge Ct/Russwood Blvd
334,40.858006,-96.789038,NW 50th St/W Superior St
276,40.873559,-96.720188,N 1st St
216,40.795134,-96.763204,W Arlington St/SW Derek Ave
472,40.809082,-96.712956,S 6th St/Capitol Pkwy W/K St
305,40.765525,-96.620350,Thomasbrook Ct/Thomasbrook Ln
160,40.930627,-96.501714,N 162nd St
305,40.856964,-96.623595,Havelock Ave/N 71st St
362,40.789573,-96.739797,SW 12th St/W Jean Ave
472,40.828640,-96.699811,N Antelope Valley Pkwy/Rudolph St
160,40.700610,-96.651174,Cromwell Dr/Braemer Rd
2194,40.840295,-96.645845,N 54th St/Madison Ave
160,40.857497,-96.783404,W Superior St/NW 45th St
185,40.654070,-96.866952,W Roca Rd
216,40.865274,-96.641693,Johanna Rd
499,40.857056,-96.637170,Havelock Ave/N 61st St
160,40.906376,-96.532809,Bailie St
216,40.755253,-96.612538,S 80th St/Old Cheney Rd
362,40.812517,-96.709964,S 8th St/N St
631,40.826668,-96.711412,New Hampshire St
160,40.752947,-96.648522,S 52nd St/English Dr
185,40.825319,-96.614318,N 78th St/W Avon Ln
216,40.841819,-96.614799,N 79th St/Regent Dr
276,40.797304,-96.720602,Garfield St/S 1st St
160,40.813737,-96.796783,W O St
160,40.793485,-96.680014,S 28th St/Franklin St
160,40.846201,-96.645067,Gladstone St/Richmond Rd
160,40.873842,-96.687904,Gunnison Ct/Gunnison Dr
276,40.794591,-96.647744,S 53rd St/Oldham St
305,40.844604,-96.695321,Knox St
185,40.727904,-96.757442,W Ridgewood Blvd
185,40.729029,-96.604325,S 86th St/Dewitt Rd
246,40.791221,-96.666863,S 38th St
246,40.803566,-96.678825,S 29th St/E St
1174,40.839046,-96.682092,N 27th St/Theresa St
160,40.841285,-96.638916,N 60th St/Cleveland Ave
160,40.748430,-96.614047,Nob Hill Rd/Pebblebrook Ct
246,40.802570,-96.669258,S 36th St/D St
160,40.749802,-96.631993,State Hwy 2
390,40.810754,-96.663278,Lenox Ave/S 40th St
1798,40.824502,-96.697056,N Antelope Valley Pkwy
305,40.837338,-96.670979,Huntington Ave
216,40.660911,-96.705377,Winch Way/S 12th St
334,40.784556,-96.728331,SW 6th St/W Prospector Ct
246,40.735451,-96.655012,Union Hill Rd/Birch Creek Dr
160,40.775296,-96.665262,S 39th St/Stockwell Ct/Stockwell St
185,40.823526,-96.690003,Mopac Trl/N 22nd St
526,40.851346,-96.653621,N 48th St
305,40.811416,-96.709969,M St/S 8th St
334,40.888314,-96.679192,I- 80
160,40.758243,-96.600084,Troon Dr/Sawgrass Dr
160,40.639260,-96.686540,S 25th St/Martell Rd
160,40.778725,-96.676371,Hanson Ct
216,40.843559,-96.641517,Greenwood St/N 58th St
246,40.794891,-96.691938,S 20th St/Prospect St
185,40.805130,-96.732385,Capitol Pkwy W
390,40.836633,-96.727624,W Saunders Ave/NW 6th St
160,40.723468,-96.646170,S 55th St
246,40.814286,-96.760551,Micron Dr/NW 28th St
246,40.877871,-96.702964,Petunia Ln
246,40.794833,-96.630567,Broadmoore Dr/Rusty Ln
160,40.866608,-96.775317,NW 38th St
185,40.867814,-96.624576,N 70th St/Burt St
185,40.777471,-96.834712,SW 84th St
160,40.871670,-96.718210,Fletcher Ave
658,40.812429,-96.685256,S 25th St/N St
160,40.841848,-96.715606,N 3rd St/Candlewood Ln
334,40.814488,-96.677601,P St/N 30th St
305,40.838292,-96.656263,N 46th St/Baldwin Ave
305,40.794914,-96.699694,Rose St/S 15th St
160,40.794592,-96.725655,Blue Heron Ct
526,40.865983,-96.690754,Shooting Star Dr/N 20th St
305,40.825306,-96.685829,Orchard St/N 24th St
305,40.813552,-96.621237,Mopac Trl
390,40.841281,-96.661472,N 42nd St/Cleveland Ave
185,40.783134,-96.680010,S 29th St/Georgian Ct
865,40.840300,-96.634565,N 63rd St/Madison Ave
216,40.853003,-96.623555,Kearney Ave/N 71st St
334,40.730686,-96.666115,Pamilla Ln/Cabo Dr
305,40.806602,-96.605906,Sandalwood Dr/S 84th St
160,40.624992,-96.501888,S 162nd St
160,40.733358,-96.692500,S 21st St/Vavrina Ln
216,40.777112,-96.668894,Loveland Dr/Calvert St
276,40.835922,-96.780858,W Leighton Ave/NW 43rd St
160,40.737804,-96.850255,W 3rd St
334,40.800858,-96.747543,W C St
185,40.821212,-96.853766,W Vine St/NW 98th St
4787,40.820295,-96.701010,N 14th St
160,40.792619,-96.642846,Saylor St/S 57th St
390,40.868953,-96.739123,W Carnoustie Ct
246,40.761231,-96.676330,Topaz Ct/Diadem Dr
246,40.799256,-96.719395,A St/S 2nd St
418,40.806985,-96.685235,H St/S 25th St
185,40.777102,-96.664512,S 39th St/Calvert St
160,40.848639,-96.726822,NW Gum Ct
390,40.731140,-96.684734,S 25th St/Alana Ln
362,40.789227,-96.653711,Glade St/S 48th St
362,40.770803,-96.656804,S 46th St/Meredeth St
334,40.766031,-96.701447,Center Park Rd/Dairy Dr/S 14th St
246,40.811059,-96.679673,M St/S 29th St
160,40.786865,-96.748523,Patterson Ct
276,40.799792,-96.756236,Timber Lake Dr
216,40.871342,-96.643625,N 56th St/Fletcher Ave
334,40.841162,-96.619665,N 75th St/Ali Dr
499,40.838924,-96.680776,State Fair Park Dr/Theresa St
160,40.912124,-96.516576,Folkstone St
788,40.832855,-96.608481,Oshel Ave/Connor St/Connor Pl
445,40.824440,-96.689999,Y St/N 22nd St
185,40.621118,-96.625158,Willard Cir
160,40.830842,-96.618601,Comoy Cir
1046,40.817974,-96.686606,S St/N 24th St
160,40.845407,-96.860658,NW 105th St
216,40.733296,-96.690714,Vavrina Ln
472,40.816282,-96.605964,Blue Sky Dr/N 84th St
445,40.838292,-96.660166,Baldwin Ave/N 43rd St
418,40.755988,-96.653846,S 48th St
1252,40.813401,-96.648929,O St/S 52nd St
917,40.852163,-96.653617,N 48th St/Cornhusker Hwy
160,40.805715,-96.642043,Eastridge Dr/Randolph St
160,40.747630,-96.657910,Birch Hollow Dr
305,40.742804,-96.688891,Ridge Point Rd/Rock Cliff Dr
445,40.837139,-96.710200,Cornhusker Hwy/
472,40.801301,-96.732590,Hanneman Dr/SW 8th St
160,40.625132,-96.744787,Market St
185,40.762936,-96.625277,S 70th St/Forest Lake Blvd
246,40.818112,-96.671520,N 34th St/S St
499,40.817424,-96.743364,W S St/NW 15th St
246,40.773164,-96.712060,S 6th St/Lowell St/Lowell Cir
246,40.841093,-96.613446,Zachary Cir
499,40.846548,-96.641516,Gladstone St/N 58th St
631,40.815783,-96.688063,Q St/N 23rd St
499,40.834130,-96.701313,N 14th St
185,40.619958,-96.633759,Main St/2nd St
185,40.791603,-96.637471,South St/S Knights Ln
865,40.842782,-96.669534,David Murdock Trl
276,40.808088,-96.709986,S 8th St/J St
362,40.823486,-96.660918,N 42nd St
160,40.987386,-96.668778,N 2nd St/Davey Rd
185,40.680796,-96.506008,Quincy St/Elm St
276,40.904434,-96.520890,I- 80/N 148th St
305,40.749547,-96.626454,Northfork Dr/Southfork Cir/S 69th St
160,40.803105,-96.632674,Evergreen Dr/Monticello Dr
160,40.871800,-96.787002,NW 48th St/W Fletcher Ave
418,40.830219,-96.603550,N 86th St/Delphinium Ln
499,40.804727,-96.696797,F St/S 17th St
472,40.794897,-96.693976,S 19th St/Prospect St
246,40.798985,-96.636389,A St/Crestline Dr
216,40.816514,-96.733766,W R St/N Bell St/W R Cir
552,40.844737,-96.704775,Knox St/Lewis Ave
334,40.811009,-96.683750,S 26th St/Steck St
160,40.920719,-96.520925,N 148th St
334,40.811060,-96.678342,M St/S 30th St
216,40.844571,-96.727353,Laramie Cir
185,40.929172,-96.639781,/Waverly Rd
160,40.799244,-96.715970,A St
246,40.752776,-96.664832,Village Dr/Village Ln
658,40.831326,-96.651051,N 50th St/Francis St
499,40.821327,-96.634209,N Cotner Blvd
160,40.758842,-96.680735,Jameson N
246,40.817106,-96.678147,R St/N 30th St
605,40.873907,-96.690270,Colorado Dr
305,40.766189,-96.660390,la Salle St/S 43rd St
160,40.807125,-96.632597,Chesterfield Ct
160,40.746749,-96.656034,Rockwood Ct
185,40.876746,-96.670844,River Cir
216,40.775648,-96.613361,S 78th St/Stockwell St
216,40.856990,-96.629109,Havelock Ave/N 67th St
160,40.785600,-96.657891,E Eden Dr/N Eden Dr
305,40.733268,-96.671436,S 34th St/Whitlock Rd
390,40.846784,-96.626179,N 69th St/N Cotner Blvd
160,40.761234,-96.625279,S 70th St/Glynoaks Dr
1278,40.825270,-96.682315,Orchard St/N 27th St
418,40.813816,-96.742203,W O St/NW 14th St
276,40.791844,-96.710067,S 8th St/South St
472,40.795743,-96.625133,S 70th St/Sumner St
418,40.783472,-96.670435,S 35th St/Otoe St
305,40.780135,-96.608092,Crown Pointe Rd
185,40.770275,-96.611235,Meredeth Ct/S 80th St/Meredeth St
362,40.846203,-96.649744,N 51st St/Gladstone St
216,40.731481,-96.687153,Lauren Marie Cir/Katrina Ln
1097,40.814512,-96.672834,P St/N 33rd St
305,40.768153,-96.682832,S 27th St
1641,40.851571,-96.683525,/N 26th St
246,40.865096,-96.683924,Hollyhock Cir
185,40.730331,-96.682811,Grainger Pkwy
216,40.745257,-96.673503,Denver Ct/S 32nd St
185,40.878891,-96.722413,NW 3rd St/Wildrye Rd
160,40.753774,-96.616343,S 77th St/Far Side Dr
276,40.789157,-96.732662,Homestead Expy
160,40.793594,-96.641545,Franklin St/S 58th St
276,40.821730,-96.647879,Mahoney Dr/Heumann Dr
968,40.828032,-96.667488,N 37th St/Holdrege St
216,40.803946,-96.680013,S 28th St/E St
160,40.845283,-96.790709,W Craw St/W Kingsley St
246,40.737345,-96.689760,22nd St
2705,40.812487,-96.699683,Centennial Mall S/N St
160,40.851258,-96.639914,Touzalin Ave
526,40.795287,-96.652505,S 49th St/Sumner St
968,40.813536,-96.674998,O St
185,40.773729,-96.695656,Burnham St/S 18th St
160,40.955032,-96.814777,NW 70th St
499,40.813973,-96.619771,Glenhaven Dr/W Rio Rd
445,40.794802,-96.701453,Rose St/S 14th St
185,40.797889,-96.766034,W Kyle Ln/SW Lacey Ln
216,40.787002,-96.720681,Van Dorn St
276,40.756962,-96.663363,Briarpark Dr/S 40th St
160,40.808603,-96.596453,Hackberry Ln
418,40.786086,-96.637429,Lillibridge St/Roose St
185,40.802333,-96.606766,Carriage Way/S Hazelwood Dr
968,40.798886,-96.625141,S 70th St/A St
246,40.825894,-96.627826,Dudley St/N 68th St
334,40.872786,-96.732573,W Godfrey Dr/NW 8th St
276,40.799752,-96.645203,Crestdale Rd/Ellendale Rd
160,40.807674,-96.641456,J St/Eastridge Dr
276,40.787297,-96.614176,Larchdale Dr/S 78th St
185,40.871922,-96.738031,NW 12th St/W Fletcher Ave
246,40.752847,-96.594441,Rockland Cir/S 93rd St
390,40.783762,-96.696828,S 17th St/Otoe St
362,40.833397,-96.712144,I- 180
276,40.736448,-96.643628,Thompson Creek Blvd/Crosslake Ln
276,40.864452,-96.710665,N 7th St
305,40.799040,-96.613829,A St/Sycamore Dr
3587,40.813423,-96.631357,O St
276,40.795084,-96.606055,S 84th St
246,40.796782,-96.746367,Westland Cir
276,40.745797,-96.677861,Laredo Dr/S 30th St
185,40.820660,-96.617256,Vine St/Colony Ln
246,40.796971,-96.637901,Everett St/W Manor Dr
1824,40.823583,-96.696153,N Antelope Valley Pkwy/N 17th St
160,40.787995,-96.733083,Folsom Byp
684,40.806200,-96.672838,S 33rd St/Randolph St
526,40.806959,-96.709991,S 8th St/H St
160,40.768166,-96.617513,Laura Lynn Ct
418,40.854891,-96.640185,Morrill Ave/Touzalin Ave
605,40.867889,-96.723703,NW 1st St/W Harvest Dr
631,40.754714,-96.644405,Old Cheney Rd
917,40.840298,-96.654965,N 47th St/Madison Ave
445,40.798884,-96.606100,S 84th St
246,40.792601,-96.680030,S 28th St/Cable Ave
160,40.766821,-96.666919,Spruce St/S 36th St
185,40.845534,-96.634430,N 63rd St/Judson St
276,40.738559,-96.662130,S 41st St/Eagle Ridge Rd
246,40.679002,-96.506628,Monroe St/Garden St
362,40.755366,-96.663368,S 40th St/Old Cheney Rd
160,40.812501,-96.715937,S 4th St
185,40.788949,-96.656368,S 46th St/Normal Blvd
160,40.752142,-96.588998,S 97th St/Beaumont St
246,40.752840,-96.613769,Tobie Ln/Abigail Dr
160,40.737407,-96.607134,Plaza Ct
160,40.875722,-96.669862,River Dr/Saline Dr/Foxglove Ln
445,40.737091,-96.684434,Kendra Ln
160,40.839069,-96.792464,W Goodwin Cir/NW 53rd St
185,40.914871,-96.537666,Canongate Rd
305,40.896064,-96.567753,I- 80
160,40.814703,-96.754121,NW 24th St
305,40.757472,-96.608089,Wendell Way/Betty Lou Blvd
334,40.838289,-96.672916,Baldwin Ave
160,40.761233,-96.624449,Glynoaks Dr/Disbrow Ct
813,40.815759,-96.682396,Q St/N 27th St
216,40.740207,-96.672390,S 33rd St
362,40.843849,-96.707174,N 10th St/Nelson St
185,40.907232,-96.862868,East St
160,40.741509,-96.590572,Laurent Cir
160,40.803712,-96.603843,Indian Hills Dr/Navajo Trl
246,40.817244,-96.787764,I- 80/NW 48th St
216,40.766129,-96.646714,S 54th St/la Salle St
839,40.753919,-96.641384,Old Cheney Rd
246,40.738707,-96.606093,Eiger Dr/S 84th St
216,40.870164,-96.739771,W Webster Rd/NW 14th St/NW 14th Ct
185,40.739794,-96.843588,Austin St
216,40.788065,-96.685470,Lake St/Woodleigh Ln
216,40.804124,-96.632959,Evergreen Dr/Shenandoah Dr
1903,40.820753,-96.653663,N 48th St
1252,40.828019,-96.644136,N 56th St/Holdrege St
216,40.733677,-96.659556,Speidel Ln/San Mateo Ln
334,40.914797,-96.526958,N 143rd St/Heywood St
185,40.742866,-96.645449,Stephanie Ln/Madalyn Rd
216,40.760221,-96.690459,Tipperary Trl/Cameron Ct
160,40.751041,-96.684856,Jane Ln/S 25th St
160,40.821054,-96.892100,NW 126th St
684,40.754471,-96.644286,S 56th St/Old Cheney Rd
276,40.824464,-96.637578,Salisbury Ct
334,40.881279,-96.698342,N 16th St/Flat Iron Cir
2168,40.813483,-96.672782,N 33rd St
160,40.839305,-96.641519,Saint Paul Ave/N 58th St
362,40.827978,-96.637555,N 61st St/Holdrege St
1355,40.813580,-96.685186,N 25th St/S 25th St/O St
160,40.856974,-96.622237,N 72nd St/Havelock Ave
185,40.844768,-96.708949,Knox St
216,40.732809,-96.668213,San Mateo Ln/S 36th St
305,40.844336,-96.665681,N 39th St
185,40.778789,-96.664927,Sheridan Blvd
160,40.778438,-96.676308,Hanson Dr/Hanson Ct/Joy Ct
216,40.755364,-96.661641,Old Cheney Rd
276,40.788033,-96.663283,Lake St/S 40th St
631,40.860690,-96.681957,N View Dr/N 27th St
185,40.741484,-96.655522,Elk Ridge Rd
305,40.809832,-96.654907,S 47th St/L St
160,40.745819,-96.691375,Winding Ridge Ct
185,40.755715,-96.636227,S 62nd St
362,40.846548,-96.704749,Groveland St/Lewis Ave
499,40.828572,-96.696521,N 17th St
445,40.786331,-96.718831,Van Dorn St/Park Blvd
216,40.823870,-96.626525,N 69th St/Y St
246,40.758506,-96.660865,S 42nd Street Ct
276,40.859128,-96.736605,W Dilin St/NW Fairway Dr
216,40.791663,-96.685175,Sheridan Blvd/South St
276,40.848157,-96.661419,Kim St/Bay St
579,40.820597,-96.630563,Vine St/N 66th St
246,40.765746,-96.625237,S 70th St
472,40.812574,-96.641946,S Cotner Blvd/N St
160,40.738581,-96.625347,S 70th St/Revere Ln
418,40.767998,-96.626188,Stacy Ln/Elizabeth Ct
246,40.796379,-96.730218,W Summer Cir/S Folsom St
305,40.840073,-96.683413,Cleveland Ave
917,40.826193,-96.683439,N 26th St/Dudley St
839,40.820677,-96.634185,Vine St
216,40.849256,-96.703516,N 12th St/Fairfield St
216,40.838527,-96.601125,Spur Dr
334,40.814163,-96.752935,NW 23 St/NW 23rd St
658,40.806238,-96.690677,S 21st St/Randolph St
445,40.846477,-96.682193,N 27th St
160,40.757439,-96.631082,Pheasant Run Pl/Grouse Pl/Pheasant Run Ln
185,40.758996,-96.673413,S 32nd Cir/S 32nd St/Wildbriar Ln
160,40.621011,-96.631033,Walnut St/E 3rd St
246,40.792210,-96.737888,Last Rd
865,40.820657,-96.635267,Vine St/N Cotner Blvd
891,40.837275,-96.653735,N 48th St/Huntington Ave
216,40.858906,-96.671287,N 33rd St
246,40.879358,-96.759070,Purple Heart Hwy
185,40.859848,-96.620924,N 73rd St/Douglas St
305,40.802192,-96.680148,S 28th St/Capitol Pkwy
1097,40.804996,-96.689099,G St/Randolph St/S 22nd St
216,40.764434,-96.688581,Goldenrod Ln/Wildwood Pl
1641,40.857033,-96.683415,Superior St
246,40.821180,-96.849457,W Vine St
185,40.802469,-96.602770,Smoky Hill Rd
813,40.823309,-96.672852,N 33rd St
605,40.806927,-96.694227,H St
216,40.765649,-96.615543,Landsberry Ln/Phares Dr
185,40.863465,-96.775331,W Cuming St/NW 38th St
390,40.718068,-96.633773,Countryview Ct
472,40.823671,-96.712374,N 6th St
305,40.834413,-96.596915,Garland St/N 91st St
362,40.842603,-96.661474,Adams St/N 42nd St
472,40.810796,-96.630052,Haverford Dr/L St
246,40.720830,-96.677417,Rockport Dr/S 30th St
499,40.820155,-96.674406,N 32nd St/U St
185,40.742030,-96.617914,State Hwy 2
736,40.827993,-96.609051,Northwoods Dr/Holdrege St
276,40.734314,-96.696964,S 18th St/Annette Ln
658,40.828767,-96.701288,Court St/N 14th St
526,40.828058,-96.687005,N 23rd St/Holdrege St
160,40.721624,-96.632092,Rebel Dr
160,40.717982,-96.644413,S 56th St/Shady Hollow Rd
658,40.784689,-96.708117,Van Dorn St/S 9th St/I- 180
246,40.789857,-96.675395,Sewell St/Winthrop Rd
185,40.752764,-96.695834,Branford Pl/Saybrook Ln
813,40.828225,-96.605949,N 84th St
736,40.828077,-96.651908,Holdrege St
216,40.744071,-96.647114,Happy Hollow Ln
1641,40.812480,-96.698201,N St/S 16th St
390,40.831961,-96.614904,N 79th St/Dawson Creek Dr
362,40.833299,-96.644134,N 56th St/Colby St
216,40.769838,-96.668116,Pioneers Blvd/S 36th St
1071,40.813325,-96.635102,O St
185,40.756371,-96.623372,S 72nd St/Humann Ct
185,40.915859,-96.538362,Northloch St/Isles Ct
246,40.820637,-96.627227,Eastborough Ln/Vine St
246,40.744369,-96.600675,S 88th St
1174,40.824362,-96.682323,N 27th St/Y St
160,40.790769,-96.635831,S 62nd St/Newton St
160,40.752628,-96.679858,Drake St/Drake Cir
160,40.787366,-96.704236,S 12th St/Harrison Ave
216,40.764291,-96.639592,Lonewood St/Dogwood Dr
334,40.780259,-96.653804,High St/S 48th St
160,40.772051,-96.617172,Hammon Meadows Pl/S 76th St
160,40.964583,-96.761582,NW 30th St/Hottovy Ln
185,40.740771,-96.701549,S 14th St
1459,40.828084,-96.652764,Holdrege St
246,40.824199,-96.718405,Line Dr/Sun Valley Blvd
185,40.901273,-96.643575,N 56th St
185,40.816351,-96.603912,Blue Sky Dr/N 86th St
552,40.785862,-96.719320,Park Blvd
839,40.874649,-96.681870,N 27th St/Fletcher Ave
276,40.821834,-96.603811,Avon Ln
736,40.848390,-96.658874,N 44th St
160,40.778420,-96.651182,Hillside St/S 51st St
216,40.851763,-96.644122,Seward Ave/N 56th St
185,40.736957,-96.672471,S 33rd St
552,40.791766,-96.699737,S 15th St/South St
246,40.857097,-96.665452,Superior St
185,40.809833,-96.656097,S 46th St/L St
552,40.833301,-96.649953,Colby St
305,40.777361,-96.705631,Calvert St
185,40.784594,-96.747886,W Van Dorn Rd
185,40.752043,-96.646879,S 53rd St/Hyde Park Ct
185,40.840300,-96.669279,N 36th St/Madison Ave
499,40.752619,-96.643901,S 57th St
185,40.783076,-96.696828,S 17th St/Woodsview St
246,40.809953,-96.753283,Homestead Expy
526,40.842502,-96.678917,Cornhusker Hwy
160,40.523078,-96.707398,Gage Rd/US Hwy 77
418,40.762531,-96.653812,Claire Ave/S 48th St
362,40.745032,-96.643789,Shadow Pines Pl
276,40.749707,-96.701618,Old Farm Rd/S 14th St
362,40.814630,-96.613558,Steinway Rd/Terrace Rd
1097,40.815781,-96.651499,N 50th St
276,40.835769,-96.660161,N 43rd St
185,40.854980,-96.623547,Morrill Ave/N 71st St
160,40.846409,-96.735421,W Bond St/W Commerce Way
276,40.798788,-96.676622,A St/Memorial Dr
216,40.775424,-96.619574,Osage Ct
552,40.844745,-96.705968,Knox St/N 11th St
1200,40.819945,-96.708335,N 10th St/Holdrege St
334,40.858565,-96.728419,W Highland Blvd/Discovery Dr
185,40.796947,-96.659240,Everett St/S 44th St
216,40.757878,-96.680966,Palace Ct
160,40.839862,-96.722141,Torchlight Ln/Gaslight Ln
216,40.774406,-96.619383,Holmes Park Rd/Cooper Ave/Poplar Rd
160,40.624665,-96.811788,SW 66th St/W Sprague Rd
246,40.792433,-96.750114,W Mulberry Ct
246,40.858003,-96.787989,NW 49th St/W Superior St
216,40.764394,-96.665537,State Hwy 2
684,40.868201,-96.701086,Fletcher Ave/N 14th St
943,40.808072,-96.687598,J St/Capitol Pkwy
246,40.759869,-96.635854,S 62nd St/Tanglewood Cir
943,40.819805,-96.688929,Village Ave/U St
276,40.921346,-96.463732,I- 80
160,40.886297,-96.586416,N 98th St
216,40.782982,-96.676223,Sheridan Blvd
390,40.829302,-96.706962,N 10th St
658,40.857022,-96.633049,N 64th St/Havelock Ave
246,40.757470,-96.606112,Wendell Way/S 84th St
246,40.771033,-96.674200,S 32nd St/Loveland Dr
418,40.825841,-96.607203,Northwoods Dr/N 83rd St
185,40.793452,-96.751162,SW 21st St/W Mulberry St/W Mulberry Ct
246,40.738459,-96.660424,Eagle Ridge Rd/Cedar Creek Cir
246,40.762349,-96.614125,Glynoaks Dr/S 78th St
552,40.848148,-96.658874,N 44th St/David Murdock Trl
631,40.823529,-96.705563,Holdrege St
499,40.840297,-96.701250,/N 14th St
418,40.799220,-96.708581,A St/I- 180
160,40.824954,-96.638663,Norfolk Dr
246,40.625163,-96.630907,Walnut St/E 7th St
185,40.750999,-96.648528,S 52nd St
216,40.809806,-96.642250,S Cotner Blvd/L St
276,40.859176,-96.631666,N 65th St/Burlington Ave
246,40.818124,-96.680994,N 28th St/S St
418,40.825305,-96.608768,Rainy River Bay/Rainy River Rd
246,40.787809,-96.744063,W Lake Ct
362,40.867890,-96.721328,W Grand Dr/W Harvest Dr
160,40.855508,-96.787210,Air Park Rd/NW 48th St
1123,40.802558,-96.682825,Capitol Pkwy
160,40.790145,-96.617705,Old Post Rd/South St
160,40.740786,-96.618551,S 75th St
1329,40.813379,-96.644204,S 56th St/O St
276,40.852804,-96.630415,N 66th St/Kearney Ave
1174,40.819608,-96.752012,Surfside Cir/Surfside Dr
362,40.827966,-96.635757,Valley View Dr/Holdrege St
684,40.820811,-96.657227,Vine St/N 45th St
276,40.788206,-96.738783,SW Soukup Dr
246,40.767226,-96.683236,Piccadilly Ct
1329,40.769568,-96.683025,S 27th St/State Hwy 2
305,40.765685,-96.620140,Thomasbrook Ct
362,40.832569,-96.674597,Hitchcock St/Griffith St
246,40.754233,-96.648518,Hallshire Rd/S 52nd St
160,40.822772,-96.666890,N 37th St/X St
276,40.798853,-96.602440,A St/Smoky Hill Rd
160,40.869090,-96.640970,N 58th Ct
216,40.878485,-96.729106,Blue Sage Blvd
160,40.834141,-96.614866,N 79th St/Garland St
216,40.747731,-96.679996,Benjamin Pl/Coronado Dr
305,40.813733,-96.767720,W O St
216,40.820168,-96.753858,I- 80
160,40.697357,-96.663467,Saltillo Rd/S 40th St
305,40.801661,-96.675244,C St/S 32nd St
160,40.654028,-96.714957,Roca Rd
185,40.756343,-96.627980,Hickory Crest Cir/Hickory Crest Rd
160,40.713773,-96.642468,S 58th St
1097,40.818088,-96.709938,N 8th St/S St
418,40.780694,-96.622692,/S 72nd St
390,40.825687,-96.646826,Orchard St/N 53rd St
917,40.876807,-96.700376,Torreys Dr/Whitewater Ln
185,40.755631,-96.721847,W Old Cheney Rd/Homestead Expy
362,40.849384,-96.663178,Gene St/N 40th St
276,40.773747,-96.696845,Burnham St/S 17th St
216,40.770290,-96.727319,W Pioneers Blvd/Homestead Expy
305,40.797114,-96.677663,Everett St
362,40.826171,-96.656141,N 46th St/Dudley St
160,40.897021,-96.650034,/I- 80
160,40.863303,-96.684871,N 25th St/Liberty Bell Ln
216,40.824789,-96.603372,Peregrine Ct
216,40.798934,-96.656168,S 46th St/A St
185,40.851400,-96.618890,David Murdock Trl
160,40.877852,-96.731717,Fallbrook Blvd
445,40.820808,-96.655804,Vine St/N 46th St
246,40.791251,-96.713697,South St/Park Blvd
305,40.803015,-96.744538,Capitol Pkwy W
185,40.804715,-96.692455,F St/S 20th St
1304,40.819112,-96.708392,I- 180
5079,40.813660,-96.705518,O St/N 11th St/S 11th St
160,40.769184,-96.676280,/State Hwy 2
216,40.772882,-96.649295,S 52nd St/Prescott Ave
334,40.861520,-96.734268,Isaac Dr/NW 10th St
499,40.828884,-96.623567,Fairfax Ave/N 71st St
185,40.804381,-96.664454,F St/S 39th St
334,40.799163,-96.738632,W A St/Homestead Expy
160,40.624656,-96.796838,/W Sprague Rd
276,40.785813,-96.704244,S 12th St/Hill St
631,40.804754,-96.705575,F St/S 11th St
2408,40.813675,-96.709958,S 8th St/N 8th St/O St
390,40.804665,-96.677621,F St/S 30th St
160,40.912097,-96.521674,Oak Ln/Folkestone St
160,40.718924,-96.681603,Whispering Wind Blvd/Keystone Dr
305,40.758606,-96.682556,S 27th St/Jameson N
160,40.768806,-96.639039,Kenwood Cir
216,40.810328,-96.713839,L St
246,40.909325,-96.868692,Malcolm Rd/Elk Creek Rd
276,40.868534,-96.688522,Lynnridge Cir
305,40.844055,-96.620537,Knox Ct/N 74th St
160,40.871316,-96.639594,Fletcher Ave
216,40.796206,-96.638322,Garfield St/W Manor Dr
160,40.795513,-96.739291,SW 11th St
276,40.761616,-96.618530,S 75th St/Twin Oaks Rd
160,40.655962,-96.662498,B St/Roy St
839,40.843025,-96.670078,Cornhusker Hwy/N 35th St
160,40.885387,-96.624516,N 70th St
246,40.785463,-96.677091,Stratford Ave/Rathbone Rd
334,40.915727,-96.529634,Cornhusker Hwy/N 141st St
334,40.767460,-96.627694,Hawkins Bend
216,40.892524,-96.672635,I- 80
160,40.761253,-96.609796,Lea Rae Pl/Betty Lou Blvd
185,40.798378,-96.657667,Washington St/Sunburst Ln
216,40.848945,-96.721792,NW Ash Ct
246,40.732532,-96.640281,Cavvy Rd/Upton Grey Ln
7446,40.816929,-96.698174,N 16th St/R St
185,40.749891,-96.615209,Hunters Ridge Rd/S 79th St
362,40.817024,-96.751493,W Todd Cir
185,40.747622,-96.674730,S 31st St/Pecos Rd
276,40.772429,-96.606884,S 83rd St/Prescott Ave
362,40.783525,-96.702812,S 13th St/Otoe St
276,40.746092,-96.675186,Alamosa Dr/Chisholm Pl
216,40.832564,-96.676985,N 31st St/Hitchcock St
246,40.791811,-96.717910,South St
160,40.728050,-96.673668,S 33rd St/Grainger Pkwy
160,40.858074,-96.685091,Independence Dr/N 25th St
216,40.798900,-96.608970,A St/Imperial Dr
185,40.832956,-96.793609,NW 53rd St/W Songbird Cir
160,40.761206,-96.630669,Deerwood Dr/S 67th St
160,40.851762,-96.638549,Seward Ave/N 60th St
160,40.697428,-96.718984,Saltillo Rd/S 2nd St
216,40.808360,-96.752225,Homestead Expy
160,40.622045,-96.633106,E 4th St/Locust St
305,40.749541,-96.625351,S 70th St/Southfork Cir
216,40.788995,-96.694389,S 19th St/Park Ave
305,40.844460,-96.623215,72nd St
160,40.699437,-96.701615,S 14th St
185,40.752607,-96.611586,Hanna Point Pl
160,40.836527,-96.620603,N 74th St/Walker Ave
276,40.741385,-96.646494,Elk Ridge Rd/Stephanie Ln
334,40.742476,-96.647549,S 53rd Ct
305,40.770436,-96.684269,Fiene Blvd/Kessler Blvd
943,40.851686,-96.686714,No 26th St
1329,40.817896,-96.688939,S St/Village Ave
216,40.775023,-96.688855,Saint Thomas Dr/Dunn Ave
160,40.811776,-96.638034,Lyncrest Dr/Eastridge Dr
276,40.818114,-96.672842,S St/N 33rd St
246,40.788090,-96.694399,Lake St/S 19th St
390,40.842830,-96.605911,N 84th St
160,40.728640,-96.520901,S 148th St
246,40.849674,-96.633056,N 64th St/Benton St
246,40.872698,-96.693711,Tombstone Ridge Dr/Colorado Dr
472,40.754188,-96.640058,State Hwy 2
445,40.798936,-96.606099,A St/S 84th St
813,40.825999,-96.701275,N 14th St
334,40.893189,-96.671106,I- 80
1174,40.769446,-96.682874,S 27th St/State Hwy 2
216,40.778513,-96.670417,S 35th St/Hillside St
276,40.955724,-96.782445,Nickols St
7791,40.813638,-96.699675,Centennial Mall S/O St/Centennial Mall N
216,40.850468,-96.791161,NW 52nd St/W Luke St
160,40.793241,-96.616248,Devonshire Dr/Scarborough Dr
216,40.806982,-96.715862,H St/S 4th St
362,40.776988,-96.644258,S 56th St/Calvert St
276,40.839656,-96.730416,NW 7th St/W Belmont Ave
362,40.813851,-96.748162,W O St
1355,40.808073,-96.687831,J St/Capitol Pkwy
216,40.841283,-96.667983,N 37th St/Cleveland Ave
185,40.768852,-96.651455,S 50th St/Locust St
160,40.759358,-96.639008,Rosebud Cir
445,40.850213,-96.708346,Benton St/N 9th St
185,40.762057,-96.631888,Deerwood Dr/S 66th Street Cir/S 66th St
160,40.737812,-96.844248,W 3rd St/SW 91st St
276,40.838857,-96.708777,N 9th St
160,40.797886,-96.657797,Sunburst Ln
216,40.840761,-96.615981,N 78th St
445,40.828010,-96.642680,N 57th St/Holdrege St
4699,40.824513,-96.698145,N 16th St
185,40.775478,-96.675158,S 31st Street Cir
160,40.847471,-96.707121,N 10th St/Hartley St
185,40.782748,-96.617259,Otoe Pl
390,40.798930,-96.652471,S 49th St/A St
390,40.832292,-96.707335,/N 10th St/N 11th St
185,40.778891,-96.665566,Sheridan Blvd/Woodbine Ave
160,40.915458,-96.525658,Ivanhoe St/N 144th St
1020,40.839303,-96.644132,N 56th St/Saint Paul Ave
160,40.771754,-96.649305,S 52nd St
160,40.865716,-96.624780,N 70th St
160,40.847389,-96.741439,W Commerce Way/NW 15th St
305,40.786276,-96.696807,S 17th St/Smith St
305,40.795687,-96.765807,SW 30th St/SW Lacey Ln
246,40.773674,-96.692080,Burnham St/S 20th St
276,40.837216,-96.624944,N 70th St/Huntington Ave
160,40.839113,-96.753769,NW 24th St/Oak Ave
160,40.805283,-96.659669,S 43rd St/G St
390,40.813742,-96.756398,/W O St
865,40.831325,-96.648449,Francis St/N 52nd St
305,40.809951,-96.611995,Cottonwood Dr/N Hazelwood Dr
390,40.813416,-96.620917,Mopac Trl/O St
1615,40.816347,-96.650734,Central Park Dr
216,40.781547,-96.682206,Woodsdale Blvd/Jackson Dr
160,40.853847,-96.629114,Logan Ave/N 67th St
305,40.765189,-96.627207,S 69th St/Northridge Rd
276,40.752316,-96.663377,Duxhall Dr/S 40th St
1174,40.817900,-96.690024,S St/N 22nd St
216,40.750955,-96.596951,Consentino Ct/Foxtail Dr
305,40.787013,-96.668054,36th St/S 37th St
276,40.850193,-96.704774,Lewis Ave/Benton St
445,40.820276,-96.639766,Pine Ridge Rd/N 60th St
185,40.809826,-96.648925,S 52nd St/L St
276,40.738540,-96.639522,Chartwell Ln/S 60th St
917,40.841288,-96.653607,N 48th St/Cleveland Ave
552,40.741729,-96.676592,Zermatt Dr/S 30th St
418,40.839523,-96.705966,N 11th St
160,40.743927,-96.739876,SW 12th St
185,40.735813,-96.648487,Country Hill Rd/S 52nd St
499,40.826192,-96.677627,N 30th St/Dudley St
276,40.797264,-96.625134,S 70th St
499,40.815528,-96.672837,Q St/N 33rd St
1226,40.828013,-96.675837,N 32nd St/Holdrege St
160,40.782140,-96.626925,Normal Blvd/Park Place Dr
418,40.829835,-96.642932,N 57th St/Aylesworth Ave
160,40.849621,-96.770015,NW 34th St
246,40.779255,-96.673619,Edward Ct
334,40.845991,-96.681055,Menard Dr/N 28th St/Cather Rd
216,40.804785,-96.714489,F St
499,40.806205,-96.677615,Randolph St/S 30th St
185,40.792623,-96.645364,Saylor St/S 55th St
334,40.831864,-96.687971,Whittier St
185,40.784273,-96.620655,/Van Dorn St
631,40.812728,-96.644145,S 56th St
160,40.716142,-96.633198,Wildflower St/S 64th St
305,40.779217,-96.672835,S 33rd St/Edwards Ct
276,40.815755,-96.678151,Q St/N 30th St
185,40.794587,-96.645360,S 55th St/Oldham St
216,40.805402,-96.729738,Rosa Parks Way/Capitol Pkwy W
552,40.845535,-96.641516,Judson St/N 58th St
710,40.792622,-96.708622,I- 180/Plum St
2381,40.830451,-96.669676,Center Dr/N 35th St
160,40.839931,-96.721468,NW 1st St/Gaslight Ln/Gaslight Cir
216,40.745539,-96.642962,S 57th St
445,40.804703,-96.689494,F St/S 22nd St
246,40.773830,-96.686111,Marilynn Ave/Pace Blvd
185,40.791984,-96.620834,Lawnsdale Dr/S Hampton Rd
160,40.753757,-96.676364,Kipling St/S 30th St
684,40.823994,-96.705461,N 11th St
246,40.829026,-96.691167,N 21st St/Clinton St
160,40.752123,-96.695174,Branford Pl
334,40.739626,-96.640481,Kentwell Ln/Hidcote Dr
160,40.789860,-96.679935,Sewell St/Bradfield Dr
246,40.779126,-96.606060,E Pointe Rd/S 84th St
499,40.814816,-96.741002,NW 13th St
185,40.791129,-96.634214,Heritage Pines Ct
160,40.934494,-96.599915,Finigan Rd/Pearle Rd
276,40.817665,-96.756044,I- 80
865,40.740804,-96.682528,S 27th St
216,40.748470,-96.655673,S 46th St/Browning Ct
160,40.865104,-96.624639,/N 70th St
526,40.755270,-96.640178,S 59th St
334,40.752156,-96.670865,S 34th St/Orwell St
526,40.822442,-96.640900,N 59th St/Wilshire Blvd
246,40.740827,-96.635424,Pine Lake Rd
160,40.987821,-96.796358,W Davey Rd
160,40.775377,-96.671811,S 34th St/Stockwell St
216,40.732187,-96.686965,Nick Rd/Katrina Ln
362,40.862407,-96.697748,Coneflower Ct
1407,40.828024,-96.671206,N 34th St/Holdrege St
160,40.742564,-96.631786,Marcus Rd/S 66th St
185,40.735002,-96.609984,Bellagio Dr
216,40.840373,-96.670808,N 35th St/Madison Ave
216,40.799006,-96.615492,S 77th St/A St
605,40.813363,-96.641695,O St/S Cotner Blvd
160,40.778137,-96.694132,Grimsby Ln
418,40.789899,-96.693190,Worthington Ave/Sewell St
216,40.787369,-96.705598,Harrison Ave/S 11th St
246,40.853023,-96.620952,Kearney Ave/N 73rd St
160,40.803684,-96.714437,E St/S 5th St
526,40.820735,-96.751657,Lakeside Dr/W Lakeshore Dr
362,40.742311,-96.599051,Milan Dr
216,40.796888,-96.604160,Easton Cir/Stony Hill Rd
362,40.825294,-96.684638,N 25th St/Orchard St
185,40.741285,-96.596435,Chalk Hill Dr/S 91st St
160,40.746589,-96.664494,Williamsburg Blvd
276,40.802236,-96.605975,S 84th St/S Hazelwood Dr
390,40.825687,-96.647256,Orchard St/N 53rd St
2813,40.817166,-96.706980,N 10th St/Stadium Dr
390,40.856643,-96.695357,Montini Dr
160,40.834215,-96.617825,Garland St/N 76th St
334,40.842924,-96.705916,Adams St/N 11th St
216,40.804385,-96.666844,F St/Clark St
6213,40.815841,-96.701146,Q St/N 14th St
160,40.743980,-96.659785,Cripple Creek Rd/Pinewood Ln
216,40.837270,-96.633094,N 64th St/Huntington Ave
736,40.813694,-96.715908,O St
160,40.748513,-96.656806,Browning Pl
276,40.829965,-96.630430,N Cotner Blvd/Aylesworth Ave
305,40.848631,-96.628131,Fremont St/N 68th St
216,40.838598,-96.735902,NW 10th St/W Nance Ave
276,40.837228,-96.672810,Huntington Ave/N 33rd St
246,40.755974,-96.661510,S 42nd Street Ct
185,40.558511,-96.598765,Iron Horse Ct
160,40.865874,-96.699513,Pegram Dr
216,40.774503,-96.644340,S 56th St
305,40.842941,-96.708380,Adams St/N 9th St
1329,40.820783,-96.685130,Vine St
658,40.784719,-96.651356,S 51st St
246,40.823109,-96.670208,Mopac Trl/N 35th St
185,40.749937,-96.681184,S 28th St/S 28th Cir/Baxter Pl
445,40.874642,-96.679907,N 28th St/Fletcher Ave
1071,40.827933,-96.630496,Holdrege St
160,40.831640,-96.639351,N 60th St/Francis St
605,40.754648,-96.644285,S 56th St/Old Cheney Rd
160,40.786628,-96.728822,Homestead Expy
216,40.850264,-96.725098,W Benton St
472,40.824385,-96.684644,N 25th St/Y St
160,40.755616,-96.720750,W Old Cheney Rd/S 1st St/Old Cheney Rd
246,40.793982,-96.690617,Euclid Ave
185,40.777935,-96.696834,Nemaha St/S 17th St
684,40.837050,-96.720286,Dawes Ave/N 1st St
246,40.805798,-96.627508,Foxcroft Ct
334,40.780975,-96.706254,S 10th St/High St
552,40.844926,-96.627210,Willow Ave/N 68th St
185,40.777099,-96.663320,S 40th St/Calvert St
276,40.784554,-96.727554,W Prospector Ct/Homestead Expy
185,40.755609,-96.715739,Old Cheney Rd
631,40.863523,-96.710664,N 7th St
246,40.764047,-96.612716,S 78th St/Phares Dr
160,40.747711,-96.693554,Davenport Dr/Rolling Hills Blvd/Rolling Hills Ct
185,40.834491,-96.797027,NW 57th St
160,40.793723,-96.711115,S 7th St/Peach St/Gillespie St
185,40.748564,-96.674750,Browning St/S 31st St
160,40.644850,-96.629434,S 68th St/Leisure Ln
246,40.791032,-96.738664,SW Paul Whitehead Ln/Richard Leyden Cir
334,40.895673,-96.567464,I- 80/Cornhusker Hwy
305,40.841210,-96.623758,N 72nd St/Hallmark Rd
579,40.806204,-96.677208,Marshall Ave/Randolph St
185,40.766189,-96.657957,la Salle St/S 45th St
658,40.809537,-96.711470,S 7th St/Capitol Pkwy W
185,40.756658,-96.594351,S 93rd St/Ravenwood Ln
185,40.830729,-96.786541,W Whisperwood St/NW 47th St
418,40.798780,-96.676003,/A St
390,40.842563,-96.649750,Adams St/N 51st St
1071,40.830183,-96.700633,N Antelope Valley Pkwy
160,40.697386,-96.690210,Saltillo Rd/S 25th St
334,40.768235,-96.682698,S 27th St
276,40.777107,-96.666820,S 38th St/Calvert St
246,40.859206,-96.794566,NW 54th St/Wilkins Cir/W Wilkins St
246,40.754622,-96.612539,Creek View Dr/S 80th St/Creek View Ct
185,40.876822,-96.694680,Belford St
216,40.821689,-96.834899,I- 80/NW 84th St
185,40.866900,-96.693995,Folkways Blvd/N 18th St
216,40.914691,-96.531045,N 140th St/Heywood St
216,40.858616,-96.692206,Independence Ct
968,40.839028,-96.682621,/Theresa St
246,40.800299,-96.702628,S 13th St/B St
276,40.841285,-96.657569,Cleveland Ave/N 45th St
160,40.531650,-96.606338,Nemaha St/Main St
185,40.848494,-96.725998,NW Fairwood Ct
160,40.792695,-96.744361,W Plum St/SW 16th St
579,40.794592,-96.758175,W Sumner St/W Peach St
185,40.868221,-96.670424,Salt Creek Cir/N 33rd St/Ox Bow Rd
185,40.905674,-96.548377,Cornhusker Hwy/130th St
445,40.840297,-96.656266,N 46th St/Madison Ave
305,40.838858,-96.615931,N 78th St/Baldwin Ave
994,40.827000,-96.630457,N Cotner Blvd
216,40.794388,-96.760036,W 28th St
276,40.777550,-96.730219,W Calvert St
216,40.782252,-96.699207,S 16th St/Pawnee St
552,40.822369,-96.606025,N 84th St/E Avon Ln
185,40.799231,-96.720317,S 1st St/A St
185,40.864868,-96.675335,Excalibur Ln/King Ridge Ct
160,40.805700,-96.629888,Mesaverde Dr/Rockhurst Dr
305,40.755220,-96.649598,Queens Dr/Old Cheney Rd
994,40.828996,-96.666602,E Campus Loop/Dairy Store Dr
552,40.819131,-96.674405,N 32nd St/T St
160,40.793124,-96.663282,Franklin St/S 40th St
216,40.859126,-96.734631,W Dilin St/NW 10th St
160,40.783116,-96.614995,Stonewall Ct/Splitrail Ln
552,40.797948,-96.682479,S 27th St/Washington St
499,40.742981,-96.682526,S 27th St/Ridge Line Rd
552,40.811251,-96.614353,S 77th St/Maplewood Ct/S 77th Ct
736,40.827572,-96.696531,N 17th St/Holdrege St
472,40.769612,-96.625272,S 70th St/Pioneers Blvd
160,40.741269,-96.841636,W Denton Rd
160,40.625188,-96.626993,Stagecoach Ave/E 7th St
160,40.745899,-96.680791,S 28th St/Odessa Ct
185,40.846192,-96.717854,Gregory Ct
160,40.827032,-96.613187,N 79th St/Starr St
185,40.841402,-96.628128,Cleveland Ave/Leonard St
185,40.847211,-96.651544,Sherwood Dr/Somerset Ave
390,40.842639,-96.693614,Cornhusker Hwy
185,40.768467,-96.667573,S 37th St/Linden St
1929,40.811412,-96.708491,M St/I- 180
736,40.772144,-96.701691,State Hwy 2/S 14th St
305,40.835276,-96.680867,N 28th St/Leighton Ave
216,40.823508,-96.688163,Short St
160,40.780772,-96.670441,S 35th St/High St
185,40.810749,-96.667355,Woods Ave/S 37th St
246,40.862060,-96.736536,Isaac Dr/NW Fairway Dr
185,40.780624,-96.673715,Sheridan Blvd
1433,40.839309,-96.653650,N 48th St/Saint Paul Ave
305,40.897055,-96.601609,I- 80
813,40.813421,-96.676403,O St/S 31st St
1903,40.820699,-96.653821,Vine St/N 48th St
185,40.841292,-96.631585,N 65th St/Cleveland Ave
160,40.849416,-96.787278,NW 48th St/W Benton St
246,40.788152,-96.647758,S 53rd St/Normal Blvd
334,40.835282,-96.678214,Leighton Ave/N 30th St
334,40.815628,-96.752924,W Q St/NW 23rd St
185,40.875403,-96.735978,NW 11th St/W Leon Dr
160,40.735885,-96.692504,Garret Ln/S 21st St
390,40.789218,-96.705588,Park Ave/S 11th St
185,40.622123,-96.625199,E 4th St
160,40.661393,-96.910980,W Parker Rd
160,40.739495,-96.636275,Fernhill Pl/Hidcote Dr
185,40.907635,-96.862867,East St/2nd St
246,40.806195,-96.619161,Wedgewood Dr/S Wedgewood Dr
1226,40.826180,-96.682314,N 27th St/Dudley St
334,40.786634,-96.612572,Cole Ct/S 79th St
216,40.907016,-96.538089,Amberly Rd
185,40.737454,-96.668255,Canyon Rd/S 37th St
305,40.896794,-96.644878,I- 80
390,40.806207,-96.680010,S 28th St/Randolph St
499,40.871857,-96.673082,Fletcher Ave/Ridge Park Dr
216,40.805754,-96.632958,Evergreen Dr/Mesaverde Dr
579,40.827509,-96.641883,Tangeman Ter/N 58th St
216,40.794225,-96.744353,SW 16th St/Tony Cir
362,40.802590,-96.717373,S 3rd St/D St
472,40.759884,-96.653731,S 48th St
891,40.784411,-96.666866,Van Dorn St/S 38th St
362,40.834289,-96.645847,Garland St/N 54th St
216,40.845377,-96.667865,N 37th St
185,40.819300,-96.787594,NW 48th St
499,40.783387,-96.644276,Van Dorn St/S 56th St
305,40.822768,-96.668885,X St/N 36th St
185,40.735930,-96.635931,Thompson Creek Blvd/Nashway Rd
305,40.808117,-96.718060,J St
276,40.848632,-96.630418,N 66th St/Fremont St
246,40.790776,-96.687235,S 24th St/Ryons St
216,40.816732,-96.622193,Eastborough Ln/Steinway Rd/Northborough Ln
579,40.828095,-96.689983,N 22nd St/Holdrege St
499,40.824753,-96.636744,Salisbury Ct
246,40.801441,-96.715959,C St
334,40.730991,-96.671436,S 34th St/Ohanlon Dr
216,40.870060,-96.624602,Amanda Rd/N 70th St
276,40.795914,-96.707120,I- 180/Sumner St
185,40.796517,-96.619664,Briarhurst Cir/Regency Dr/Briarhurst Dr
185,40.704090,-96.644410,S 56th St/Deerhaven Dr
216,40.829831,-96.641740,Aylesworth Ave/N 58th St
216,40.784454,-96.727293,Homestead Expy
276,40.618936,-96.628083,E 1st St
160,40.789653,-96.609026,Lake St/Devoe Dr
185,40.786228,-96.672819,S 33rd St/Smith St
185,40.790726,-96.736522,W Furrer Ave/South St
362,40.798195,-96.730212,W Washington St/S Folsom St
185,40.955483,-96.643616,N 56th St/Judith Dr
216,40.759414,-96.610279,Drew Pl
216,40.773613,-96.607034,S 83rd St
684,40.818676,-96.608155,Sunridge Rd/Russwood Blvd
276,40.750220,-96.598064,Blackstone Rd
1226,40.824365,-96.682180,N 27th St/Y St
160,40.800343,-96.715905,W B St/S 4th St
216,40.744019,-96.651607,Happy Hollow Ln
185,40.824763,-96.638417,Salisbury Ct
160,40.798028,-96.665676,Washington St/S 38th St
216,40.871338,-96.643774,N 56th St/Fletcher Ave
185,40.803772,-96.651301,S 50th St/Valley Rd
246,40.747414,-96.605543,S 85th Ct/Barkley Dr
1252,40.826181,-96.682170,N 27th St/Dudley St
552,40.855300,-96.685629,Timothy Ct
390,40.842980,-96.713759,N 5th St/Adams St
160,40.750305,-96.712440,Warlick Blvd
246,40.747119,-96.672157,Cannondale Ct/S 34th St
160,40.746024,-96.592984,Gabrielle Dr/Parducci Dr
185,40.832561,-96.678232,N 30th St/Hitchcock St
185,40.750680,-96.620619,Stevens Ridge Rd/S 74th St
185,40.875299,-96.719940,Pennsylvania Ave
246,40.874712,-96.672606,Meridian Dr
160,40.847592,-96.644126,N 56th St/Hartley St
736,40.755381,-96.682566,S 27th St/Old Cheney Rd
334,40.742631,-96.648841,Larkwood Rd
362,40.831375,-96.604128,N 86th St/Lexington Ave
160,40.782970,-96.626644,Park Place Ct/Park Place Dr
216,40.800309,-96.705610,B St/S 11th St
445,40.857407,-96.713764,I- 180
334,40.801187,-96.754159,W C St
390,40.833372,-96.606395,Colby Ct
216,40.811260,-96.654911,S 47th St
216,40.840229,-96.615439,Seth Ave
246,40.786244,-96.608803,Karl Ridge Rd/Alicia Ln
305,40.807202,-96.717826,Capitol Pkwy W
362,40.798740,-96.676218,A St
552,40.857055,-96.673718,Superior St
160,40.743521,-96.589054,Vine Cliff Dr/Glass Ridge Dr
305,40.680821,-96.507857,Madison St/Elm St
472,40.824774,-96.607746,Stony Rapids Bay
246,40.744071,-96.646585,Happy Hollow Ln/Cumberland Dr
185,40.777361,-96.703324,S 13th St/Calvert St
305,40.798978,-96.613783,A St/Sycamore Dr
246,40.741262,-96.599316,Venice Ln
160,40.805882,-96.714422,G St/S 5th St
160,40.797110,-96.644929,Everett St
891,40.829850,-96.684607,N 25th St/Potter St
216,40.856426,-96.789141,NW 50th St/W Loring St
499,40.732249,-96.703007,Infinity Ct
185,40.847692,-96.689764,Fairfield St/N 22nd St
276,40.808020,-96.672837,S 33rd St/J St
1174,40.813344,-96.638329,Lyncrest Dr/O St
305,40.732305,-96.698835,S 16th St
418,40.838293,-96.669274,Baldwin Ave/N 36th St
160,40.775752,-96.730336,W Stockwell St/S Folsom St
418,40.827121,-96.668731,Idylwild Dr/Starr St
968,40.802475,-96.685364,S 25th St/D St
334,40.840905,-96.787376,NW 48th St
246,40.781010,-96.696831,W Pershing Rd/S 17th St/High St
472,40.737317,-96.684443,Kendra Ln
472,40.825262,-96.659728,Orchard St/N 43rd St
631,40.828813,-96.609575,Sawyer St/Sawyer Ct/Egan Dr
2569,40.815860,-96.706985,Q St/I- 180
276,40.783652,-96.628499,Holmes Ct
185,40.769824,-96.665773,Pioneers Blvd/S 38th St
390,40.791726,-96.685924,S 25th St/South St
552,40.812840,-96.635793,Eastridge Dr/Bruce Dr
216,40.752945,-96.612507,Hanna Point Pl
418,40.843258,-96.631433,Bradley Ave/N 65th St
246,40.849292,-96.624124,Dunes Ct/Yosemite Dr
216,40.764669,-96.636532,Fleetwood Cir/Fleetwood Dr
276,40.788952,-96.677683,Wendover Ave
160,40.797964,-96.751794,SW 23rd St/W Washington St
160,40.790655,-96.634218,Heritage Pines Ct
160,40.878897,-96.727782,NW 6th St
891,40.783467,-96.668059,S 37th St/Otoe St
160,40.819425,-96.620796,N 73rd St/W Avon Ln/E Avon Ln
185,40.846237,-96.670141,Gladstone St/N 35th St
246,40.786017,-96.741165,Bordeaux Cir
390,40.806610,-96.605114,Sandalwood Dr/Indian Hills Dr
994,40.801431,-96.685369,C St/S 25th St
276,40.784806,-96.713169,Van Dorn St/6th St
185,40.871079,-96.624578,N 70th St
658,40.813500,-96.647760,O St
185,40.795849,-96.762766,SW Derek Ave
160,40.860116,-96.650954,Landmark Dr
390,40.795294,-96.658490,S 44th St/Sumner St
526,40.816902,-96.691924,R St/N 20th St
216,40.867185,-96.734944,W Harvest Dr/NW 10th St
216,40.802488,-96.691760,S 20th St/D St
526,40.772890,-96.701609,S 13th St
334,40.850541,-96.698922,Atlas Ave/Belridge Dr
160,40.914320,-96.516044,Bluff Rd
445,40.836695,-96.701304,N Antelope Valley Pkwy/N 14th St
246,40.847777,-96.691018,Paxton Dr/Fairfield St
160,40.861091,-96.705135,Hilltop Rd
334,40.814587,-96.641796,P St/N Cotner Blvd
160,40.806435,-96.750949,Homestead Expy
994,40.842751,-96.672812,Cornhusker Hwy/N 33rd St
160,40.749215,-96.653153,Chiswick Dr/S 48th St
276,40.763700,-96.675372,Onyx Ct
305,40.752482,-96.671006,Plantation Dr/S 34th St
216,40.853673,-96.658873,Turner Dr/N 44th St/Turner Ave
246,40.811831,-96.632859,Park Vista St/Taylor Park Dr
1589,40.818790,-96.707953,N 10th St
160,40.835111,-96.787483,W Thatcher Ln/NW 48th St
3060,40.813304,-96.630677,O St/S 66th St
246,40.806192,-96.664454,S 39th St/Randolph St
246,40.817437,-96.734366,W S St/NW 7th St
499,40.813858,-96.749372,SW 20th St/NW 20th St/W O St
246,40.835222,-96.596874,Leighton Ave/N 91st St
276,40.775114,-96.703968,Pioneers Blvd/Vermaas Pl
552,40.836426,-96.682498,State Fair Park Dr
276,40.878928,-96.725417,Stonebrook Pkwy
334,40.852931,-96.703667,N 12th St/Elba Ave
1903,40.820804,-96.653822,N 48th St/Vine St
362,40.795903,-96.702654,S 13th St/Sumner St
160,40.735509,-96.668301,Tempe Ln/S 36th St
6153,40.814754,-96.704029,P St/N 12th St
160,40.820585,-96.910658,I- 80/140th
276,40.881669,-96.726302,Wildrye Rd
499,40.820761,-96.645261,Vine St/N 55th St
185,40.764825,-96.614383,S 77th St/Phares Dr
160,40.776545,-96.609774,Bancroft Ave
552,40.844159,-96.624905,N 70th St/Stony Ridge Rd
445,40.791707,-96.700297,S 15th St/South St
246,40.762934,-96.644267,S 56th St/Elkcrest Dr
160,40.850573,-96.692639,No 20th St/Atlas Ave
216,40.745821,-96.606096,Horseshoe Dr/S 84th St
305,40.785794,-96.630387,Park Crest Dr/Wimbledon Ct
917,40.798833,-96.624982,S 70th St
185,40.732050,-96.625409,S 70th St/Travis Dr
1329,40.814426,-96.672834,N 33rd St
160,40.770353,-96.679211,Teri Ln/Mary Cir
276,40.869913,-96.727143,NW 4th St/W Fletcher Ave
246,40.758709,-96.699184,S 16th St/Windhoek Dr
246,40.792331,-96.769029,W Plum St/SW 33rd St
185,40.912361,-96.483382,I- 80/Bluff Rd
185,40.621154,-96.625791,Willard Cir/Stagecoach Ave
246,40.751293,-96.656204,S 46th St/Christopher Ct
246,40.795793,-96.732617,W Rose St/SW 8th St
185,40.858913,-96.623549,N 71st St/Burlington Ave
276,40.857217,-96.664637,Superior St
216,40.769755,-96.651456,Pioneers Blvd/S 50th St
246,40.810608,-96.753726,/Homestead Expy
216,40.784590,-96.745505,SW 16th St/W Van Dorn Rd
552,40.812744,-96.615496,Cherrywood Dr/Maple Village Dr
160,40.791565,-96.628331,S Brandt St/South St
1174,40.827600,-96.701283,Claremont St/N 14th St
160,40.798945,-96.607906,A St/Coachmans Dr
276,40.828760,-96.703934,N 12th St/Court St
390,40.795078,-96.732622,Regina Ct/SW 8th St
276,40.868612,-96.692120,N 19th St/Harding Dr
390,40.842479,-96.711739,/I- 180
185,40.756045,-96.658555,Bodie Cir
160,40.922016,-96.525994,Oldfield St
160,40.939596,-96.643492,/N 56th St
390,40.797800,-96.673003,S 33rd St/Normal Blvd
1278,40.810438,-96.692510,S 20th St
246,40.816216,-96.759629,I- 80
246,40.753774,-96.612917,Rose Hill Ct
418,40.810320,-96.711464,S 7th St/L St
216,40.538176,-96.605302,E 8th St
185,40.796287,-96.640033,Garfield St/Skyline Dr
246,40.838701,-96.713408,N 6th St/Nance Ave
445,40.828072,-96.688188,Whittier St/Holdrege St
390,40.790021,-96.739795,SW 12th St/W Charles Hall Ave
216,40.837762,-96.610103,Shaunte Ct
216,40.763826,-96.694753,S 19th St
631,40.792619,-96.707140,I- 180/Plum St
185,40.892212,-96.682457,N 27th St
216,40.775980,-96.644341,S 56th St/Bancroft Ave
216,40.791619,-96.641554,South St/S 58th St
472,40.836609,-96.730370,NW 7th St/W Saunders Ave
390,40.753031,-96.642036,S 58th St
216,40.813883,-96.833469,W O St
246,40.842989,-96.714951,N 4th St/Adams St
1746,40.840296,-96.648447,N 52nd St/Madison Ave
160,40.774994,-96.649278,S 52nd St/Stockwell St
276,40.833457,-96.640546,Colby St/N 59th St
276,40.877435,-96.728882,NW 7th St/Fallbrook Blvd
762,40.839028,-96.683224,/Theresa St
994,40.820693,-96.641677,Vine St/N 58th St
160,40.744717,-96.588688,Glass Ridge Dr/Marcel Cir
1097,40.813534,-96.656109,N 46th St/O St/S 46th St
276,40.755327,-96.667623,Village Blvd
276,40.864733,-96.709761,Morton St
334,40.835131,-96.779769,W Thatcher Ln/NW 42nd St/W Thatcher Cir
276,40.736011,-96.666044,S 38th St
160,40.794014,-96.774338,W Ickes Ct
160,40.739795,-96.842625,Austin St/Front St
160,40.752392,-96.684826,S 25th St/Norman Rd
216,40.749555,-96.612482,Hunters Ridge Rd/S 80th St
246,40.787542,-96.730104,Van Dorn St//State Hwy 2/Homestead Expy
160,40.792818,-96.609823,Pinedale Ave/Rolf St
762,40.820692,-96.680970,Vine St/N 28th St
579,40.800488,-96.733812,Darren Ave/Jonna Ct
390,40.735854,-96.606682,State Hwy 2/S 84th St
246,40.798041,-96.608916,Imperial Dr/Imperial Cir
160,41.016880,-96.700652,Agnew Rd/N 14th St
185,40.861310,-96.691053,N 20th St/Hedge Apple Ct
160,40.897938,-96.643428,/N 56th St
160,40.733789,-96.638622,Exbury Ct
160,40.783580,-96.695656,S 18th St/Otoe St
390,40.771447,-96.682519,S 27th St
216,40.769031,-96.628148,Waterbury Ln
390,40.827924,-96.629123,Holdrege St/N 67th St
390,40.864828,-96.706490,N 10th St
362,40.744495,-96.677058,S 30th St/Williamsburg Dr
276,40.787796,-96.739716,W Lake St
246,40.729552,-96.639212,Bridle Ln/Upton Grey Ln
216,40.732909,-96.663467,San Mateo Ln
658,40.770437,-96.683238,Kessler Blvd
216,40.878438,-96.726008,Stonebrook Pkwy/Blue Sage Blvd
390,40.794254,-96.696710,S 17th St/Euclid Ave
185,40.751981,-96.597630,S 90th St/Arrowwood Rd
334,40.894769,-96.565114,I- 80
246,40.855627,-96.707111,N 10th St/Phillips Dr
160,40.916651,-96.536589,N 135th St/Jamestown St
390,40.745984,-96.624944,S 70th St/State Hwy 2
968,40.788176,-96.653698,Normal Blvd/S 48th St
216,40.865174,-96.637010,Cornhusker Hwy
185,40.831049,-96.633143,N 64th St/Francis St
334,40.797274,-96.624976,S 70th St/Office Park Dr
710,40.807739,-96.693677,S 19th St
160,40.853629,-96.791359,W McGuire Rd/W Elba St
160,40.854425,-96.660681,N 42nd Street Cir
1850,40.855379,-96.682734,King Ln
334,40.850187,-96.703581,N 12th St/Benton St
526,40.823179,-96.608869,Elizabeth Dr
418,40.823876,-96.605178,Daybreak Cir
160,40.750784,-96.651752,Huddersfield Ct/Princess Margaret Dr
246,40.854672,-96.653604,N 48th St/Pierce Dr
160,40.955979,-96.779279,4th St/Maple St
160,40.783355,-96.615289,Splitrail Ln
418,40.844719,-96.702389,Knox St/N 13th St
216,40.792981,-96.624981,S 70th St
362,40.831612,-96.661785,Fair St/E Campus Loop
305,40.857908,-96.720898,I- 80/W Superior St/Superior St
216,40.859149,-96.722523,Technology Dr/NW 1st St
185,40.789152,-96.633300,Boxelder Dr/Winding Way
160,40.842623,-96.666680,Adams St/N 38th St
917,40.852659,-96.653615,N 48th St/
472,40.781854,-96.610624,Brookfield Dr
658,40.835690,-96.720452,Cornhusker Hwy/N 1st St/W Cornhusker Hwy
305,40.835497,-96.728989,W Cornhusker Hwy
160,40.624807,-96.676856,Hickman Rd
246,40.796562,-96.734998,W Sumner St/SW 9th St
185,40.864090,-96.695767,N 16th St/Morton St
160,40.797300,-96.718218,Garfield St/S 3rd St
160,40.537637,-96.787577,Main St
4845,40.813596,-96.705522,O St/S 11th St
185,40.895628,-96.643429,/N 56th St
185,40.733507,-96.609565,S 81st St
362,40.787426,-96.641690,S 58th St/Brookview Dr
499,40.797124,-96.682399,S 27th St/Everett St
390,40.895571,-96.567199,I- 80
1511,40.814436,-96.651322,S 50th St/N 50th St
1020,40.813546,-96.680866,N 28th St/O St
1252,40.830857,-96.668746,E Campus Mall
160,40.661394,-96.910904,W Parker Rd
246,40.841070,-96.723667,Torchlight Ln/NW 3rd St
526,40.821541,-96.606744,Manes Ct
334,40.762765,-96.663347,State Hwy 2/S 40th St
362,40.878353,-96.671454,Prairieview Dr
216,40.735283,-96.679172,Lambert Pl/Brummond Dr
160,40.827975,-96.601174,Holdrege St
160,40.731559,-96.671928,S 34th Street Cir
246,40.836298,-96.639179,Walker Ave
216,40.854890,-96.630414,Morrill Ave/N 66th St
552,40.835288,-96.645847,N 54th St/Leighton Ave
305,40.752359,-96.663376,Duxhall Dr/S 40th St
1046,40.855378,-96.711844,/Superior St
276,40.815629,-96.751540,W Q St/Lockwood Ct
216,40.795093,-96.672840,S 33rd St
185,40.622037,-96.633804,4th St/E 4th St/Main St
216,40.915063,-96.538466,Northloch Ln/Highlander Pl/Northloch St
276,40.727500,-96.696060,Cody Dr
160,40.800987,-96.613766,Rosewood Dr/Hickory Ln
160,40.744796,-96.662646,S 41st St/Pinewood Ln
160,40.788465,-96.615322,Larchdale Dr/S 75th St
418,40.846002,-96.682196,N 27th St
160,40.538187,-96.603481,E 8th St/Russell St
276,40.819130,-96.672844,N 33rd St/T St
246,40.857191,-96.788089,W Kent St/NW 49th St
246,40.816315,-96.758873,NW 27th St
185,40.929102,-96.624514,N 70th St/Waverly Rd
185,40.799140,-96.734987,Trimble St/SW 9th St/W A St
276,40.784332,-96.639534,Van Dorn St/S 60th St
216,40.854890,-96.631716,Morrill Ave/N 65th St
994,40.822136,-96.693855,N Antelope Valley Pkwy
246,40.840586,-96.721134,NW 1st St/W Garber Ave
276,40.771506,-96.700278,/State Hwy 2
160,40.735339,-96.625378,S 70th St
334,40.896798,-96.643577,I- 80/N 56th St
362,40.795903,-96.702769,S 13th St/Sumner St
160,40.791567,-96.628779,Pacific Dr/South St
185,40.851498,-96.624873,N 70th St/David Murdock Trl
684,40.769701,-96.622068,Pioneers Blvd/Pioneer Woods Dr/Stacy Ln
246,40.831873,-96.797050,NW 57th St
160,40.861819,-96.623481,N 71st St/Thurston St
185,40.864752,-96.624802,N 70th St/N Cotner Blvd
160,40.773802,-96.700410,Burnham St/S 15th St
276,40.731947,-96.701524,S 14th St
276,40.798225,-96.738243,Homestead Expy
362,40.850585,-96.701104,Atlas Ave/N 14th St
160,40.750173,-96.698674,Old Farm Rd/Berkeley Dr
216,40.829791,-96.615452,Aylesworth Ave/Aylesworth
216,40.730443,-96.701518,S 14th St
160,40.816621,-96.616605,Jeffery Dr/Mesa Rd
160,40.858134,-96.639827,Platte Ave
362,40.844789,-96.716701,Richard Ct
216,40.803373,-96.627516,Teton Dr/Foxcroft Ct
276,40.844601,-96.732581,Christina Ct
552,40.842553,-96.641518,Adams St/N 58th St
631,40.830899,-96.672841,N 33rd St/Doane St
445,40.857225,-96.653591,N 48th St/Superior St
185,40.879459,-96.726357,Stonebrook Pkwy/Nighthawk Rd
334,40.717263,-96.632715,S 64th St/Countryview Ct
185,40.796552,-96.686533,S 24th St/Garfield St
418,40.817423,-96.742700,Surfside Dr/W S St
160,40.653886,-96.756956,W Roca Rd
160,40.749137,-96.605599,S 85th Ct
185,40.800328,-96.711534,W B St/S 7th St/B St
185,40.772912,-96.609321,S 81st St/Prescott Ave
185,40.820039,-96.901710,/W Windridge Ln
579,40.769866,-96.672871,Pioneers Blvd/S 33rd St
579,40.836823,-96.719279,Saunders Ave/Countryside Ln
185,40.821758,-96.671525,W St/N 34th St
216,40.864694,-96.701834,Morton St/N 13th St
736,40.755481,-96.682436,S 27th St/Old Cheney Rd
472,40.819879,-96.606037,N 84th St
160,40.762497,-96.617338,Glynoaks Dr
762,40.857985,-96.644213,N 56th St/Superior St
1174,40.823380,-96.715085,Line Drive Cir
160,40.773227,-96.690272,Burnham St/Dunn Ave
160,40.741637,-96.701553,S 14th St
185,40.750892,-96.600446,Franciscan Dr/Foxtail Dr
305,40.860761,-96.643380,Russell Dr/N 56th St
160,40.733553,-96.615833,Boone Trl
185,40.798933,-96.655303,Three Pines Ct/A St
1046,40.791697,-96.696746,S 17th St/South St
445,40.756320,-96.644251,S 56th St/State Hwy 2
334,40.769737,-96.643380,Pioneers Blvd
362,40.774005,-96.654052,Cooper Ave/S 48th St
334,40.841917,-96.669280,N 36th St
246,40.750026,-96.663383,Faulkner Dr/S 40th St
362,40.825269,-96.663316,Orchard St/N 40th St
185,40.748657,-96.611762,Lucys Ct
185,40.834198,-96.631814,Garland St/N 65th St
526,40.837193,-96.613515,N 81st St/N 80th St/Willard Ave
160,40.805931,-96.635126,Ripley Dr/Sunrise Rd
160,40.833320,-96.604028,N 86th St
1071,40.802566,-96.682257,S 27th St/Capitol Pkwy
160,40.805882,-96.714554,G St/S 5th St
246,40.744857,-96.655068,Rockwood Ln
334,40.896792,-96.645580,I- 80
160,40.832956,-96.791694,W Sparrow Ln/W Condor Ln
552,40.870855,-96.720478,Purple Heart Hwy
334,40.782642,-96.611189,Waterford Cir
390,40.822911,-96.634579,N 63rd St/X St
552,40.874884,-96.606765,N 84th St
710,40.755429,-96.682436,S 27th St
813,40.820653,-96.635163,Vine St
362,40.834147,-96.612217,Garland St/Clearwater Bay
305,40.847593,-96.648441,Hartley St/N 52nd St
246,40.844449,-96.741728,W Bond Cir
246,40.912081,-96.528583,Folkestone St
813,40.816861,-96.682391,R St/N 27th St
185,40.654043,-96.707365,/Roca Rd
246,40.816298,-96.632816,Q St
246,40.819445,-96.746333,NW 17th St/Surfside Dr
160,40.769227,-96.641918,S 58th St/Locust St
216,40.820514,-96.725256,Cherry Creek Rd
160,40.817887,-96.668877,N 36th St
185,40.748891,-96.606086,S 84th St
160,40.742520,-96.596453,S 91st St/Round Hill Dr
216,40.831646,-96.676995,N 31st St/Fair St
160,40.746030,-96.720485,S 1st St/W Denton Rd
362,40.833176,-96.630450,Colby St
185,40.858345,-96.733699,W Jennifer Dr/NW 9th St
917,40.862932,-96.710664,N 7th St
994,40.837338,-96.707846,Cornhusker Hwy
160,40.835264,-96.640546,Leighton Ave/N 59th St
185,40.657741,-96.657067,Roca Rd
216,40.851765,-96.648442,Seward Ave/N 52nd St
246,40.846531,-96.656273,N 46th St/Gladstone St
499,40.840296,-96.672809,N 33rd St/Madison Ave
276,40.825099,-96.637571,Salisbury Ct/Norfolk Dr
216,40.784461,-96.693762,S 19th St/W Van Dorn St
305,40.796219,-96.699677,S 15th St/Sumner St
276,40.819125,-96.749409,NW 20th St
246,40.754549,-96.596337,S 91st St/Merryvale Dr
684,40.852177,-96.684149,Old Dairy Rd
160,40.850240,-96.772155,NW 36th St/W Luke St
276,40.761176,-96.669958,S Windlesham Ct
185,40.754424,-96.590429,Mortensen Dr
334,40.798126,-96.711108,S 7th St/Washington St
276,40.818702,-96.746341,NW 17th St/Granada Ln
305,40.732507,-96.600405,State Hwy 2
362,40.768309,-96.668129,Allendale Dr/S 37th St/S 36th St
362,40.817422,-96.742172,W S St/NW 14th St
160,40.668753,-96.547194,Wittstruck Rd
216,40.805887,-96.715869,S 4th St/G St
216,40.834299,-96.706890,N 11th St
1278,40.827079,-96.682169,N 27th St/Starr St
276,40.799996,-96.690572,S 21st St/B St
216,40.770483,-96.663357,S 40th St/Clifford Dr
160,40.813542,-96.782742,SW 44th St
160,40.821120,-96.844305,NW 91st St/W Vine St
246,40.734243,-96.609711,S 81st St
1200,40.806943,-96.702697,H St/S 13th St
160,40.588808,-96.837697,SW 86th St/
390,40.820114,-96.609031,Russwood Cir
305,40.886154,-96.697355,N 16th St/Alvo Rd
185,40.849674,-96.637177,Benton St/N 61st St
276,40.793926,-96.606059,Brent Blvd/S 84th St
3225,40.813421,-96.630619,O St
216,40.737109,-96.636336,Eureka Dr/Exbury Rd
160,40.797847,-96.632965,Twin Ridge Rd/Rogers Cir
305,40.842540,-96.638554,Adams St/N 60th St
390,40.855934,-96.639911,Touzalin Ave/Ballard Ave
216,40.776017,-96.663326,Chapin Cir/S 40th St
684,40.755672,-96.701730,Old Cheney Rd
185,40.749245,-96.606087,S 84th St
10118,40.817522,-96.698171,N 16th St
362,40.850718,-96.631718,Colfax St/N 65th St
216,40.684730,-96.508951,Vince Dr/Jefferson St
185,40.796206,-96.764219,SW 30th St/W Rose St
305,40.850280,-96.721803,NW Ash Ct/W Benton St
788,40.807005,-96.693677,S 19th St
276,40.878892,-96.686201,Whitehead Dr
160,40.907067,-96.559079,N 120th St
185,40.828958,-96.631860,Fairfax Ave/N 65th St
305,40.764383,-96.676235,Jasper Ct
160,40.744902,-96.800857,Raven Ridge Ct
305,40.736943,-96.696508,S 18th St/Marlene Dr
185,40.762523,-96.651576,Claire Ave/Cresthaven Dr
160,40.820686,-96.611689,Vine St/Sierra Dr
499,40.755669,-96.703230,Warlick Blvd/Old Cheney Rd
445,40.771803,-96.652328,S 49th St/Lowell Ave
472,40.843822,-96.703595,N 12th St/Nelson St
185,40.819685,-96.748278,Surfside Dr/NW 19th St
305,40.861076,-96.701789,Hilltop Rd
334,40.849706,-96.696974,Benton St/N 17th St
445,40.764863,-96.625275,S 70th St
445,40.818658,-96.637216,N 62nd St
579,40.801447,-96.689266,C St/S 22nd St
246,40.793108,-96.701475,Mulberry St/S 14th St
246,40.794829,-96.755897,W Peach St/SW 26th St
276,40.822588,-96.687034,W St/N 23rd St
216,40.824868,-96.645716,N 55th St
185,40.758663,-96.645833,S 55th St/Shady Creek Ct
418,40.770777,-96.650649,S 51st St/Meredeth St
160,40.722687,-96.679718,S 29th St
276,40.785809,-96.702811,S 13th St/Hill St
552,40.830868,-96.688071,Whittier St
246,40.852019,-96.692083,N 20th St/Bellville Dr
305,40.847589,-96.630419,N 66th St/Hartley St
185,40.745930,-96.665800,Leesburg St/Williamsburg Dr
185,40.849291,-96.622972,Yosemite Dr/Chapel Hills Ln
160,40.762850,-96.604449,Pinehill Ln
216,40.848658,-96.678650,Menard Dr
185,40.847480,-96.708314,Hartley St/N 9th St
246,40.831191,-96.614906,N 79th St/Medicine Hat Rd
276,40.868928,-96.624639,Cornhusker Hwy
276,40.831650,-96.674603,Fair St/Griffith St
246,40.740208,-96.614164,State Hwy 2/Pine Lake Rd
160,40.751247,-96.632307,Frontier Rd
418,40.777556,-96.644250,S 56th St/Fairacre Ct
362,40.863257,-96.695378,Prairie Ln/Foxglove Cir
362,40.849887,-96.658874,N 44th St/Edison Cir
736,40.868683,-96.724489,NW 1st St/W Fletcher Ave
472,40.813628,-96.718786,O St/S 2nd St
160,40.769469,-96.659486,S 44th St
305,40.764801,-96.678801,Sardius Ct/S 30th St
185,40.697377,-96.681469,Saltillo Rd
390,40.827985,-96.638769,N 60th St/Holdrege St
185,40.747871,-96.702445,Thunderbird Cir
246,40.733345,-96.672660,S 33rd St/Whitlock Rd
160,40.798996,-96.614851,A St
216,40.732307,-96.641592,S 59th St/Cavvy Rd
160,40.851762,-96.635802,Seward Ave/N 62nd St
445,40.831423,-96.609072,Northern Lights Dr
185,40.795305,-96.680018,S 28th St/Sumner St
276,40.711684,-96.553749,Rokeby Rd
499,40.791704,-96.699127,S 16th St/South St
246,40.798692,-96.750766,SW 22nd St/Kara Ln
736,40.826612,-96.701278,New Hampshire St/N 14th St
362,40.776989,-96.644341,S 56th St/Calvert St
334,40.844545,-96.631722,Knox St/N 65th St
160,40.807998,-96.642897,J St/S Cotner Blvd
185,40.845549,-96.728191,NW 6th St/Mormon Trl
160,40.729499,-96.687237,Katrina Ln/Scotch Pine Trl
684,40.836584,-96.682223,State Fair Park Dr/N 27th St
334,40.767995,-96.627366,Stacy Ln/S 69th St
185,40.855101,-96.696929,Dodge St/Belridge Dr
160,40.856457,-96.521597,/Havelock Ave
334,40.839598,-96.615930,Rutledge Ave/N 78th St
710,40.818111,-96.682386,N 27th St
1174,40.820793,-96.683802,Vine St
160,40.801451,-96.718861,C St/S 2nd St
185,40.748511,-96.658062,Browning St/S 44th St/Browning Pl
185,40.857095,-96.649707,Superior St
472,40.814606,-96.644145,P St/N 56th St
160,40.538194,-96.602294,/Abraham St/E 8th St
185,40.875439,-96.696942,Plata Ct/Grays Peak Dr
276,40.799112,-96.726568,W A St/SW 5th St
334,40.864716,-96.706489,Morton St/N 10th St
276,40.851766,-96.651045,N 50th St/Seward Ave
160,40.801758,-96.656849,Hill Dr
418,40.796195,-96.677296,Garfield St/Jefferson Ave
276,40.796202,-96.678892,S 29th St/Garfield St
185,40.740139,-96.656248,Woody Creek Cir
246,40.806853,-96.720280,S 1st St/Capitol Pkwy W
185,40.743721,-96.663408,Leesburg St/S 40th St
185,40.883945,-96.697376,Redstone Rd/N 16th St
160,40.748804,-96.626462,Southfork Cir/S 69th St
185,40.756656,-96.615217,S 78th St/Barrington Pl/Red Oak Rd
390,40.869468,-96.689936,Atwood Ln/N 21st St
246,40.835278,-96.642931,N 57th St/Leighton Ave
160,40.863626,-96.777941,NW 40th St
390,40.842467,-96.695625,Cornhusker Hwy/
160,40.883059,-96.724104,NW 4th St
160,40.843560,-96.644130,N 56th St/Greenwood St
246,40.775757,-96.686555,Country Club Blvd/Stockwell St
216,40.788466,-96.655021,Normal Blvd
160,40.919567,-96.537644,Northloch Ln
216,40.756945,-96.692580,Heather Ln/S 20th St
334,40.754286,-96.671407,S 34th St/Village Dr
246,40.772096,-96.696307,Rancho Rd/S 17th St
1123,40.828034,-96.666587,Holdrege St/Dairy Store Dr
362,40.872991,-96.693285,Silver Brook Pl/Colorado Dr
246,40.758908,-96.612534,S 80th St/Grand Oaks Dr
276,40.836946,-96.619669,Walker Ave/Dorothy Dr
216,40.839307,-96.658867,N 44th St/Saint Paul Ave
216,40.747216,-96.678957,Durango Ct/Coronado Dr
334,40.797022,-96.710075,S 8th St/Garfield St
160,40.819657,-96.586708,Blue Water Bay
334,40.799575,-96.632999,Twin Ridge Rd/Rainier Dr/Rainier Ct
390,40.878936,-96.687554,Wildcat Cir
185,40.793909,-96.628582,E Bermuda Dr/Monterey Dr
160,40.796704,-96.630539,Broadmoore Dr/Everett St
160,40.885380,-96.520935,N 148th St/Alvo Rd
762,40.809188,-96.699733,Centennial Mall S/K St
813,40.843813,-96.702402,N 13th St/Nelson St
216,40.755380,-96.667776,Village Blvd/Old Cheney Rd
246,40.817404,-96.756471,I- 80/
185,40.762955,-96.677887,Agate Ct/S 30th St
160,40.655375,-96.686254,Roca Rd/S 25th St
185,40.808008,-96.650119,J St/S 51st St
1046,40.827934,-96.630550,N Cotner Blvd/Holdrege St
246,40.730264,-96.695847,Scotch Pine Trl
246,40.871263,-96.614105,Cornhusker Hwy
276,40.813387,-96.758888,SW 27th St/SW 25th St
216,40.836283,-96.633100,N 64th St/Walker Ave
160,40.939065,-96.643496,/N 56th St
160,40.842933,-96.755013,W Greenlief St
160,40.803690,-96.715953,E St
185,40.725831,-96.677992,S 30th St
246,40.795780,-96.627092,Sumner St/Kingston Rd
994,40.843637,-96.623215,N 72nd St
216,40.750920,-96.600081,Foxtail Dr
246,40.857416,-96.707103,N 10th St/Superior St
216,40.812147,-96.609883,Beechwood Dr/Redwood Ln
185,40.731902,-96.643605,Greycliff Dr/Cavvy Rd
185,40.802564,-96.663267,S 40th St/D St
305,40.869925,-96.681900,Enterprise Dr/N 27th St
334,40.743901,-96.682525,S 27th St
445,40.791630,-96.644161,S 56th St/South St
1226,40.823625,-96.682333,Mopac Trl/N 27th St
526,40.809226,-96.712955,S 6th St/K St
362,40.837338,-96.664068,Huntington Ave
362,40.838686,-96.725236,NW 4th St/W Nance Ave
418,40.813825,-96.754675,W O St
305,40.857103,-96.639910,Havelock Ave/Touzalin Ave
160,40.737266,-96.638585,Upton Grey Ln
160,40.713133,-96.626728,Vanderslice Cir
246,40.779208,-96.701597,Arapahoe St/S 14th St
839,40.795219,-96.696697,S 17th St/Prospect St
9953,40.814747,-96.701157,P St/N 14th St
499,40.813538,-96.666276,O St
305,40.815757,-96.772498,I- 80/
185,40.734646,-96.750499,Fireplace Cir
185,40.732920,-96.674114,Omalley Dr
2168,40.837615,-96.705920,Cornhusker Hwy/N 11th St
418,40.874254,-96.685803,Telluride Dr
472,40.846072,-96.695544,Groveland St/Groveland Cir/Hartley St
160,40.530977,-96.604908,1st St/May St
160,40.872604,-96.611606,Cornhusker Hwy/
185,40.845531,-96.744827,N Park Rd/Aviation Rd
246,40.893538,-96.670562,I- 80/Arbor Rd
185,40.856983,-96.620936,Havelock Ave/N 73rd St
216,40.741433,-96.653970,Crooked Creek Ct
216,40.834717,-96.791156,W Thatcher Ln/NW 52nd St
305,40.815628,-96.753380,W Q St/NW 23rd St
216,40.680788,-96.505474,Jackson St/Elm St
305,40.896817,-96.601774,I- 80
276,40.844817,-96.623262,N 72nd St/Willow Ave
305,40.865361,-96.642504,N 57th St/Johanna Rd
246,40.837802,-96.608946,N 82nd Ct
246,40.866000,-96.691603,Shooting Star Dr/Arctic Dr
276,40.859609,-96.719193,I- 80
305,40.857079,-96.640043,Havelock Ave/Touzalin Ave
445,40.817094,-96.646071,R St/Orcutt Ave W
185,40.851760,-96.627814,Seward Ave/N 68th St
160,40.679968,-96.511412,Fir St
185,40.855640,-96.704743,N Lewis Ave/Holltorf St
185,40.879549,-96.698172,N 16th St/Blackhawk Cir/Blackhawk Dr
526,40.842563,-96.647148,Adams St/N 53rd St
216,40.804785,-96.714542,F St/S 5th St
526,40.755912,-96.670731,Longhorn Cir/Briarwood Ave
362,40.739505,-96.637904,S 61st St
160,40.779398,-96.677623,Sherman St/S 31st St
216,40.859927,-96.640435,Cornhusker Hwy
276,40.845989,-96.732825,I- 80
362,40.851515,-96.688855,Mason Dr/Mason Cir
160,40.716002,-96.690267,Hollow Tree Dr/Hollow Tree Pl
305,40.797588,-96.606045,S 84th St
1929,40.818083,-96.708458,S St/I- 180/N 9th St
276,40.831851,-96.669689,Fair St/N 35th St
185,40.754443,-96.589031,Mortensen Dr/S 97th St
216,40.792099,-96.712804,Gillespie St
362,40.839170,-96.789847,W Champion Ct
246,40.767097,-96.664196,S 39th St/Spruce St
185,40.826910,-96.627817,Starr St/N 68th St
216,40.809837,-96.660872,S 42nd St/L St
246,40.855958,-96.624855,N 70th St/Ballard Ave
216,40.789969,-96.734291,Folsom Byp/Homestead Expy
1381,40.811394,-96.701171,M St/S 14th St
390,40.840089,-96.715635,N 3rd St/Candlewood Ln
216,40.754396,-96.701674,S 14th St
160,40.911148,-96.526336,Carlson Ct
185,40.523730,-96.610179,Gage Rd/S 82nd St
5108,40.816924,-96.696725,R St/N 17th St
160,40.775375,-96.670616,S 35th St/Stockwell St
499,40.835293,-96.672811,Leighton Ave/N 33rd St
579,40.838290,-96.670584,Baldwin Ave/N 35th St
185,40.759449,-96.649065,Boeckner Ave/S 52nd St
160,40.829979,-96.633152,N 64th St/Aylesworth Ave
276,40.751415,-96.660058,Duxhall Dr/S 43rd St
579,40.842887,-96.739639,NW 12th St//W Adams St
185,40.842508,-96.632446,Adams St/N 64th St
246,40.762935,-96.633038,Skylark Ln/S 65th St
305,40.827991,-96.603427,N 86th St/Holdrege St/Eagle Crest Rd
160,40.912542,-96.777367,NW 40th St
362,40.806088,-96.624014,Englewood Dr/S Wedgewood Dr
276,40.787137,-96.731272,/W Van Dorn Rd
160,40.966281,-96.662304,/N 40th St
891,40.847082,-96.682189,N 27th St
160,40.799115,-96.721761,SW 1st St/W A St
160,40.750957,-96.595086,Foxtail Dr/S 93rd St
390,40.749181,-96.667449,Faulkner Dr/Cape Charles Dr
216,40.893489,-96.643575,/N 56th St
552,40.798021,-96.695399,Washington St/S 18th St
499,40.872684,-96.691552,N 19th St/Gunnison Dr
684,40.822671,-96.652665,N 49th St/Wilshire Blvd
216,40.820825,-96.815567,I- 80
185,40.744981,-96.681730,Sonora Ct/Laredo Dr
276,40.791682,-96.679900,Jefferson Ave/South St
276,40.762527,-96.652659,Claire Ave/Woodhaven Dr
526,40.809232,-96.714198,K St
305,40.895741,-96.567638,Cornhusker Hwy/I- 80
185,40.737323,-96.844251,SW 91st St
160,40.750770,-96.618691,Cross Creek Ct
445,40.839370,-96.725247,NW 4th St/W Belmont Ave
334,40.817443,-96.722950,Sun Valley Blvd
216,40.907189,-96.501776,N 162nd St
160,40.523077,-96.707154,Gage Rd/Homestead Expy
445,40.827085,-96.654951,N 47th St/Starr St
185,40.834207,-96.618909,Garland St/Dorothy Dr
185,40.741299,-96.845559,W Denton Rd/Lancaster Ave
1071,40.811296,-96.690652,M St//S 21st St
160,40.803709,-96.721237,W E St
160,40.794594,-96.726655,Blue Heron Ct/Blue Heron Dr/SW 5th St
305,40.788058,-96.682490,S 27th St/Lake St
160,40.716273,-96.680496,S 28th St/Valley Stream Dr
216,40.751472,-96.645761,Waltz Pl
246,40.818562,-96.796337,I- 80/NW 56th St
305,40.870318,-96.729690,W Beal St/NW 5th St
276,40.785882,-96.629864,Park Crest Dr/S 66th Pl/Park Crest Ct
418,40.831440,-96.607268,Northwoods Dr/Northern Lights Dr
390,40.871468,-96.732586,NW Gary St/W Beal St
1511,40.813541,-96.658500,O St/N 44th St/S 44th St
185,40.847590,-96.637178,Hartley St/N 61st St
185,40.794157,-96.769037,W Peach St/SW 33rd St
246,40.809987,-96.613032,N Hazelwood Dr/Sycamore Dr
160,40.786136,-96.731174,Folsom Byp
362,40.769766,-96.654083,Pioneers Blvd/S 48th St
185,40.743621,-96.666367,Old Dominion Rd/Potomac Ln
160,40.738091,-96.615836,Portsche Ln
185,40.768216,-96.635976,Elkcrest Cir
579,40.773829,-96.703056,Vermaas Pl
1071,40.813609,-96.692431,O St/N 20th St
185,40.900991,-96.643576,/N 56th St
246,40.836287,-96.638919,Walker Ave/N 60th St
185,40.787139,-96.696798,S 17th St/Perkins Blvd
160,40.681689,-96.505493,Dogwood St/Jackson St
216,40.744608,-96.664244,Petersburg Ct
185,40.791378,-96.680063,Jefferson Ave/Bradfield Dr
526,40.809224,-96.712412,K St
246,40.812412,-96.647732,S 53rd St/N St
160,40.800750,-96.655116,Mohawk St/Mohawk Cir
160,40.820393,-96.910657,I- 80/140th
334,40.820736,-96.664499,Vine St/N 39th St
216,40.837273,-96.641520,Huntington Ave/N 58th St
362,40.895909,-96.567323,Cornhusker Hwy/I- 80
185,40.798937,-96.658472,A St/S 44th St
246,40.908488,-96.520087,N 149th Pl/Castlewood St/N 149th St
246,40.920383,-96.466539,I- 80/
160,40.851249,-96.635802,N 62nd St
216,40.864743,-96.724683,W Chancery Rd/Chancery Ln
160,40.785167,-96.628415,Katy Cir
334,40.741473,-96.671574,S 34th St/Gettysburg Dr
418,40.805841,-96.701206,G St/S 14th St
710,40.828606,-96.609006,Northwoods Dr/Egan Dr
185,40.729162,-96.604317,S 86th St
276,40.916057,-96.529635,N 141st St
160,40.732578,-96.681460,S 28th St/Omalley Dr
160,40.865940,-96.624619,N 70th St
362,40.835127,-96.795426,NW 55th St/W Redberry Ln
160,40.731210,-96.668212,O'Hanlon Dr/S 36th St
185,40.742521,-96.650819,Bear Creek Rd
185,40.799562,-96.646445,Piedmont Rd/Ellendale Rd
736,40.808066,-96.692515,S 20th St/J St
334,40.767959,-96.640610,Oakridge Dr/Locust St
185,40.794517,-96.750771,SW 21st St/W Peach St
160,40.852483,-96.738353,NW 12th St/King Bird Rd
185,40.737375,-96.680008,S 28th St/Porter Ridge Rd
552,40.799964,-96.682475,S 27th St/B St
526,40.820713,-96.606034,Vine St/N 84th St
276,40.824738,-96.612079,Thunder Bay
362,40.746202,-96.625349,State Hwy 2
305,40.840303,-96.631598,N 65th St/Madison Ave
579,40.817083,-96.639301,R St/N 60th St
160,40.780843,-96.647258,S 54th St/Melrose Ave
160,40.736782,-96.661823,S 41st St/Birch Creek Dr
160,40.730522,-96.684916,S 25th St/Grainger Pkwy
160,40.786302,-96.740353,SW 12th St/Bigtree Cir/Bordeaux Rd
160,40.531648,-96.605894,Main St/E 2nd St
160,40.735723,-96.612148,Sonatta Ct
943,40.829811,-96.648450,David Dr/N 52nd St
499,40.851120,-96.653622,N 48th St
418,40.842639,-96.671838,Adams St/Cornhusker Hwy
3115,40.822714,-96.698152,N 16th St/W St
160,40.791610,-96.639204,Manor Ct/South St
216,40.820654,-96.618700,Vine St/E Avon Ln
917,40.826927,-96.630559,N 66th St/N Cotner Blvd
185,40.757217,-96.618597,Red Oak Ct
390,40.841290,-96.633719,Delhay Dr/Cleveland Ave
390,40.853409,-96.684299,N 25th St/Northline Ct/Old Dairy Rd
334,40.857077,-96.639701,Havelock Ave
276,40.846917,-96.787305,NW 48th St
246,40.803616,-96.692463,S 20th St/E St
160,40.849684,-96.725039,NW Ebony Ct/W Fairfield St
390,40.782589,-96.670437,S 35th St/Pawnee St
185,40.833196,-96.634565,N 63rd St/Colby St
216,40.782577,-96.663868,Pawnee St
160,40.773785,-96.616837,Cooper Ave/Cooper Pl
216,40.871891,-96.740236,W Fletcher Ave
334,40.853425,-96.725088,I- 80
185,40.827129,-96.650046,N 51st St/Starr St
305,40.778544,-96.663313,Sheridan Blvd/S 40th St
160,40.623087,-96.632679,E 5th St
185,40.790772,-96.682407,S 27th St/Ryons St
305,40.821590,-96.752619,/I- 80
334,40.819853,-96.626149,Marcia Ln/Eldora Ln
216,40.764955,-96.675450,Jasper Ct/Stephanos Dr
216,40.749323,-96.684289,Bretigne Cir/Heide Ln/Bretigne Dr
334,40.839700,-96.619510,Rutledge Ave/N 75th St
246,40.867623,-96.736852,W Harvest Cir
362,40.845969,-96.663203,N 41 St/David Murdock Trl
160,40.746389,-96.720444,Homestead Expy
216,40.752986,-96.618688,Cross Creek Cir/Cross Creek Rd
216,40.802553,-96.711519,S 7th St/D St
305,40.730683,-96.698367,Dahlberg Dr/S 16th St
160,40.865741,-96.624624,N 70th St/Custer St
305,40.784331,-96.639362,Van Dorn St/Ponca St
246,40.864369,-96.643763,Morton St/N 56th St
710,40.821346,-96.624992,N 70th St/Lynn St
334,40.740869,-96.671581,S 34th St/Pine Lake Rd
160,40.685047,-96.740219,W Bannertail Ln
160,40.832958,-96.792716,W Songbird Cir
276,40.915697,-96.528311,N 142nd St/Ivanhoe St
390,40.859403,-96.683715,Ticonderoga Dr/N 26th St
185,40.862400,-96.694244,Indigo Rd/N 17th St
160,40.782687,-96.616767,Otoe Cir/Otoe Pl/Fox Hollow Rd
216,40.871644,-96.707728,/Fletcher Ave
160,40.748254,-96.595758,Blackstone Rd/White Hall Ln
390,40.829874,-96.675817,N 32nd St/Potter St
472,40.837431,-96.720364,N 1st St
160,40.840007,-96.795346,NW 55th St/W Saint Paul Ave
276,40.825666,-96.663316,N 40th St/Dudley St
418,40.831659,-96.643986,Francis St
246,40.804987,-96.653692,S 48th St
185,40.777110,-96.668088,S 37th St/Calvert St
362,40.834099,-96.702624,N 13th St
246,40.795392,-96.686546,S 24th St/Sumner St
736,40.792342,-96.699729,S 15th St/Plum St
160,40.762086,-96.612579,Glynoaks Dr/Patmore Rd
160,40.682315,-96.507887,Madison St
185,40.845669,-96.708340,Judson St/N 9th St
185,40.824757,-96.576392,Cessna Cir
216,40.908405,-96.541598,Callum Dr/Amberly Rd
276,40.868204,-96.621970,Cornhusker Hwy
185,40.717057,-96.681612,Forest Ave/Keystone Dr
305,40.749989,-96.704541,Galloway Ave/Argyll Pl
305,40.720726,-96.678464,del Rio Dr
276,40.743106,-96.683607,Ridgeline Ct
305,40.864724,-96.707905,Morton St
185,40.761550,-96.650244,S 51st St/Woodland Ave
246,40.731129,-96.642605,S 58th St/Big Horn Dr
160,40.742489,-96.666910,Old Dominion Rd/Blue Ridge Ln/S 38th St
276,40.806196,-96.669252,Randolph St/S 36th St
160,40.767671,-96.701491,S 14th St
499,40.843561,-96.645845,N 54th St/Greenwood St
305,40.798123,-96.710068,S 8th St/Washington St
658,40.805868,-96.709999,S 8th St/G St
160,40.761303,-96.683277,Winchester N
1772,40.818896,-96.688046,T Blvd/N 23rd St
472,40.815269,-96.603915,N 86th St
813,40.820145,-96.683794,N 26th St/U St
185,40.749528,-96.591127,Glass Ridge Cir
160,40.746065,-96.703502,Campfire Cir
160,40.842535,-96.598346,Adams St/N 90th St
276,40.795079,-96.733945,Regina Ct
216,40.816919,-96.758054,I- 80
839,40.757356,-96.640503,Shady Creek/S 59th St
160,40.794767,-96.722134,Harwood Ct
418,40.823234,-96.668082,Mopac Trl/Fontenelle St
185,40.883836,-96.643440,N 56th St
710,40.818572,-96.606042,Sunridge Rd/N 84th St
185,40.769886,-96.676500,Pioneers Blvd/S 30th St
160,40.958631,-96.719520,W Raymond Rd/Raymond Rd/N 1st St
276,40.838324,-96.786657,W Huntington Ave
1278,40.810294,-96.701178,L St/S 14th St
305,40.822346,-96.610919,Sanborn Dr/E Avon Ln
216,40.736924,-96.667086,S 37th St/el Paso Dr
499,40.804394,-96.672841,F St/S 33rd St
362,40.801378,-96.696823,C St/S 17th St
276,40.797561,-96.745904,W Sumner St/W Garfield St
185,40.767947,-96.649064,Linden St/S 52nd St
216,40.863379,-96.688722,Valley Forge Rd/Liberty Bell Ln
160,40.839623,-96.734543,NW 9th St/W Belmont Ave
362,40.838609,-96.734527,NW 9th St/W Nance Ave
246,40.845543,-96.711741,I- 180
362,40.827100,-96.662116,Starr St/N 41st St
334,40.870489,-96.720069,Purple Heart Hwy
185,40.751899,-96.699714,Bartholomew Cir/Berkeley Dr
185,40.858922,-96.658866,N 44th St
160,40.742445,-96.665640,Old Dominion Ct
160,40.851264,-96.645275,David Murdock Trl
160,40.807505,-96.520914,/S 148th St
160,40.908484,-96.522789,Danvers St/Castlewood St
362,40.868393,-96.738281,NW 12th St/W Keating Dr/NW 13th St
276,40.728577,-96.682853,Jamie Ln
216,40.820401,-96.897834,I- 80
334,40.846091,-96.605672,Market Dr
216,40.805769,-96.606612,Lancashire Ct
185,40.859177,-96.637834,Burlington Ave
216,40.755928,-96.673979,Briarwood Ave/Briarpatch Cir
185,40.758374,-96.606115,S 84th St
710,40.820162,-96.680975,N 28th St/U St
246,40.846545,-96.629110,Gladstone St/N 67th St
390,40.792348,-96.701484,Plum St/S 14th St
390,40.796225,-96.701435,Sumner St/S 14th St
185,40.728297,-96.672712,S 34th St/Grainger Pkwy
334,40.798829,-96.627675,A St/Kingston Rd
160,40.746535,-96.664485,Williamsburg Blvd
891,40.831325,-96.648530,Francis St
390,40.813300,-96.620693,Mopac Trl/O St
160,40.772853,-96.644340,S 56th St/Prescott Ave
185,40.846547,-96.637178,Gladstone St/N 61st St
418,40.844930,-96.711968,I- 180
216,40.865570,-96.689708,Shooting Star Dr/Mission Ln
185,40.877032,-96.696576,Belford St
185,40.720453,-96.680607,S 28th St
160,40.754107,-96.646894,Hallshire Ct
276,40.745904,-96.644332,Shadow Pine Dr/S 56th St
160,40.803690,-96.716005,S 4th St/E St
160,40.534907,-96.606330,Nemaha St/5th St
631,40.747220,-96.668484,Cape Charles Rd E/Cape Charles Rd W/S 35th Ct
185,40.756607,-96.609417,Barrington Rd/S 82nd St
185,40.758990,-96.672363,S Dove Ln/Wildbriar Ln/Dove Cir
160,40.766190,-96.655154,la Salle St/S 47th St
362,40.864410,-96.672981,Folkways Blvd/N 32nd St
216,40.821725,-96.645259,Heumann Dr/N 55th St
160,40.855545,-96.658876,N 44th St
160,40.869931,-96.683468,Enterprise Dr/Wolff Ln
185,40.534910,-96.607775,Allen St/5th St
1252,40.769502,-96.682872,S 27th St
246,40.766025,-96.694754,S 19th St/Center Park Rd
305,40.809144,-96.716134,S 4th St
160,40.780597,-96.701593,Sioux St/S 14th St
160,40.796660,-96.636894,Everett St/Crestline Dr
216,40.811645,-96.648927,M St/S 52nd St
736,40.822758,-96.707293,N 10th St
185,40.737554,-96.671518,S 34th Ct/Casa Grande Ln
276,40.784410,-96.660673,Van Dorn St/S 42nd St/Anderson Dr
216,40.618925,-96.631016,Walnut St/E 1st St
185,40.775646,-96.606856,S 83rd St/S 83rd Street Cir/Stockwell St
160,40.777311,-96.596363,S 91st St/Montello Rd
526,40.782658,-96.644375,S 56th St/Otoe St
246,40.785839,-96.713092,6th St/Hill St
276,40.836655,-96.725196,NW 4th St/W Saunders Ave
160,40.749556,-96.613204,Hunters Ridge Rd
499,40.845717,-96.715545,N 3rd St/Judson St
216,40.772604,-96.666149,S 37th St/Berlene Ave
839,40.813416,-96.603397,O St
160,40.995407,-96.798889,/State Hwy 79
160,40.769016,-96.603588,Pioneer Greens Dr/S 86th St
334,40.842910,-96.703855,Adams St/N 12th St
185,40.788034,-96.664470,Lake St/S 39th St
185,40.775642,-96.703328,S 13th St/Stockwell St
185,40.727724,-96.746088,SW 17th St/W Burr Oaks Rd
160,40.817077,-96.731926,Lamont Cir
185,40.874013,-96.608852,Cornhusker Hwy
472,40.772914,-96.655451,S 47th St/Prescott Ave
160,40.837553,-96.795365,NW 55th St/W Walker Ave
276,40.763762,-96.701623,Radcliff St/S 14th St
160,40.879371,-96.761873,/Purple Heart Hwy
246,40.804391,-96.670444,F St/S 35th St
160,40.800333,-96.713015,S 6th St/W B St/B St
1123,40.842499,-96.653585,N 48th St/Adams St
185,40.827916,-96.627804,Holdrege St/N 68th St
160,40.737211,-96.638603,Upton Grey Ln
276,40.750583,-96.596984,Consentino Ct
160,40.784033,-96.513702,Van Dorn St/S 154th St
185,40.795684,-96.632971,Twin Ridge Rd/Sumner St
160,40.768402,-96.629153,Waterbury Ln/Ridgeview Dr
185,40.914328,-96.523590,Heywood St/N 146th St
185,40.778132,-96.618692,S 75th St/Hillside St
185,40.858001,-96.658871,N 44th St
445,40.856718,-96.690305,Bilmar Cir/N 21st St
334,40.728625,-96.679918,Williamson Dr/Jamie Ln
160,40.774479,-96.661334,S 42nd St
185,40.749225,-96.655985,Bingham Ct/S 46th St
160,40.711824,-96.638788,Weeks Dr/Rokeby Rd
246,40.884171,-96.681851,/N 27th St
160,40.761301,-96.643110,Harmony Ct/Sunlight Ct
968,40.826995,-96.630558,N Cotner Blvd
246,40.777078,-96.659637,Sheridan Blvd/Calvert St
813,40.857866,-96.644223,Superior St
499,40.829829,-96.677014,N 31st St/Potter St
216,40.792638,-96.733709,Erica Ct
216,40.848359,-96.704722,Manatt St/Lewis Ave
160,40.798660,-96.769917,Timber Ridge Rd/Timber Ridge Cir
185,40.824791,-96.603903,Peregrine Ct/Talon Rd
334,40.787134,-96.682495,S 27th St/Sheridan Blvd
246,40.863450,-96.723424,NW Pemberly Ln/Barons Rd
579,40.810157,-96.628500,L St
276,40.861306,-96.731056,W Chadderton Dr/NW 6th St
185,40.742617,-96.644332,S 56th St/Madalyn Rd
216,40.820770,-96.663307,N 40th St
160,40.786464,-96.680295,Sheridan Blvd/Bradfield Dr
160,40.784761,-96.834794,SW 84th St/W Van Dorn Rd
472,40.817014,-96.639301,R St/N 60th St
160,40.757927,-96.627160,Berrywood Ln/Berrywood Ct/Hickory Crest Rd
216,40.769323,-96.692662,Pioneers Blvd
276,40.820916,-96.862417,I- 80
246,40.809874,-96.678344,S 30th St/L St
160,40.758950,-96.609663,Grand Oaks Dr
246,40.791591,-96.634506,Heritage Pines Ct/South St
160,40.537879,-96.508596,Firth Rd
362,40.801352,-96.653676,C St/S 48th St
305,40.787995,-96.730833,Homestead Expy
334,40.796129,-96.611847,Oakdale Ave/Devoe Dr
246,40.791589,-96.633962,Morningside Dr/South St
276,40.839307,-96.638917,N 60th St/Saint Paul Ave
390,40.838583,-96.713781,N 5th St/Nance Ave
160,40.798245,-96.755892,W Washington St/SW 26th St
185,40.759860,-96.618567,S 75th St/Forbes Dr
499,40.852042,-96.710708,Irving St/N 7th St
3308,40.813422,-96.630676,O St/N 66th St
216,40.798265,-96.743979,W Washington St/SW 16th St
160,40.851764,-96.645840,N 54th St/Seward Ave
160,40.840920,-96.670573,N 35th St
276,40.770174,-96.701694,Pioneers Blvd/S 14th St
185,40.740644,-96.687471,Ridge Point Rd/S Ridge Dr
334,40.864381,-96.727352,Lombard Ct/W Lombard Dr
418,40.835292,-96.648448,Leighton Ave/N 52nd St
246,40.790780,-96.611800,Trendwood Dr/S 80th St
216,40.855058,-96.694222,Thomasville Ave/Bellville Dr
276,40.828951,-96.630537,Fairfax Ave/N Cotner Blvd
185,40.878830,-96.728869,NW 7th St
160,40.793430,-96.632817,Franklin St/Twin Ridge Rd
334,40.878704,-96.683752,Telluride Dr
390,40.828145,-96.694179,Holdrege St
216,40.679920,-96.507838,Madison St/Fir St
160,40.798585,-96.563010,A St/S Madison St
185,40.755556,-96.595333,Sandhills Ct
788,40.842638,-96.679538,Cornhusker Hwy/N 29th St
160,40.831592,-96.616640,N 77th St/Lexington Ave
246,40.858879,-96.620947,N 73rd St/Burlington Ave
246,40.821958,-96.727563,W Industrial Lake Dr
3225,40.813358,-96.630677,N 66th St/S 66th St
246,40.855932,-96.624855,N 70th St/Ballard Ave
276,40.791664,-96.685399,Sheridan Blvd/South St
246,40.825626,-96.620415,Lancaster Ln/Meadow Dale Dr
160,40.821372,-96.629500,Bethany Park Dr/N 67th St
160,40.746483,-96.664489,Williamsburg Blvd
710,40.828848,-96.696560,Court St/N 17th St
160,40.595495,-96.705391,S 12th St/Panama Rd
160,40.850477,-96.692800,N 20th St
579,40.817076,-96.641753,R St/N 58th St
185,40.736655,-96.679846,Lawson Dr
246,40.780587,-96.696831,Sioux St/S 17th St
160,40.900097,-96.643577,/N 56th St
684,40.784712,-96.708524,/Van Dorn St
1615,40.857142,-96.683377,N 26th St/Superior St
305,40.766160,-96.651450,S 50th St/la Salle St/Southhaven Dr
185,40.893130,-96.643575,N 56th St
390,40.797122,-96.670443,Everett St/S 35th St
185,40.752963,-96.681615,S 28th Ct
160,40.758664,-96.681164,Moor Dr/Jameson N
160,40.757015,-96.703235,Clearview Blvd/Salt Valley View St
246,40.840191,-96.727953,W Butler Ave/Gaslight Ln
185,40.800338,-96.714513,W B St
552,40.814913,-96.624978,N 70th St
160,40.776608,-96.606086,S 84th St
362,40.837901,-96.779780,W Ashley Cir
185,40.705268,-96.638312,Ricky Rd/Aubree Ave
246,40.846316,-96.787311,W Kingsley St/NW 48th St
185,40.726426,-96.687264,Yankee Hill Rd/Hollynn Ln
276,40.868904,-96.624550,Cornhusker Hwy/N 70th St
160,40.865490,-96.688114,Marigold Ct/Marigold Cir
390,40.755126,-96.642045,State Hwy 2
276,40.850634,-96.620953,Colfax St/Spyglass Ln
276,40.796570,-96.690607,Garfield St/S 21st St
160,40.532352,-96.607823,S 82nd St
216,40.798584,-96.561797,118th St/A St
334,40.807375,-96.625200,S 70th St
185,40.794468,-96.688383,S 23rd St/Euclid Ave
526,40.791777,-96.702677,S 13th St/South St
246,40.854891,-96.638547,Morrill Ave/N 60th St
185,40.854834,-96.789165,NW 50th St/W Metzger St
160,40.683054,-96.857191,W Bennet Rd/SW 100th St
579,40.812263,-96.682270,S 27th St/N St
246,40.793979,-96.689573,Euclid Ave/S 22nd St
246,40.864370,-96.643917,Morton St/N 56th St
246,40.867817,-96.695527,N 17th Street Ct
185,40.844545,-96.632445,N 64th St/Knox St
216,40.769711,-96.637154,Pioneers Blvd/S 61st St
762,40.857934,-96.680485,N 28th St/Chandler Rd
362,40.754035,-96.656850,S 45th St/Abbott Rd
185,40.872931,-96.734437,W Helen Cir
185,40.736782,-96.662130,S 41st St
305,40.766012,-96.701621,Dairy Dr/S 14th St
1355,40.839309,-96.652350,Saint Paul Ave/N 49th St
445,40.812656,-96.623042,Lakewood Dr/Wedgewood Dr
216,40.834615,-96.702627,Virginia St/N 13th St
160,40.686612,-96.502677,Prairie Clover Ln/Tall Grass Cir
216,40.802245,-96.606477,S Hazelwood Dr/Carriage Way
334,40.823890,-96.630582,N 66th St/Y St
276,40.735663,-96.702335,Garrett Ln
813,40.842564,-96.644131,Adams St/N 56th St
216,40.842408,-96.721330,Oliver Cir/Blue Flame Rd
305,40.756577,-96.650697,S 50th St/Rentworth Dr
185,40.755224,-96.594352,S 93rd St/Old Cheney Rd
246,40.745900,-96.681675,Odessa Ct
390,40.806076,-96.620842,S Wedgewood Dr/Aspen Ln
362,40.731323,-96.666300,Pablo Ln
160,40.719086,-96.663440,S 40th St
276,40.732503,-96.690785,Brennen View Ct
185,40.789793,-96.711547,S 7th St
160,40.848668,-96.520979,N 148th St
994,40.831325,-96.648617,Francis St
305,40.819124,-96.668999,T St
185,40.800750,-96.656088,Mohawk St/S 46th St
185,40.853378,-96.794908,NW 54th St/Lindsey Cir
246,40.823494,-96.657329,N 45th St
362,40.806190,-96.662050,S 41st St/Randolph St
362,40.845345,-96.664372,David Murdock Trl
362,40.788043,-96.670438,Lake St/S 35th St
418,40.798713,-96.676025,/A St
968,40.822571,-96.684656,N 25th St/W St
305,40.808120,-96.718680,J St
160,40.788069,-96.687138,Lake St/S 24th St
1278,40.852055,-96.683541,N 26th St/Old Dairy Rd
160,40.841124,-96.708764,Furnas Ave/N 9th St
390,40.781922,-96.644476,S 56th St/Woodsview St
160,40.731896,-96.644356,S 56th St/Cavvy Rd
305,40.835774,-96.601138,Broken Spoke Dr
445,40.824305,-96.598474,N 92nd St
418,40.819847,-96.625000,Marcia Ln/N 70th St
334,40.802581,-96.715947,D St
246,40.737523,-96.669344,Pela Verde Cir
246,40.746819,-96.681674,Sedalia Cir
160,40.782716,-96.695657,S 18th St/Pawnee St
276,40.745284,-96.665378,Lynchburg Ct/Leesburg St
185,40.834233,-96.615440,Garland St/N 78th St
160,40.877530,-96.724571,Saltgrass Ct/Saltgrass Rd/Bushclover Rd
246,40.799198,-96.702751,S 13th St/A St
968,40.857477,-96.643666,Cornhusker Hwy
305,40.803382,-96.625201,S 70th St/Teton Dr
631,40.793508,-96.682419,Franklin St/S 27th St
160,40.757194,-96.703180,Clearview Blvd/Salt Valley View St
