Estimated daily crossings,Latitude,Longitude,Name
390,39.719130,-85.885152,S Elm St/Wilson Dr
334,39.772401,-85.885966,Havens Dr/Windhaven Ct
246,39.933344,-85.852970,N McCarty St/W Church St
160,39.816767,-85.773479,Fields Blvd
246,39.940554,-85.852656,West Carolina St
160,39.825254,-85.953091,N 800 W
246,39.825654,-85.692529,/I- 70
246,39.719962,-85.884817,S Elm St/E Main St/N Elm St
246,39.887969,-85.576654,Main St/Shirley St
160,39.792951,-85.774770,Oak Ct/Oak Blvd
216,39.790611,-85.947929,Abel Cir
865,39.810409,-85.768068,Melody Ln/E Muskegon Dr
160,39.789935,-85.659175,E Main St
216,39.771417,-85.649161,E 100 S
445,39.792937,-85.764029,Wood St
246,39.796007,-85.769604,State St/Hmh Private Dr
185,39.883819,-85.938073,Carroll Rd
185,39.798251,-85.774956,Oak Blvd/W Michigan St
185,39.735067,-85.894031,S Leonard Rd
160,39.794691,-85.754632,Cortland Ct
276,39.806711,-85.771806,W McClarnon Dr/Green Meadows Dr
160,39.736964,-85.932826,W Willow Grove Dr/S 700 W
216,39.938860,-85.851487,N Main St
246,39.930393,-85.849899,W Broadway St/S McCarty St
246,39.789017,-85.763964,Lincoln St/Wood St
246,39.884107,-85.934873,Denton Dr/Garland Ct
185,39.808175,-85.784042,Montgomery Ct/Kingen Dr
160,39.922996,-85.868619,Pendleton Pike
160,39.780977,-85.796309,/Eli Lilly
160,39.749755,-85.762022,E Bomar Blvd/S Brandywine Ct
160,39.797642,-85.931590,N Maiellen Dr/W 100 N
216,39.757928,-85.891875,S Philadelphia Pass
160,39.797659,-85.753796,Cricket Reel Dr/Morningside Dr
185,39.790047,-85.782195,Franklinet/W 7th St/Greenfield High School
160,39.778121,-85.923876,W US Hwy 40
160,39.791394,-85.613991,E Main St
160,39.765694,-85.773317,Summer Shade Ct/Penny Ln
813,39.722876,-85.895366,W Walnut St/S 500 W
160,39.822153,-85.689477,N 600 E/E 250 N
185,39.796119,-85.774877,Grandison Rd/Oak Blvd
160,39.914722,-85.843373,W 900 N/N 200 W
216,39.807715,-85.753452,Bayberry Dr/E McClarnon Dr
246,39.803492,-85.749352,Evergreen Dr/Cypress Dr
185,39.783505,-85.949035,Harvest Glen Dr/Harvest Glen Ct
160,39.836305,-85.779726,Lakewood Ct
276,39.785535,-85.762704,Main St/Pratt St
334,39.737021,-85.926310,W Willow Grove Dr/W Cross Trl
160,39.829558,-85.679343,E 300 N
246,39.936906,-85.848595,N Leland St/Center St
160,39.922835,-85.927803,Pin Oak Dr/Telluride Station/Breckenridge Station
160,39.890647,-85.576628,Main St/Center St
216,39.793721,-85.775860,W Boyd Ave/N Noble St
334,39.791264,-85.612678,Carthage Rd/E Main St
579,39.806999,-85.952911,N 800 W/I- 70
185,39.743449,-85.916417,S Colton Rd/W Colton Ct
160,39.720488,-85.770113,E Greyhawk Way/S 200 E
246,39.804182,-85.779924,Green Meadows Dr/N Broadway St
160,39.885841,-85.822378,W 700 N/N Fortville Pike
246,39.785450,-85.784039,N Franklin St/W North St
160,39.943618,-85.862489,N Merrill St
246,39.775113,-85.889904,W Waterway Dr
246,39.787040,-85.758934,/N Lincoln St
160,39.845217,-85.690010,N 600 E
499,39.781085,-85.858534,S 300 W/W US Hwy 40
185,39.742406,-85.894065,W 300 S
185,39.792993,-85.766558,Spring St
160,39.828676,-85.765719,E 300 N
185,39.806920,-85.751051,E McClarnon Dr
216,39.774031,-85.896427,S 500 W
216,39.805933,-85.778848,Preston Dr/Gunstra Ln
160,39.931019,-85.829791,N Balfer Dr W/W Central Dr
160,39.801944,-85.755916,Apple St/Whispering Trl
160,39.790472,-85.644744,E Main St/850E/N 850 E
305,39.783689,-85.788750,Villanova Dr/Dewey Ave
305,39.933262,-85.846497,Poplar St/Pearl St
658,39.721702,-85.892921,W Main St
160,39.806613,-85.784025,Paige Ct/Whisler Dr/Kingen Dr
160,39.794437,-85.731151,Foxfire Ct/Montezuma Express Dr
185,39.787083,-85.727129,E Main St
185,39.780298,-85.941507,Derbyshire Dr/Berkshire Ln
246,39.865812,-85.933177,N Peppereel Way/W Stansbury Blvd
185,39.842783,-85.840657,Wilson St
160,39.771772,-85.851583,W 100 S/S Oak Dr
160,39.787620,-85.944715,Buckley Rd
216,39.894849,-85.921381,S Railroad St/W Pendleton Pike
185,39.804701,-85.757819,Cardinal Ln/Greenhills Rd
305,39.805500,-85.776954,Field's Blvd/Paragon Way
216,39.736680,-85.899670,W Tumbleweed Dr
160,39.913028,-85.938099,W 900 N/Carroll Rd
160,39.899558,-85.885669,W 800 N
160,39.801738,-85.750122,Worcester Way
185,39.777799,-85.769633,Brook St
216,39.809872,-85.784060,Sheets Ct/Kingen Dr
160,39.907285,-85.843275,N 200 W
185,39.890766,-85.925877,W Knightsbridge Ct/Kensington Way
390,39.788570,-85.776597,School St/W 5th St
246,39.813808,-85.783044,Hastings Blvd/E 200 N
472,39.793730,-85.766621,Hmh Private Dr/Boyd Ave/E Boyd Ave
305,39.720474,-85.887144,E Main St
246,39.797722,-85.914697,N 600 W/W 100 N
185,39.913293,-85.843355,N 200 W
160,39.771760,-85.952312,S 800 W/S County Line Rd/S County Line Rd E
160,39.744371,-85.908776,High Acres West Ct/High Acres West Dr
185,39.785640,-85.779976,/W North St
160,39.812167,-85.943480,Buck Creek Rd/W 200 N
1278,39.804444,-85.770506,Green Meadows Dr
185,39.801807,-85.762532,N Brandywine St/Robin Ln
216,39.780103,-85.849066,Walnut St/N 250 W
160,39.756727,-85.913456,W 200 S
305,39.781004,-85.860463,W US Hwy 40/Welker Dr
160,39.801753,-85.752244,Lexington Trl/Arlington Dr
160,39.775755,-85.767373,Blank St/S State St
160,39.727697,-85.859880,W 400 S
246,39.737362,-85.901065,W Tumbleweed Dr/S Parkside Dr/Tumbleweed Dr
160,39.889493,-85.576640,Main St
160,39.727093,-85.885957,S 450 W
185,39.790017,-85.782949,W 7th St/Franklin Ct
216,39.698443,-85.895942,W 600 S
185,39.719846,-85.884292,N East St/E Main St/S East St
160,39.783460,-85.939027,Hickory Dr/Oak Boulevard South Dr
185,39.731116,-85.904268,S Stonehaven Ln/W Barnwood Dr
216,39.779442,-85.776603,Center St/Tague St
216,39.933117,-85.847671,S Oak St
276,39.786286,-85.766393,E North St/N Spring St
160,39.782316,-85.848338,Walnut Dr
160,39.789695,-85.665482,E Main St
276,39.792248,-85.736942,Bankside Dr
160,39.884122,-85.936109,Karnes Dr/Denton Dr
246,39.792268,-85.612734,North St/Main St
216,39.727969,-85.898567,S Loganberry Ct/W Stonehaven Ln
160,39.730106,-85.932809,S 700 W/US Hwy 52
246,39.795133,-85.769681,State St/Ohio St
246,39.805125,-85.753838,Greenbrook Ct/Greenbrook Dr
246,39.770547,-85.894593,Catalina Dr W/Catalina Dr S
185,39.891899,-85.577898,S Railroad St/Depot St
276,39.796974,-85.758754,Lake View Dr/Lake View Ct S
216,39.725959,-85.919478,Arbor Dr
185,39.816729,-85.787168,/Anderson Blvd
418,39.723393,-85.895379,S 500 W/W Mill St
185,39.720843,-85.932809,S 700 W/W Sweet Creek Dr
276,39.784425,-85.766305,S Spring St/E South St
216,39.769845,-85.767266,Bowman Ct
276,39.827091,-85.906896,N Sparks Rd/W 300 N
246,39.793715,-85.767448,/E Boyd Ave
276,39.929296,-85.844357,S Oak St/Garden St
160,39.788611,-85.755545,Apple St/E 3rd St
276,39.870800,-85.912706,W Woodstock Trl/N Woodhaven Dr
216,39.765444,-85.939086,S Fox Den Blvd
185,39.757076,-85.892628,W 200 S/S Centennial Ave
160,39.781122,-85.773039,W Pierson St/Riley Ave
185,39.787595,-85.714586,E Main St
276,39.794964,-85.769679,State St
246,39.786828,-85.745143,Pope Ln
276,39.929120,-85.853818,W 1000 N/W Garden St
305,39.791904,-85.784178,/N Franklin St
160,39.863990,-85.772868,N Cherry Tree Dr
185,39.934988,-85.847921,Noel Ave/E Staat St
185,39.937275,-85.851479,Michigan St/N Main St
160,39.856806,-85.841953,W 500 N
216,39.933382,-85.847899,Noel Ave/S Oak St/Oak St
418,39.787701,-85.776525,School St/W 4th St
160,39.824780,-85.835225,Fountain Lake Dr
160,39.791135,-85.840002,Alexandria Dr/N 200 W
362,39.817793,-85.765055,Martindale Dr/N Martindale Dr
246,39.773833,-85.747121,E Fairway Village Dr
185,39.797502,-85.751206,Morningside Dr
305,39.725574,-85.911504,US Hwy 52
160,39.810237,-85.780082,W Muskegon Dr/N Broadway St
246,39.779391,-85.769687,Brook St/Tague St
185,39.938539,-85.848603,N Leland St
216,39.789070,-85.762800,Lincoln St/Pratt St
305,39.786931,-85.939104,Hickory Dr/Oak Boulevard North Dr
276,39.786574,-85.750739,Date St/
390,39.749631,-85.930525,S Moeller Cir/S Briar Park Vw
185,39.942334,-85.848638,Virginia St/N Leland St
216,39.799768,-85.751130,E 100 N/E McKenzie Rd
246,39.929305,-85.843492,Poplar St/Garden St
216,39.778419,-85.917695,W US Hwy 40
160,39.887418,-85.610395,W B St/E B St/N 1025 E/Station St/N Main St
418,39.895338,-85.920257,Hanna St/W Pendleton Pike
216,39.778231,-85.949218,Hopkins Rd/Dunbar Dr
160,39.899872,-85.858202,State Rd 234
605,39.806746,-85.770544,W McClarnon Dr
216,39.804391,-85.773668,Green Meadows Dr
216,39.884846,-85.924364,Lyndhurst Xing/N Stubbington Ln
160,39.741997,-85.895638,S 500 W
160,39.792417,-85.760537,E Park Ave
160,39.767834,-85.917818,W Broken Arrow Dr/S Broken Arrow Dr
160,39.891628,-85.923634,W 750 N
185,39.770390,-85.772191,Punkin Ct/Orphant Annie Dr
160,39.899509,-85.890539,N 475 W/W 800 N
362,39.714974,-85.911613,W Stinemyer Rd/S Mud Creek Ct
276,39.825678,-85.689558,N 600 E/I- 70
246,39.798840,-85.774878,Oak Blvd
334,39.788268,-85.798910,Declaration Dr/N Liberty Ln
472,39.719455,-85.885807,Short St/S 450 W
160,39.771989,-85.758983,E 100 S
499,39.800350,-85.767213,Plaza Dr
160,39.899066,-85.938080,Carroll Rd
160,39.805987,-85.754140,Greenbrook Dr
160,39.698866,-85.798880,US Hwy 52
276,39.786040,-85.750765,Date St/E Main St
185,39.870121,-85.919341,W 600 N
160,39.785669,-85.758869,E Main St
305,39.934031,-85.849775,W Staat St/S Main St/E Staat St/N Main St
334,39.932301,-85.843735,Elm St/E High St
216,39.923285,-85.921590,N Woody Creek Xing
216,39.915217,-85.922261,Waterfront Way/Stormy Port
216,39.929890,-85.859686,Bluff Creek Dr
246,39.899738,-85.869057,W 800 N
160,39.795799,-85.757394,Creek View Dr/Creek View Ct/N Creek View Dr
185,39.828692,-85.764323,E 300 N
390,39.720188,-85.885820,E Main St/S 450 W
276,39.866712,-85.930836,W Burlington Dr
276,39.786930,-85.794215,Van Buren St/Winfield Park Dr
185,39.797409,-85.949574,E 21st St
160,39.811825,-85.782189,Braun Dr/Murdoch Dr
160,39.764782,-85.773307,Penny Ln
185,39.740527,-85.901270,S Theodore Ln
334,39.799235,-85.739566,Breakwater Dr/Streamside Dr
305,39.720486,-85.887198,E Main St/Spruce St
185,39.799900,-85.741464,E 100 N
390,39.820139,-85.826125,I- 70
160,39.799229,-85.752094,Buttonwood Ct
185,39.797734,-85.760305,Lake View Ct N
216,39.773154,-85.767484,Longfellow Ln
160,39.892115,-85.920259,/N Hanna St
276,39.786335,-85.786449,Monroe St/W Walnut St
160,39.871539,-85.808125,W 600 N
216,39.825420,-85.692918,I- 70
216,39.825504,-85.708357,N 500 E/I- 70
362,39.934724,-85.851781,N Merrill St
246,39.810732,-85.764368,W Amanda Ct/James Blvd
418,39.867171,-85.926726,W Jefferson Ct/N Jefferson Dr/N Benjamin Pl
246,39.727219,-85.897377,S Black Oak Ln/W Stonehaven Ln
185,39.794032,-85.798533,Sonoma Ln
216,39.910346,-85.893035,Pendleton Pike/N Ricks Dr W
305,39.789126,-85.761640,Lincoln St/Baldwin St
160,39.796053,-85.852500,S&h Campgound
160,39.907513,-85.832823,W 850 N/N Fortville Pike
185,39.797144,-85.774809,McClellan Rd/Oak Blvd
160,39.750485,-85.916715,Richman Ct
185,39.780304,-85.776631,Grove St/Center St
246,39.791432,-85.761567,Maples Mobile Home Park
160,39.884734,-85.607217,F St/S Main St
276,39.808837,-85.747760,King Maple Dr/Juniper Ln
334,39.938468,-85.835131,Emerson Dr/Motel Dr
362,39.882887,-85.936153,Karnes Dr
216,39.780784,-85.865689,W US Hwy 40/S 350 W
216,39.911220,-85.930704,Coldwater Cir
160,39.851848,-85.606470,S 1st St/E 450 N
246,39.786111,-85.750745,Date St/E Main St
160,39.909977,-85.926534,Cedar Chase Dr
185,39.726641,-85.937795,S Creekside Dr/W Heritage Dr
362,39.782381,-85.769098,E Osage St/W Osage St/S State St
390,39.799460,-85.768435,Melody Ln/McKenzie Rd/E McKenzie Rd
216,39.777651,-85.933376,S 700 W/W US Hwy 40/N 700 W
160,39.739005,-85.904630,S Fielding Rd
246,39.800806,-85.776096,Greenfield Dr/Meadow Ln
305,39.784411,-85.786414,Monroe St/W Main St
216,39.719478,-85.882598,E Main St
390,39.793665,-85.770458,Maple Dr/W Boyd Ave
216,39.804295,-85.773681,Green Meadows Dr/Coachlite Dr
160,39.818895,-85.758756,Hill Dr
160,39.793746,-85.774792,W Boyd Ave/Oak Blvd
305,39.780679,-85.845918,/Center St W
216,39.736686,-85.917634,W 330 S
276,39.932320,-85.851390,N McCarty St
276,39.788275,-85.847058,Wayne Dr
246,39.890458,-85.925877,W Knightsbridge Ct/Kensington Way
276,39.810347,-85.773465,Fields Blvd/W Muskegon Dr
362,39.721975,-85.932802,S 700 W/W Anton Way
185,39.796602,-85.750559,Jasmine Dr/Peppermint Ct
185,39.798293,-85.945206,Fieldstone Ct
160,39.869646,-85.954013,N 800 W/W 600 N
246,39.796294,-85.758420,Lake View Ct S
160,39.786549,-85.809920,Gristmill Dr/Rambling Rd
185,39.791392,-85.762870,Maples Mobile Home Park/Pratt St
216,39.780454,-85.949592,Dunbar Ct
185,39.792712,-85.612753,Main St
390,39.867508,-85.932057,W Raleigh Dr
160,39.810806,-85.824054,Valley Ln
246,39.767349,-85.764543,Keller Dr/S State St
160,39.886309,-85.790981,N 50 E/E 700 N
246,39.735360,-85.929152,W Suncloud Dr/S Southway Dr
276,39.787810,-85.800019,Colony Ct
185,39.801581,-85.854472,Doe Ct/W Creekview Dr/Deer Ln
445,39.807874,-85.747733,Redwood Dr/Juniper Ln
160,39.869966,-85.928309,W 600 N/Stansbury Blvd
305,39.783765,-85.768307,American Legion Pl/Courthouse Plz
185,39.752187,-85.929810,S Moeller Cir
160,39.938942,-85.848605,Illinois St/N Leland St
736,39.932930,-85.844896,Walnut St/E Broadway St
276,39.781392,-85.771754,W Pierson St
160,39.822544,-85.859282,N 300 W
362,39.728258,-85.895323,Cedar Creek Dr
185,39.800304,-85.750746,Lexington Trl/Worcester Way/Arlington Dr
185,39.792485,-85.951947,Mace Dr/Grebe Cir
160,39.775264,-85.952364,S County Line Rd
390,39.772180,-85.885760,Havens Dr/Windhaven Ct
216,39.720936,-85.891464,W Larrabee St/Church St
160,39.831288,-85.914204,Station Way/East St
185,39.781676,-85.783933,W Osage St/S Franklin St
160,39.797274,-85.774818,McClellan Rd/Oak Blvd
160,39.795922,-85.789674,Miller Ct
160,39.795670,-85.926598,Jennifer Dr/W Aaron Ct
276,39.721743,-85.889853,W Walnut St/N School St
160,39.733324,-85.899253,Pine Bluff Dr/S Applegate Dr
185,39.807255,-85.778800,Village Dr E/Greenfield Village Ln/Village Dr W
334,39.786947,-85.793056,Winfield Park Dr/Ashby Dr
160,39.848535,-85.769973,/N Main St
160,39.792429,-85.759593,/E Park Ave
362,39.796380,-85.945863,Huntington Dr/Huntington Ct
160,39.803213,-85.753642,E Apple Lake Dr/N Apple Lake Dr
160,39.794292,-85.741838,Fairfield Cir
160,39.870680,-85.860110,N 300 W/W 600 N
185,39.740521,-85.951817,S 800 W
160,39.797625,-85.784308,N Franklin St
216,39.915612,-85.770915,E 900 N/State Rd 9
160,39.899742,-85.862070,N 300 W
160,39.724176,-85.884064,S Cabin Ct/W Eagle Trce
305,39.865345,-85.929499,W Littleton Dr/N Burlington Dr
246,39.772100,-85.774290,E 100 S
276,39.790375,-85.946766,Valley Brook Dr
334,39.795184,-85.749941,Lemon Grass Ct
185,39.726121,-85.885921,S 450 W/W Bridgewood Blvd
276,39.934317,-85.843471,Ash St/S Madison St
160,39.908117,-85.770811,State Rd 9
160,39.912510,-85.843347,N 200 W/W Orchard Dr
185,39.795367,-85.616059,/N Grandison Rd
216,39.834265,-85.770282,/Heritage Dr S/Heritage Dr E
246,39.798909,-85.764527,/Swope St
246,39.825273,-85.708429,N 500 E/I- 70
216,39.781769,-85.842729,W US Hwy 40/Main Cross St
418,39.930706,-85.858203,Breakers Ln/Beacon Point Ln
246,39.783100,-85.951869,Hopkins Rd/Harvest Glen Dr
216,39.938546,-85.837413,E Broadway St/Motel Dr
185,39.934977,-85.844062,/Ash St
160,39.797581,-85.937197,N Meadows Ln/W 100 N
185,39.887304,-85.577241,E 700 N
1200,39.810420,-85.769709,State St/E Muskegon Dr
216,39.834310,-85.770067,State Rd 9
246,39.926131,-85.848526,Saundra Dr
445,39.772603,-85.885673,Havens Dr/S Havens Dr
160,39.790323,-85.644757,E Main St/850E
362,39.718896,-85.886483,Moore St/Allen St
185,39.891626,-85.923822,W 750 N/N Form St
390,39.720496,-85.891222,Huber St
160,39.920545,-85.936943,Spice Ct/Glory Maple Dr/Spice Bush Ct
160,39.798226,-85.748545,Johnson Cir
160,39.939345,-85.848621,/N Leland St
276,39.742054,-85.913979,S 600 W/W 300 S
185,39.783740,-85.781911,S Hendricks St/W South St
305,39.786118,-85.796831,Presidential Ct
216,39.779399,-85.771671,Tague St
276,39.809491,-85.943491,N Buck Creek Rd
891,39.806772,-85.769658,State St/E McClarnon Dr
185,39.938986,-85.846503,Illinois St/Center St
185,39.801650,-85.762534,N Brandywine St/Robin Ln
185,39.771629,-85.896356,S 500 W/S Daisy Ln
246,39.770770,-85.762517,Chapman Cir/Chapman Blvd/Chapman Dr
185,39.843092,-85.915308,Airport Blvd/W Airport Blvd/Mt Comfort Rd
305,39.794440,-85.770875,Maple Dr/Elm Dr
185,39.787538,-85.946082,Buckley Ct
185,39.842220,-85.841781,W 400 N/Chestnut St
418,39.787061,-85.761595,/Baldwin St
418,39.932520,-85.847921,Pearl St/Noel Ave
305,39.817988,-85.765173,Martindale Dr/N Martindale Dr
362,39.732051,-85.942038,/US Hwy 52
160,39.738716,-85.918592,Parker Ln
160,39.899608,-85.881068,N 400 W/W 800 N
160,39.728248,-85.892990,Cedar Creek Dr/Cedar Creek Way
362,39.793817,-85.748139,Jasmine Dr/Clove Dr
305,39.785830,-85.755485,E Main St/Morristown Pike
185,39.800320,-85.943265,Brownstone Ct/N Buck Creek Rd
160,39.857687,-85.771269,E 500 N
305,39.781185,-85.769004,S State St/E Pierson St
276,39.820988,-85.779936,Hastings Blvd/I- 70
865,39.806767,-85.769810,State St/W McClarnon Dr/E McClarnon Dr
160,39.752528,-85.931728,S Briarwood Dr
160,39.803244,-85.755246,E Apple Lake Dr/N Apple Blossom Ln
185,39.807694,-85.784037,Dorothy Dr/Kingen Dr
160,39.827736,-85.834410,W 300 N
185,39.717260,-85.891809,Victory Dr
160,39.829815,-85.689653,E 300 N/N 600 E
276,39.721277,-85.890905,Huber St/W Main St
246,39.814250,-85.758452,E 200 N
334,39.736069,-85.883914,S Overlook Pass/W Lookout Pass
185,39.764285,-85.763037,Pippin Dr/Pippin Ct
246,39.700977,-85.807394,US Hwy 52
246,39.934922,-85.851956,/N Merrill St
185,39.806803,-85.762358,Sherwood Dr
160,39.822037,-85.821498,N 100 W
216,39.720160,-85.776967,E Greyhawk Way
276,39.839294,-85.773280,E Casey Ln/N Hunters Ct
160,39.698626,-85.688961,E 600 S
160,39.777223,-85.942051,W US Hwy 40
334,39.797239,-85.952005,Valley Brook Dr
160,39.782294,-85.947755,Beckley Rd
216,39.837422,-85.774058,Cranberry Dr/Holmes Ct
276,39.891571,-85.927801,W 750 N
246,39.717275,-85.892053,S School St
276,39.820199,-85.821491,I- 70
526,39.720575,-85.890566,W Larrabee St/Victory Dr/Pierson St
160,39.924453,-85.692140,N 600 E
185,39.792236,-85.768197,E Park Ave/East St
246,39.931617,-85.845047,Poplar St/E High St
246,39.728830,-85.883539,Sawmill Ct/Cornerstone Dr
334,39.826952,-85.915169,Mt Comfort Rd/W 300 N
185,39.723468,-85.888752,Depot St/E North St/N Depot St
160,39.930624,-85.862085,Breakers Ln/
185,39.933139,-85.851520,McCarty St/W Staat St/Staat St
216,39.785596,-85.760463,Howard St/E Main St
631,39.785115,-85.771506,S Pennsylvania St/W Main St/Pennsylvania St
185,39.749742,-85.915196,W Richman Ln
390,39.796415,-85.753737,Jasmine Dr/N Mill Run Blvd
160,39.768081,-85.914301,S 600 W/W Broken Arrow Dr
362,39.896864,-85.919047,S Railroad St/N 600 W
185,39.787091,-85.726882,E Main St
334,39.820791,-85.794357,Franklin St/I- 70
334,39.807694,-85.782210,Dorothy Dr/Catt Dr
305,39.825601,-85.668604,I- 70
276,39.869212,-85.930438,W Kingston Dr/N Quincy Dr
276,39.782813,-85.947364,N Buck Creek Rd
160,39.727148,-85.945230,W Village Way
160,39.827461,-85.861345,W 300 N
276,39.785935,-85.753055,E Main St
216,39.787941,-85.763934,Grant St/Wood St
160,39.750820,-85.942295,W Ivy Ct
246,39.891551,-85.928826,W 750 N/W Pendleton Pike
160,39.930687,-85.854764,W Staat St/Staat St
185,39.806589,-85.779992,W McClarnon Dr/N Broadway St
185,39.919884,-85.921626,Schooner Cir
276,39.796569,-85.850297,S&h Campgound
1071,39.804350,-85.771341,Jason Rd/Green Meadows Dr
160,39.751620,-85.756891,E Country Trl/S Brandywine Trl
605,39.819260,-85.769984,State St
246,39.776884,-85.801666,Eli Lilly/S Meridian Rd
362,39.797383,-85.952137,E 21st St
185,39.929274,-85.845616,Garden St/S Main St
445,39.803953,-85.768586,Melody Dr
362,39.790438,-85.794303,Van Buren St
499,39.783474,-85.806202,Stonemason Rd/W Main St
216,39.816600,-85.923674,/I- 70
246,39.807278,-85.756057,Apple St
216,39.810208,-85.781834,Murdoch Dr/W Muskegon Dr
160,39.741132,-85.880754,Ken Ln/W Ken Ln
305,39.785760,-85.755474,S Morristown Pike/Morristown Pike
305,39.932798,-85.847383,Pearl St/S Oak St
216,39.705336,-85.822595,S Greenfield St
246,39.798956,-85.807188,W 100 N/Remarkable Pl
362,39.819456,-85.766455,Williams Way/Barrett Dr
160,39.798616,-85.759387,Riverview Dr/Riverview Ct/Waterview Blvd
276,39.719192,-85.895295,S 500 W
276,39.887082,-85.938083,Carroll Rd
246,39.732841,-85.895530,Cedar Cove Dr/S 500 W/Pine Bluff Dr
160,39.798324,-85.778473,N Michigan St/W Michigan St
160,39.778044,-85.776174,Sandlewood Dr/Center St
160,39.804024,-85.753092,Whisper Wood Cir
216,39.786938,-85.940666,Oak Ct/Oak Boulevard North Dr/Oak Boulevard West Dr
160,39.837444,-85.772420,Cranberry Dr/Cameron Ln
185,39.834385,-85.934451,N 700 W/W 350 N
216,39.735076,-85.899706,Windmill Way/S Applegate Dr
160,39.929246,-85.847610,W Garden St/Garden St/S Merrill St
305,39.918882,-85.915921,Nautica Blvd/Storm Bay Cir
246,39.775121,-85.856256,W Grove Dr/S Maple Dr
813,39.786155,-85.769388,N State St/W North St/E North St
246,39.720113,-85.887571,S Spruce St/E Larrabee St
185,39.943378,-85.840716,Alden Dr/Berkley Dr
276,39.781716,-85.843874,W US Hwy 40
160,39.796572,-85.755769,Apple St/Mill Run Blvd
246,39.918882,-85.919031,Nautica Blvd/N 600 W
968,39.778570,-85.914440,S 600 W/W US Hwy 40
216,39.814278,-85.756216,Apple St/E 200 N/New Rd
246,39.887969,-85.577242,Shirley St
185,39.741701,-85.916472,Parker Ln
160,39.751078,-85.915080,S Richman Dr/Richman Dr
305,39.809315,-85.764095,James Blvd
185,39.906798,-85.914834,Springview Dr/Deerview Bnd
216,39.786428,-85.753830,/Berry St
160,39.771327,-85.642561,S 850 E/E 100 S/100S
185,39.725639,-85.932798,S 700 W/Rockwood Ln
185,39.881086,-85.928110,Odessa Way
390,39.718921,-85.885795,Moore St/S 450 W
160,39.930621,-85.771146,State Rd 9
160,39.835350,-85.770284,/Heritage Dr E/Heritage Dr
216,39.784703,-85.806802,Rambling Rd
276,39.804341,-85.776927,Field's Blvd/Green Meadows Dr
276,39.792357,-85.764072,E Park Ave/Wood St
160,39.771947,-85.755997,E 100 S
160,39.761700,-85.766237,White Oak Dr/Hickory Ln
362,39.890423,-85.931309,Gateway Crossing Blvd/W Pendleton Pike
185,39.787046,-85.731743,E Main St
246,39.828147,-85.796239,E 300 N
160,39.786374,-85.947079,N Buck Creek Rd
216,39.798902,-85.950237,N Manchester Dr
276,39.891574,-85.927520,W 750 N
160,39.776964,-85.947116,W US Hwy 40
246,39.825998,-85.644987,I- 70/N 850 E
305,39.868371,-85.931467,W Dover Pl
185,39.777673,-85.770964,S Pennsylvania St
185,39.868418,-85.823866,N Fortville Pike/Sugar Creek Ct
216,39.741787,-85.916472,Parker Ln/W 300 S
246,39.804787,-85.753679,Boots Trl/Greenbrook Dr
160,39.792116,-85.774746,Oak Blvd/W Park Ave
305,39.807342,-85.781209,Dale Ct
160,39.909381,-85.914355,Springview Dr/Crestview Trl
185,39.798851,-85.950661,N Winchester Dr
160,39.931148,-85.845944,S Oak St/E High St
160,39.945129,-85.730164,N 400 E/E 1100 N
552,39.719700,-85.885819,S 450 W/E Larrabee St
160,39.906334,-85.770782,E Eden Rd/State Rd 9
160,39.779314,-85.948449,Dunbar Cir S/Dunbar Dr
185,39.810239,-85.780771,Copeland Farms Dr/W Muskegon Dr
334,39.727175,-85.891495,S Kelly Dr/W Stonehaven Ln
160,39.797661,-85.927110,N Jennifer Dr/W 100 N
246,39.787418,-85.796140,Declaration Dr
160,39.844534,-85.689994,E 400 N/N 600 E
246,39.801667,-85.758436,Bluebird Dr/Whispering Trl
160,39.741115,-85.879703,/Ken Ln/W Ken Ln
160,39.931497,-85.853720,W Staat St
185,39.797482,-85.944092,E 21st St
305,39.718998,-85.884607,Wilson Dr/S East St
276,39.820802,-85.776701,/I- 70
160,39.783902,-85.761124,S Brandywine St
499,39.817464,-85.762177,Collins Way/Fern St
216,39.936378,-85.854436,W Ohio St
246,39.775214,-85.888849,W Easy St/Easy St
185,39.719727,-85.883741,Sugar Creek Dr/E Main St/N Sugar Creek Dr
216,39.789671,-85.752249,E 4th St/Cherry St
943,39.818586,-85.768418,Barrett Dr
276,39.792254,-85.737531,Bourneside Dr/Bankside Dr
160,39.704906,-85.819293,S 100 W/W Center St
160,39.844816,-85.881608,Mt Comfort Airport
185,39.698452,-85.895472,W 600 S
160,39.713524,-85.770334,E 500 S
185,39.737179,-85.924311,S Rosewind Dr/W Cross Trl
334,39.771702,-85.885615,Havens Dr/W 100 S
160,39.769514,-85.930038,S Brier Ct/W Brier Creek Dr
185,39.756097,-85.933096,W 200 S/S 700 W
246,39.930875,-85.850888,Baker Ct
246,39.744534,-85.916598,S Colton Rd
185,39.795890,-85.750546,Peppermint Ct
160,39.792189,-85.770813,Chestnut Ln/W Park Ave
185,39.828485,-85.778143,E 300 N
160,39.892358,-85.576624,Main St
185,39.790593,-85.770763,Chestnut Ln/Sycamore Ln
160,39.716260,-85.951582,S 800 W
185,39.864131,-85.928988,W Philadelphia Dr/N Burlington Dr
185,39.776995,-85.946503,W US Hwy 40
185,39.807128,-85.750659,Scarlet Oak Dr/White Birch Ln
305,39.789893,-85.768173,N East St/Douglas St
305,39.721533,-85.886490,E Mill St
185,39.922323,-85.919691,Crossfield Trl
185,39.704858,-85.822716,US Hwy 52/S Greenfield St
185,39.723725,-85.888687,N Depot St
216,39.798305,-85.771018,Maple Dr/W Michigan St
216,39.813704,-85.790407,Royal Dr/E 200 N
160,39.820098,-85.950683,W Shadow Creek Way
160,39.909481,-85.896343,860N/N 500 W
526,39.932115,-85.848321,/Maple St
216,39.789255,-85.780660,Indiana St/W 6th St/6th St
246,39.810762,-85.764501,W Amanda Ct
160,39.887938,-85.927174,/Kensington Way
246,39.934810,-85.843477,Pearl St/S Madison St
246,39.796597,-85.767053,Allen Ln
418,39.820822,-85.775501,I- 70
1485,39.790871,-85.780442,/Franklinet
305,39.819456,-85.889325,I- 70
246,39.798407,-85.853301,N Creekview Dr/W 100 N
185,39.786964,-85.791206,Winfield Park Dr/Roosevelt Dr
160,39.858139,-85.741267,/E 500 N
185,39.933892,-85.847064,Poplar St/E Mill St
276,39.825938,-85.654573,N 800 E/I- 70
185,39.935655,-85.848528,E Church St
185,39.775221,-85.852852,S East Dr
246,39.796032,-85.769695,State St
246,39.933016,-85.842993,E High St
185,39.786428,-85.935814,Woodland East Dr/Oak Boulevard North Dr
246,39.771782,-85.848889,W 100 S/Spring Lake Rd
185,39.794826,-85.753466,N Mill Run Blvd/E Mill Run Blvd
276,39.793206,-85.748430,Clove Ct/Clove Dr/Eucalyptus Cir
160,39.788806,-85.799656,Liberty View Ct
305,39.785601,-85.805396,Tinker Trl
185,39.794624,-85.943304,Lakeside Ln
246,39.799354,-85.774982,Oak Blvd/W McKenzie Rd
185,39.782619,-85.764383,Johnson Dr/E Osage St
276,39.797827,-85.765928,Eikenberry St/Ellis Dr
160,39.916531,-85.881092,Pendleton Pike/N 400 W
216,39.825569,-85.708359,/N 500 E
216,39.881083,-85.929852,N Galveston Dr/Odessa Way
216,39.806866,-85.750282,Evergreen Dr
185,39.718575,-85.908549,S Grassy Ct
160,39.770360,-85.887699,Heron Ct
216,39.790568,-85.949766,Sunrise Ct
526,39.772069,-85.766084,E 100 S/S State St
185,39.810069,-85.780080,N Broadway St
1226,39.817928,-85.769959,State St/Martindale Dr
160,39.802492,-85.952216,N Salem Ct//N Winchester Dr
499,39.788601,-85.749003,Flagstone Dr/Capstone Dr
246,39.789426,-85.776666,School St/W 6th St
472,39.932094,-85.844148,Walnut St/E High St
185,39.925532,-85.919888,Moonstone Pl
276,39.892847,-85.923823,3rd St/N Form St
390,39.794489,-85.748299,Rosemary Cir
185,39.775728,-85.891091,W Waterway Dr
246,39.799526,-85.764551,Swope St/E McKenzie Rd
185,39.793666,-85.754626,E 9th St
276,39.780461,-85.863436,Act III
185,39.820687,-85.802332,I- 70
276,39.773836,-85.747703,E Fairway Village Dr/Fairway Village Blvd
246,39.831961,-85.915210,Station Way/Mt Comfort Rd
334,39.882436,-85.936147,Karnes Dr/Austin Trace Blvd
160,39.772016,-85.688664,E 100 S/S 600 E
305,39.932447,-85.843504,Madison St/E High St
276,39.823098,-85.835169,Fountain Lake Dr
246,39.929550,-85.846817,Park St/S Maple St
276,39.927724,-85.918992,96th St/N 600 W
185,39.869652,-85.953638,W 600 N
390,39.820874,-85.787822,I- 70
334,39.782266,-85.771277,S Pennsylvania St/W Osage St
160,39.723521,-85.882897,S Cabin Ct
185,39.780479,-85.948458,Dunbar Ct/Dunbar Dr
276,39.780671,-85.846518,Center St W/Pearl
216,39.824752,-85.714030,/I- 70
276,39.725566,-85.928631,Rockwood Ln
160,39.927509,-85.936134,96th St/N 700 W
305,39.799288,-85.779801,N Broadway St/W McKenzie Rd
246,39.792528,-85.845293,Anita Ln/Wildwood Dr
216,39.788874,-85.742337,Woodstream Ct
276,39.804960,-85.754864,Greenbrook Ct
305,39.736612,-85.926200,W Willow Grove Dr/S Willow Grove Dr
246,39.799357,-85.774877,/Oak Blvd/W McKenzie Rd
160,39.742331,-85.877112,W 300 S
216,39.724179,-85.885858,450W/W Eagle Trce/S 450 W
418,39.772178,-85.885622,Havens Dr/Windhaven Ct
552,39.798069,-85.770384,/W Michigan St
185,39.795272,-85.937399,N Meadows Ln/Buck Creek Ct/W Meadows Ln
216,39.785974,-85.807827,Rambling Rd/Longleaf Ln
216,39.822358,-85.835167,Fountain Lake Dr
185,39.806683,-85.746385,N 300 E
160,39.710792,-85.904633,S 550 W/W Beechwood Ln
160,39.840876,-85.859577,N 300 W
160,39.891806,-85.578420,/S Railroad St
185,39.926273,-85.862329,N 300 W/Pendleton Pike
276,39.785629,-85.760683,E Main St/Main St
160,39.741317,-85.938863,/W 300 S
362,39.820902,-85.769894,State St/I- 70
334,39.783976,-85.775411,W South St
185,39.918882,-85.914817,Bayfield Dr
216,39.755113,-85.929360,S Moeller Cir
185,39.870194,-85.906200,W 600 N
160,39.741493,-85.932852,S 700 W/W 300 S
185,39.798204,-85.807822,Distinctive Way/Remarkable Pl
216,39.779402,-85.771043,S Pennsylvania St/Tague St
276,39.819269,-85.906404,/I- 70
390,39.807418,-85.775513,/Fallon Ln
216,39.786704,-85.778691,Walnut St
499,39.787160,-85.769442,N State St/W Walnut St
246,39.724328,-85.887796,W Woodtrail Ct
160,39.858460,-85.769988,State Rd 9/N Main St
160,39.943370,-85.837750,Alden Dr
185,39.872220,-85.729103,N 400 E/E 600 N
185,39.757657,-85.891896,S Philadelphia Pass
305,39.939237,-85.840817,Bradley Dr
160,39.780163,-85.801781,S Meridian Rd
185,39.798862,-85.816383,N Windswept Rd/W 100 N
216,39.796603,-85.750982,Jasmine Dr
160,39.831315,-85.953240,N 800 W
185,39.916222,-85.701439,E 900 N/N 550 E
160,39.886262,-85.609026,S Main St/N Main St
185,39.730855,-85.882685,/East Dr
246,39.814362,-85.756297,Hickory Blvd
334,39.810348,-85.773354,Fields Blvd/W Muskegon Dr/Muskegon Dr
160,39.841311,-85.782696,Cranberry Dr/N Cranberry Dr
334,39.804974,-85.933937,W 150 N/N 700 W
276,39.931551,-85.847580,W Broadway St/S Main St/E Broadway St
334,39.718762,-85.886474,Allen St/Maupin St
216,39.916214,-85.917788,Bayland Dr/Bayfield Dr
216,39.814007,-85.771234,Greenfield Banking/New Rd
160,39.867261,-85.770136,State Rd 9
390,39.817795,-85.764941,Martindale Dr
185,39.798259,-85.951918,N Cambridge Ct
185,39.935296,-85.843466,/S Madison St
418,39.719631,-85.884952,S Elm St
216,39.825722,-85.683643,/I- 70
390,39.794955,-85.769574,State St/
160,39.721647,-85.775639,E Grey Feather Trl
1200,39.817845,-85.769814,State St/Martindale Dr
160,39.876243,-85.684646,Main St/2nd St
246,39.783043,-85.952383,Harvest Glen Dr
185,39.777813,-85.770972,S Pennsylvania St
216,39.783868,-85.797823,Eli Lilly/W Main St
276,39.819275,-85.915081,600W/I- 70
334,39.782598,-85.771306,S Pennsylvania St
160,39.780468,-85.766430,/Forest Ave
334,39.720222,-85.888733,S Cedar St/E Larrabee St
160,39.757517,-85.783302,E 200 S/S 100 E/Weber Rd
246,39.802297,-85.750866,Worcester Way/Cypress Dr
160,39.912969,-85.843349,N 200 W
185,39.780648,-85.952342,Mayfield Dr
185,39.864053,-85.925300,W Philadelphia Dr
276,39.801152,-85.856643,W Redbud Cir/W Creekview Dr/W Buckeye Dr
160,39.698962,-85.894909,S 500 W
160,39.827121,-85.897409,N 500 W/W 300 N
160,39.787859,-85.707949,E Main St/S 500 E
246,39.900179,-85.839740,Mt Vernon School Corp Private Dr/State Rd 234
160,39.765469,-85.825495,W Morning Walk Dr/S Honeysuckle Ct/Lily Ct
160,39.842864,-85.790279,E 400 N/N 50 E
185,39.803607,-85.774563,Candlelite Dr
418,39.791071,-85.741695,Sweetwater Ln/Woodstream Dr/Prairieview Ln
334,39.932022,-85.858203,/Thomas Point Dr
160,39.909226,-85.914452,Springview Dr
276,39.796483,-85.850306,S&h Campgound
305,39.940497,-85.851494,E Carolina St/West Carolina St/N Main St
185,39.798383,-85.776014,N Noble St/W Michigan St
891,39.818908,-85.768292,Barrett Dr
334,39.932144,-85.850979,McCarty St
185,39.785008,-85.862845,Sharon Dr
579,39.797429,-85.769635,State St/Ellis Dr
160,39.790119,-85.654347,N 800 E/E Main St/800E
216,39.784850,-85.947208,N Buck Creek Rd
185,39.748442,-85.761334,E Bomar Ln
276,39.740926,-85.916468,Parker Ln/Morgan Ct
445,39.789015,-85.769506,W 5th St/N State St
185,39.792108,-85.775181,W Park Ave
390,39.821053,-85.775594,/I- 70
1226,39.817837,-85.769957,State St/Martindale Dr
160,39.927582,-85.929522,96th St
160,39.809821,-85.765818,Walnut Trce/N Walnut Trce
305,39.772789,-85.893242,S Meadow Song Ct
362,39.772645,-85.884360,Summerhaven Ct
185,39.933583,-85.846785,/Poplar St
160,39.813666,-85.792457,E 200 N
216,39.922034,-85.924516,Pin Oak Dr/Briarway Ln
160,39.840364,-85.934558,N 700 W
185,39.868772,-85.770194,E Twin Oak Blvd/State Rd 9
362,39.784143,-85.806306,Creston Meadow/Stonemason Rd
160,39.781091,-85.773607,/W Pierson St
216,39.936505,-85.848446,Ohio St/E Ohio St/N Leland St
445,39.722867,-85.885927,Bank St/E North St
246,39.780651,-85.947307,N Buck Creek Rd
246,39.813810,-85.782892,Hastings Blvd/E 200 N
160,39.924060,-85.925796,Waterview Ct
185,39.884526,-85.916876,W 700 N
160,39.725312,-85.897023,S Cider Mill Run
445,39.825554,-85.705406,I- 70
276,39.792255,-85.755660,Apple St/E 7th St
390,39.784296,-85.788782,Villanova Dr/W Main St
185,39.811369,-85.938824,I- 70
185,39.930952,-85.854308,W Staat St
160,39.797523,-85.941595,W 100 N/Glendale Ln
185,39.789256,-85.937445,Woodland East Dr/Woodland West Dr
185,39.729468,-85.883543,Sawmill Ct
185,39.789616,-85.755575,Apple St
185,39.933117,-85.851556,W Staat St/Staat St/Church St
276,39.791793,-85.755647,Apple St/
246,39.729374,-85.892971,Cedar Creek Way
160,39.769849,-85.952291,S 800 W
160,39.842773,-85.841808,/Chestnut St
276,39.779309,-85.943826,Yorkshire Blvd
418,39.807441,-85.774823,Fallon Ln
160,39.909355,-85.938098,Carroll Rd
160,39.803143,-85.944196,Autumn Rd/Falling Leaves Trl
390,39.770024,-85.761602,Chapman Overlook/Chapman Dr
160,39.798927,-85.743909,Westfield Ct/Forest Glen Dr/Westfield Dr
305,39.817888,-85.765181,Martindale Dr/N Martindale Dr
526,39.817986,-85.764822,Martindale Dr/Florence Dr
160,39.765638,-85.801405,S Meridian Rd/W Hickory Dr
185,39.726147,-85.887947,W Stonehaven Ln
160,39.891621,-85.938080,Carroll Rd/N 700 W
160,39.764039,-85.768369,Hickory Ln
246,39.933493,-85.846032,/Pearl St
276,39.725297,-85.886720,W Bradford Ct
334,39.797381,-85.952448,E 21st St/W McKenzie Rd
246,39.937321,-85.848599,E Michigan St/Michigan St/N Leland St
160,39.825534,-85.677890,I- 70
185,39.792856,-85.935637,N Mayer Dr
160,39.828185,-85.794574,E 300 N/N 50 E
246,39.895037,-85.920952,/W Pendleton Pike
185,39.802770,-85.840131,N 200 W
160,39.766180,-85.820981,W Morning Walk Dr
185,39.809713,-85.779020,Village Dr E/Village Dr W
334,39.897019,-85.919050,N 600 W
185,39.781248,-85.766988,Meek St/E Pierson St
605,39.722208,-85.892056,W Walnut St/N Birch St
160,39.839513,-85.840608,W 380 N/N 200 W
276,39.798490,-85.765969,Eikenberry St/Ricks Ave
216,39.786985,-85.812625,Blue Stone Dr
246,39.892864,-85.922645,3rd St/N McCord St
246,39.722390,-85.890577,W Mill St/N Central St
390,39.786040,-85.771579,W North St/Pennsylvania St
160,39.772524,-85.952314,S 800 W
216,39.788011,-85.814496,Heartwood Hill
185,39.891642,-85.922625,W 750 N/N McCord St
865,39.804455,-85.769638,State St/E Green Meadows Dr
390,39.720767,-85.888505,E Main St/S Cedar St/N Cedar St
917,39.804377,-85.769782,State St/Green Meadows Dr
276,39.940093,-85.851494,N Main St
160,39.804836,-85.753244,Boots Trl
216,39.782958,-85.928122,Manor Dr
160,39.841465,-85.953489,N 800 W
160,39.799148,-85.742669,Fair Glen Ct
160,39.787448,-85.750755,/Date St
276,39.820815,-85.821471,N 100 W
185,39.813762,-85.789962,Franklin St/New Rd
185,39.740814,-85.911388,W Boulder Creek Dr/S Boulder Creek Ln
246,39.782568,-85.765702,E Osage St
390,39.789896,-85.785306,W 7th St/N Harrison St
185,39.769302,-85.900147,S Buttercup Dr/W Blue Bell Dr
276,39.814176,-85.763691,E New Rd/Martindale Dr/James Blvd
276,39.722055,-85.885811,S 450 W
160,39.799345,-85.775575,Greenfield Dr/W McKenzie Rd
160,39.899145,-85.910037,W 800 N
185,39.737127,-85.929154,W Willow Grove Dr/S Southway Dr
390,39.722106,-85.891552,W Walnut St/N Anderson St
390,39.781878,-85.840317,W US Hwy 40
160,39.922823,-85.938104,Carroll Rd
160,39.914215,-85.885557,W 900 N/Pendleton Pike
362,39.722675,-85.891907,N Anderson St/N Birch St/W Mill St
246,39.730346,-85.941398,W White Oak Dr/S White Oak Dr
246,39.889545,-85.925877,Kensington Way/W Wellington Way
246,39.790561,-85.770267,Sycamore Ln
185,39.787873,-85.752191,Cherry St/E 2nd St
160,39.719890,-85.941425,S Anton Way/W Creekside Dr
185,39.790119,-85.780669,W 7th St/Indiana St
185,39.781472,-85.770125,Mount St/W Pierson St
362,39.931774,-85.847142,/E Broadway St
276,39.788219,-85.797823,Declaration Dr/Foundation Dr
216,39.933985,-85.847920,Noel Ave
185,39.764098,-85.940930,W Fox View Trl/S Fox Paw Dr
362,39.720374,-85.886686,E Main St
390,39.792893,-85.762918,Pratt St
362,39.785356,-85.766367,S Spring St/Main St/N Spring St
216,39.856568,-85.769994,Jackson St/Main St/N Main St
246,39.802515,-85.773639,Gaslite Ln/Coachlite Dr
216,39.698384,-85.896638,W 600 S
362,39.720716,-85.885796,E Walnut St/Bittner Rd/S 450 W
160,39.914722,-85.843573,W 900 N
362,39.787740,-85.768093,N East St/Grant St
246,39.785648,-85.759577,Lincoln St/E Main St
334,39.782462,-85.839775,S 200 W
305,39.864159,-85.930388,W Philadelphia Dr
160,39.722135,-85.774766,E Grey Feather Trl/E Osprey Dr
216,39.720025,-85.887268,E Larrabee St/S Maple St
216,39.940571,-85.846509,Vera Ct/Center St
160,39.929421,-85.847721,S Merrill St
276,39.791728,-85.946256,Sunrise Cir
185,39.894807,-85.921478,W Pendleton Pike/Center St
160,39.768438,-85.763989,Shepherd Ct
305,39.783282,-85.768265,American Legion Pl
943,39.785260,-85.768405,American Legion Pl/N East St/Main St
185,39.786568,-85.760477,Howard St/E North St
160,39.781818,-85.942852,Yorkshire Blvd/W Yorkshire Blvd
185,39.868730,-85.772178,N Red Oak Dr/E Twin Oak Blvd
216,39.870974,-85.842816,N 200 W/W 600 N
246,39.721142,-85.893137,W Larrabee St/Larrabee St
160,39.755938,-85.939254,W 200 S
185,39.926561,-85.862337,N 300 W
160,39.798496,-85.753525,Cricket Reel Dr
160,39.698404,-85.885351,W 600 S/W 1200 N/S 450 W
160,39.746987,-85.948506,Bristol Way/Parkview Dr
160,39.926393,-85.924236,Northview Ct
216,39.748898,-85.930566,S Moeller Cir
160,39.777092,-85.771532,Kara Ct
160,39.787293,-85.785240,W 4th St/N Harrison St
418,39.785030,-85.773361,W Main St/Riley Ave
445,39.895436,-85.920032,/W Pendleton Pike
160,39.790039,-85.765131,Douglas St/N Swope St
390,39.789832,-85.769530,/N State St/Douglas St
276,39.819940,-85.770000,/State St
710,39.721830,-85.893532,Hickory St/W Main St
185,39.790574,-85.745027,Brookstone Dr
216,39.792774,-85.754016,/Berry St
160,39.771788,-85.839416,S 200 W/W 100 S
216,39.931909,-85.861019,Sandy Point Ln/Thomas Point Dr
276,39.930195,-85.847291,W High St/High St
472,39.740942,-85.915291,Morgan Ct
246,39.881084,-85.934016,Odessa Way
276,39.780540,-85.914484,/S 600 W
216,39.726103,-85.887885,S Woodtrail Ln/W Bridgewood Blvd
362,39.822079,-85.770044,/State St
185,39.933773,-85.852124,McCarty St/Church St/W Church St
160,39.739600,-85.904637,S Fielding Rd/W Village Dr
160,39.741782,-85.763890,S 200 E
185,39.798412,-85.729633,Spring Dipper Dr/Bobtail Dr
160,39.713378,-85.809985,W 500 S/S 50 W
185,39.727485,-85.938962,S Heritage Ct/W Heritage Dr
305,39.787823,-85.766452,Grant St/N Spring St
445,39.815998,-85.763637,N West Bay Dr/Crossing Ct
160,39.773771,-85.769917,Leonainie Ct
276,39.800623,-85.759433,Sherwood Ct/Sherwood Dr
526,39.787142,-85.769832,W Walnut St
216,39.737269,-85.885193,W Lookout Blvd/S Lookout Pass
160,39.716383,-85.857265,S 300 W
185,39.812919,-85.859160,W 200 N/N 300 W
216,39.779401,-85.771604,Kara Ct/Tague St
160,39.797210,-85.774390,McClellan Rd
216,39.931038,-85.843868,/E Park St
185,39.792504,-85.933682,Colonial Dr/N 700 W
160,39.724417,-85.937789,S Carrie Dr/W Christian Dr
334,39.784891,-85.776276,School St/W Main St
334,39.815916,-85.764230,Crossing Ct/Crossing Ter
160,39.938583,-85.846498,/Center St
160,39.722531,-85.769391,S 200 E
276,39.936585,-85.844830,E Ohio St/E Staat St
276,39.899765,-85.919043,N 600 W
276,39.720421,-85.894404,W Schultz St
160,39.883135,-85.576686,N 1200 E
160,39.753040,-85.759785,S Ashley Dr/E Brandywine Ln/Brandywine Ln
185,39.791429,-85.611205,E Main St/East St
160,39.706754,-85.830253,US Hwy 52
499,39.789958,-85.784139,W 7th St/N Franklin St
185,39.732312,-85.894726,Cedar Cove Ct
185,39.824834,-85.715362,/I- 70
160,39.927202,-85.850068,Swan Dr/Saundra Dr
445,39.932906,-85.850143,S Merrill St
160,39.726075,-85.932802,S 700 W/W Carrie Dr
185,39.787244,-85.726978,N 400 E/E Main St
160,39.778473,-85.849030,W Garden Dr/Spring Lake Rd
185,39.867328,-85.929505,Stansbury Dr/N Quincy Dr/Stansbury Blvd
276,39.728873,-85.940377,S White Oak Dr/S Village Dr
472,39.785897,-85.774666,W North St/N Noble St
160,39.907244,-85.633869,State Rd 109/E South St
276,39.854213,-85.769979,S Main St/N Main St
216,39.788171,-85.785256,W 5th St/N Harrison St
305,39.793513,-85.951058,Kemp Cir
418,39.796065,-85.777445,Grandison Rd/School St
216,39.787786,-85.812491,Jewell Ln
160,39.870331,-85.890485,/W 600 N
185,39.787333,-85.753857,/Berry St
362,39.784807,-85.778051,W Main St/Hough St
185,39.797236,-85.767055,Downing Ct
185,39.786494,-85.741179,E Main St
216,39.894450,-85.922298,W Pendleton Pike
160,39.777037,-85.855608,S Park Dr
185,39.791691,-85.948368,Sunrise Ct/Sunrise Dr/Valley Brook Dr
246,39.789915,-85.773943,Hillcrest Ln
185,39.783353,-85.776777,W South St/Center St
185,39.856384,-85.769991,/S Main St/Main St
216,39.936502,-85.848586,Ohio St/N Leland St/E Ohio St
160,39.784524,-85.756607,Valley Dr
246,39.799910,-85.740770,Indigo Dr/E 100 N
472,39.818313,-85.762803,Collins Way/Florence Dr
216,39.786081,-85.808906,Rambling Rd
185,39.789112,-85.796108,Madison Dr
499,39.786048,-85.752119,E Main St/Cherry St
160,39.906980,-85.891376,N Ricks Dr E
160,39.807738,-85.751784,Redwood Dr
185,39.918882,-85.914863,Nautica Blvd
160,39.778539,-85.638885,E 50 S
185,39.836353,-85.774034,Holmes Ct
276,39.732448,-85.917747,W Deer Run Dr/S Eland Dr
185,39.793790,-85.746860,Jasmine Dr/Ginger Cir
160,39.821251,-85.762483,/I- 70
216,39.887077,-85.926717,Lyndhurst Xing/Chelmsford Dr
185,39.882462,-85.938074,Carroll Rd/Austin Trace Blvd
499,39.793353,-85.779448,Greenfield High School/N Broadway St
185,39.788789,-85.798922,Liberty View Ct/N Liberty Ln
305,39.787488,-85.749791,Whetstone Dr
684,39.932696,-85.849335,/Mill St
276,39.790356,-85.775644,W 7th St/N Noble St
246,39.786294,-85.745402,E Main St
216,39.821005,-85.763038,I- 70
185,39.882522,-85.929842,N Galveston Dr/Longview Dr
185,39.783842,-85.947304,Harvest Glen Dr/N Buck Creek Rd
185,39.931167,-85.634394,E 1000 N/State Rd 109
185,39.782301,-85.947371,Beckley Rd/N Buck Creek Rd
276,39.918882,-85.916916,Nautica Blvd/Captain Cir
185,39.856117,-85.953683,N 800 W/W 500 N
499,39.900652,-85.843202,N 200 W/Mount Vernon School Corp
499,39.793082,-85.779448,W 9th St/N Broadway St
246,39.929871,-85.846123,Park St/S Main St
185,39.802609,-85.777921,Fairview Dr
499,39.722600,-85.886545,Maple St/E Trees St
160,39.724127,-85.884357,W Eagle Trce
185,39.790990,-85.935860,Hickory Ln
216,39.788325,-85.752213,Cherry St
246,39.788820,-85.750784,Date St/E 3rd St
160,39.789112,-85.796212,Old Glory Dr/Madison Dr
160,39.896313,-85.920235,S Railroad St/Ohio St
160,39.793835,-85.800469,Meridian Springs Blvd/Meridian Springs Ln
160,39.901831,-85.673769,E State Rd 234
216,39.732932,-85.894739,W Cedar Cove Dr/Cedar Cove Ct
185,39.728129,-85.765919,E 400 S/S 200 E
160,39.697526,-85.933139,W 1200 N
418,39.719446,-85.886503,Short St/Allen St
276,39.820989,-85.764210,I- 70
216,39.787028,-85.812585,Jewell Ln
216,39.821221,-85.764291,I- 70
246,39.908352,-85.634202,/State Rd 109
160,39.785745,-85.757022,E Main St/Valley Dr
160,39.934423,-85.844242,/Pearl St
160,39.893274,-85.576624,North St/Main St
216,39.902071,-85.832586,N Mount Vernon Ct/Mount Vernon Way
246,39.792268,-85.766656,E Park Ave/Spring St
1149,39.814126,-85.769889,State St/New Rd
216,39.902411,-85.919046,/N 600 W
216,39.736425,-85.887018,Un-Named
185,39.790907,-85.745031,Sweetwater Ln/Brookstone Dr/Prairieview Ln
334,39.790168,-85.779362,W 7th St/N Broadway St
334,39.788597,-85.746652,Capstone Dr
472,39.818078,-85.764969,Martindale Dr/Layton Ln
185,39.816790,-85.782982,Anderson Blvd/Hastings Blvd
305,39.812029,-85.773474,/Fields Blvd
160,39.833272,-85.934425,N 700 W
246,39.821272,-85.761076,I- 70
160,39.837137,-85.878376,N 400 W
216,39.724169,-85.885136,W Eagle Trce/W Woodbridge Ln
216,39.800684,-85.778466,Fairview Dr/Meadow Ln
305,39.788897,-85.766486,Lincoln St/N Spring St
185,39.724911,-85.943169,W Old Colony Dr/S Village Row
160,39.782335,-85.830399,N 150 W/W US Hwy 40
579,39.794565,-85.779486,N Broadway St
160,39.796535,-85.926293,W Jennifer Ct
246,39.777412,-85.938238,W US Hwy 40
305,39.780862,-85.863835,Act III/W US Hwy 40
216,39.927082,-85.847441,Cherry Blossom Ln
362,39.721360,-85.894159,Pine St/W Larrabee St
246,39.749818,-85.932967,W Ivy Ln/S 700 W
160,39.809536,-85.782690,W Muskegon Dr/Catt Dr
185,39.872171,-85.736132,Arrowhead Dr/E 600 N
276,39.786521,-85.761588,Baldwin St/E North St
160,39.738354,-85.895596,S 500 W/S Applegate Dr
185,39.927689,-85.921865,96th St
418,39.720534,-85.887437,E Main St/Spruce St
185,39.927643,-85.925351,Briarway Ln/96th St
246,39.796372,-85.943217,N Buck Creek Rd
185,39.791067,-85.783027,Franklin Ct
362,39.797382,-85.952008,E 21st St/Valley Brook Dr
305,39.735624,-85.926197,W Suncloud Dr/S Willow Grove Dr
362,39.720933,-85.894536,Meadow Dr/Wilkins St
246,39.784621,-85.781889,N Hendricks St/Main St/W Main St
185,39.789074,-85.755558,Apple St
185,39.748326,-85.948130,Parkview Dr
276,39.747605,-85.761546,E Bomar Ln
334,39.784146,-85.806166,Creston Meadow/Stonemason Rd
216,39.907887,-85.929305,Winding Bend/W Winding Bend
160,39.757424,-85.776914,Weber Rd/Shadeland Dr
246,39.725849,-85.889110,S Turning Leaf St
305,39.742275,-85.902758,S Berlander Dr/W 300 S
160,39.785811,-85.757697,E Main St
418,39.783412,-85.941807,Oak Boulevard South Dr/Oak Boulevard West Dr
216,39.800566,-85.856264,N Dogwood Way/W Buckeye Dr
185,39.779690,-85.767471,Shade Tree Ct/S East St
334,39.804924,-85.747092,Hedge Ct
185,39.802623,-85.840129,N 200 W
445,39.929173,-85.851082,Swan Dr/W Garden St
216,39.885384,-85.608973,/D St
246,39.811147,-85.781973,Murdoch Dr/Keen Ct
185,39.784681,-85.760243,E South St
216,39.811857,-85.784081,Braun Dr/Kingen Dr
246,39.917880,-85.917188,Bayhill Cir
160,39.783514,-85.933509,Oak Boulevard South Dr/N 700 W
160,39.934190,-85.844685,Pearl St/Elm St
276,39.887229,-85.938080,Carroll Rd
216,39.783968,-85.949251,Harvest Glen Ct
160,39.824386,-85.769952,/State St
276,39.770596,-85.763595,Chapman Cir
160,39.794982,-85.933734,W Meadows Ln/N 700 W
160,39.885775,-85.576664,N 1200 E
160,39.804901,-85.914788,N 600 W
276,39.827156,-85.606460,S 1st St/I- 70
579,39.797429,-85.769723,State St
160,39.742328,-85.877024,W 300 S
305,39.787921,-85.771728,W 4th St/Pennsylvania St
160,39.731140,-85.901990,W Barnwood Dr/S Stone Way
216,39.780346,-85.768938,Forest Ave/S State St
305,39.706100,-85.827674,US Hwy 52
160,39.937418,-85.844127,E Michigan St
305,39.741671,-85.919490,S Wollenweber Rd/W 300 S
334,39.792738,-85.769619,State St/N State St
160,39.875027,-85.691153,N 600 E
216,39.732904,-85.894892,W Cedar Cove Dr/Cedar Cove Dr
246,39.935663,-85.849732,School St
185,39.801647,-85.759686,Sherwood Dr/Whispering Trl
246,39.721363,-85.891308,Church St/W Main St
334,39.819504,-85.906687,I- 70
362,39.823087,-85.727602,N 400 E/I- 70
160,39.779846,-85.796586,Eli Lilly
579,39.806749,-85.952902,I- 70
246,39.730619,-85.895857,Harting Farms Dr/S Harting Farms Dr
362,39.728261,-85.895474,S 500 W
160,39.928813,-85.874921,96th St
390,39.793669,-85.770336,/W Boyd Ave
185,39.792198,-85.937966,W Mayer Dr/N Johnson Branch Rd
160,39.942352,-85.852760,N Main St
185,39.792355,-85.949358,Emory Dr/Valley Brook Dr
185,39.937239,-85.852919,Michigan St/N Merrill St
160,39.937786,-85.846489,/Center St
185,39.794075,-85.801395,Meridian Springs Ln/Melrose Ct
185,39.727146,-85.886675,S Stonebridge Ct
185,39.784992,-85.755419,S Morristown Pike/E South St
216,39.868976,-85.925840,N Delegates Way/N Benjamin Pl
185,39.781176,-85.938970,Yorkshire Blvd/Derbyshire Dr
216,39.788109,-85.786476,W 5th St/Monroe St
216,39.921015,-85.927807,Highland Ln
276,39.787778,-85.774752,W 4th St/N Noble St
160,39.789429,-85.791377,Roosevelt Dr/Harding Ave
160,39.774139,-85.952351,S 800 W/S Carroll Rd
788,39.895620,-85.919612,Ohio St/W Pendleton Pike
160,39.938214,-85.852920,N Merrill St
305,39.792236,-85.935697,N Mayer Dr/W Mayer Dr
390,39.820904,-85.770018,State St/I- 70
185,39.797538,-85.943240,N Buck Creek Rd
185,39.779399,-85.767458,S East St
160,39.793492,-85.933704,N 700 W
526,39.932354,-85.848308,Pearl St/S Main St/Maple St
216,39.788183,-85.811531,School House Dr
305,39.812924,-85.934090,N 700 W/I- 70
216,39.726099,-85.887843,W Bridgewood Blvd
185,39.731352,-85.883089,East Dr/Middle Dr
305,39.785890,-85.755780,/E Main St
305,39.805640,-85.757135,Pauls Dr/Cardinal Ln
246,39.791637,-85.741340,Brookview Cir
185,39.806648,-85.776984,Field's Blvd/W McClarnon Dr/Fallon Ln
185,39.787457,-85.796528,Old Glory Dr/Old Glory Cir/Declaration Dr/Monticello Dr
334,39.785675,-85.779224,W North St/N Broadway St
216,39.789567,-85.742007,Woodstream Ct/Carlton Dr/Woodstream Dr
160,39.721039,-85.892923,W Larrabee St/Meadow Dr
390,39.796043,-85.778469,Grandison Rd/N Michigan St
160,39.754506,-85.944366,W Oakwood Ct/S Oakwood Dr
185,39.788268,-85.796363,Old Glory Dr
552,39.722116,-85.894898,West St/W Main St
185,39.771745,-85.894626,Catalina Dr W/W 100 S
160,39.923539,-85.919820,Blackhawk Station
160,39.796721,-85.789580,White Blossom Ln/Arthur Ct/Miller Ct
246,39.726047,-85.899471,S Black Oak Ln
216,39.806608,-85.778809,W McClarnon Dr/Greenfield Village Ln/Gunstra Ln
305,39.796495,-85.755119,Mill Run Blvd
216,39.751477,-85.930176,S Moeller Cir
185,39.792228,-85.770555,Maple Dr/W Park Ave
246,39.789627,-85.794302,Van Buren St
276,39.798412,-85.728314,Spring Dipper Dr/Geronimo Dr
160,39.823774,-85.953070,N 800 W
185,39.827438,-85.934340,N 700 W
246,39.838225,-85.776204,N Kelly Dr/N Strahl Dr
276,39.785754,-85.777589,Walnut St/Wilson St/W North St
185,39.891427,-85.938080,Carroll Rd/W 750 N/N 700 W
160,39.783811,-85.933514,N 700 W
334,39.791110,-85.768221,N East St/Walker St
160,39.885623,-85.932504,W Irving Dr/Mesquite Ct
160,39.793014,-85.938048,N Johnson Branch Rd
305,39.805537,-85.749330,Butternut Cir
246,39.778005,-85.940164,Yorkshire Blvd
216,39.814572,-85.746529,N 300 E
305,39.865812,-85.934898,W Stansbury Blvd/N 700 W
160,39.742411,-85.848254,S 250 W/W 300 S
362,39.802531,-85.775578,Meadow Lane Ct/Meadow Ln
160,39.790593,-85.938395,Hickory Ct/Hickory Ln
216,39.827480,-85.859350,N 300 W/W 300 N
185,39.794856,-85.931697,W Maiellen Dr/N Maiellen Dr/W Maiellen Ct
185,39.828116,-85.798554,E 300 N
390,39.792378,-85.762905,E Park Ave/Pratt St
160,39.774797,-85.771781,Dream March Dr/Lullaby Blvd/Lullaby Ct
160,39.751997,-85.932262,W Brairwood Blvd
160,39.804252,-85.841059,N Lela Ln/W Haines Pass
839,39.799438,-85.769687,State St/E McKenzie Rd
160,39.747864,-85.943212,S Sunrise Dr
216,39.927597,-85.928531,96th St
160,39.854845,-85.817273,N Fortville Pike
160,39.736782,-85.951826,S 800 W
216,39.722659,-85.889060,N Depot St
362,39.720938,-85.894892,West St/Meadow Dr
185,39.806608,-85.746382,N 300 E/E McClarnon Dr
160,39.913076,-85.843351,N 200 W
160,39.916836,-85.881138,N 400 W
216,39.856906,-85.769994,Jefferson St/S Main St/N Main St
160,39.796430,-85.755764,Apple St/Mill Run Blvd
216,39.857357,-85.769993,S Main St
305,39.790494,-85.769552,N State St
160,39.792121,-85.774595,Oak Blvd/W Park Ave
305,39.773786,-85.773734,Pomona Ct
185,39.828489,-85.777895,E 300 N
185,39.851603,-85.947654,W Lane Rd
185,39.796096,-85.775935,Grandison Rd/N Noble St
276,39.779035,-85.863755,Act III
185,39.798207,-85.807881,Extraordinary Trl/Remarkable Pl
246,39.744058,-85.919522,W Prairie Ct/S Wollenweber Rd
185,39.723533,-85.888731,Depot St/W North St/N Depot St
160,39.938180,-85.846493,Monroe St/Center St
526,39.723322,-85.895377,S Eclipse Way/S 500 W
276,39.887183,-85.938077,Carroll Rd
216,39.885770,-85.607524,E St
160,39.854811,-85.817219,N Fortville Pike
160,39.896049,-85.577182,/Half St
216,39.842067,-85.859594,N 300 W/W 400 N
334,39.785893,-85.755488,Apple St/Morristown Pike/E Main St
160,39.926186,-85.927638,Northview Dr/N Ridgeway Ct
185,39.733354,-85.901105,S Farmstone Cir
160,39.797714,-85.747497,Morningside Dr/Morningside Ct
390,39.793702,-85.776831,School St/W Boyd Ave
216,39.926325,-85.910219,N Port Dr
216,39.901135,-85.832805,N Mount Vernon Ct
160,39.904527,-85.938088,Carroll Rd
160,39.922822,-85.924513,Briarway Ln
160,39.715098,-85.913627,S 600 W/W Stinemyer Rd
185,39.774782,-85.894843,W Meadow Lake Dr/S Brune Ct
276,39.790632,-85.771777,Redbud Ln/Sycamore Ln
246,39.773881,-85.886950,Windhaven Ct
160,39.787579,-85.779284,W 4th St/N Broadway St
160,39.803825,-85.761112,Bluebird Dr/Songbird Ct
276,39.936872,-85.850274,/N School St
246,39.813871,-85.783043,Hastings Blvd/New Rd
160,39.713525,-85.771330,E 500 S
246,39.786500,-85.752163,/Cherry St
185,39.706670,-85.821834,S Greenfield St
160,39.793198,-85.933698,W Waterfall Way/N 700 W
246,39.939605,-85.840559,Holiday Dr/Bradley Dr
216,39.803252,-85.755945,Apple St/E Apple Lake Dr
160,39.780330,-85.827821,S 150 W
276,39.780403,-85.863100,Act III
276,39.717652,-85.885755,S 450 W
276,39.808175,-85.784776,Montgomery Ct
185,39.769367,-85.770425,Sweetheart Ct
276,39.806940,-85.746395,N 300 E
216,39.797399,-85.950739,E 21st St
185,39.793153,-85.754056,Berry St/E 8th St
160,39.792235,-85.931980,Colonial Dr/Birch Ct
631,39.776690,-85.952449,S County Line Rd/W US Hwy 40
160,39.875160,-85.691167,N 600 E
160,39.765228,-85.896194,W Lilac Ln/S 500 W
472,39.798106,-85.770510,W Michigan St
246,39.721461,-85.891781,S Anderson St/N Anderson St/Main St/W Main St
160,39.883882,-85.607089,G St/2nd St
216,39.807033,-85.750211,Evergreen Dr
216,39.932934,-85.851901,W Staat St/Staat St/N McCarty St
160,39.871706,-85.911650,W Woodhammer Trl
246,39.728401,-85.924771,US Hwy 52
160,39.793783,-85.774789,W Boyd Ave/Oak Blvd
334,39.807391,-85.747720,White Birch Ln/Juniper Ln
160,39.922875,-85.842595,N Fortville Pike
276,39.820756,-85.833556,/Fountain Lake Dr
185,39.800011,-85.746227,N 300 E
185,39.786746,-85.947049,Buckley Blvd/N Buck Creek Rd
362,39.720854,-85.885803,E Walnut St/Bittner Rd/S 450 W
246,39.731361,-85.895515,S 500 W
276,39.806821,-85.773691,W McClarnon Dr/Fields Blvd
276,39.741661,-85.919817,630 W/W 300 S
334,39.772911,-85.891540,S Raylee Garden Dr/W Harvest Way
216,39.804293,-85.779923,Green Meadows Dr/N Broadway St
185,39.773787,-85.894839,S Brune Ct
160,39.901174,-85.758028,E State Rd 234/N 250 E
276,39.884161,-85.928984,W del Rio Dr/Abilene Way
216,39.790280,-85.776733,School St/W 7th St
305,39.758061,-85.940425,Fox Cove Blvd/W Banton Cir
160,39.799922,-85.853094,N Sugar Bend Run/N Creekview Dr
185,39.930184,-85.771142,E 1000 N/State Rd 9
185,39.888418,-85.580266,Meridian St
160,39.698434,-85.894449,W 600 S
362,39.799550,-85.763299,E McKenzie Rd
160,39.785721,-85.757570,E Main St
160,39.785970,-85.814323,Winding Creek Ln/Heartwood Hill
305,39.722780,-85.887499,Ash St/E Trees St
305,39.733742,-85.917761,S Eland Dr
216,39.793869,-85.800323,Meridian Springs Ln
246,39.811384,-85.939553,W New Rd/I- 70
390,39.784043,-85.774553,W South St/S Noble St
160,39.778103,-85.924236,W US Hwy 40
160,39.775129,-85.854499,W Grove Dr
334,39.786449,-85.784060,W Walnut St/N Franklin St
160,39.742384,-85.888819,W 300 S
185,39.868197,-85.923869,Attleburg Dr/Rockingham Ln
552,39.721358,-85.888066,Ash St/Walnut St/E Walnut St
216,39.798078,-85.728306,Geronimo Dr
276,39.792243,-85.769608,State St/N State St/W Park Ave
185,39.787962,-85.794249,Van Buren St/Declaration Dr
185,39.786284,-85.759442,/N Lincoln St
160,39.797639,-85.933794,N 700 W/W 100 N
445,39.720310,-85.886382,Allen St/E Main St
362,39.793689,-85.769664,State St/W Boyd Ave/E Boyd Ave
160,39.829426,-85.689638,E 300 N/N 600 E
216,39.779452,-85.778283,S West St/Tague St
246,39.728829,-85.884744,Apple Cave Ct/Cornerstone Dr
305,39.787980,-85.770484,W 4th St
246,39.922052,-85.912249,W Port Dr
160,39.789792,-85.659168,/E Main St
418,39.720499,-85.887450,S Spruce St/Spruce St
160,39.803611,-85.949660,N Manchester Dr/N Hampton Ct/N Westminster Ct
160,39.771890,-85.952312,S 800 W/S County Line Rd
305,39.882419,-85.937216,Denton Dr/Austin Trace Blvd
160,39.812481,-85.773381,Fields Blvd/Greenfield Banking
216,39.726112,-85.886742,S Stonebridge Ct/W Bridgewood Blvd
160,39.780421,-85.767540,Forest Ave/S East St
246,39.804751,-85.749284,Palm Ct
216,39.790216,-85.778166,Wilson St/W 7th St
246,39.732431,-85.899247,W Stone Way/S Applegate Dr
334,39.782448,-85.768205,E Osage St/American Legion Pl
216,39.785482,-85.763845,Main St/Wood St
246,39.799135,-85.951081,N Winchester Dr
185,39.762946,-85.938671,Jeanne Ct
160,39.781332,-85.773059,W Pierson St/Riley Ave
185,39.917059,-85.914827,Water Bay
160,39.789499,-85.788434,Madison St/Winfield St
276,39.789581,-85.861231,Sycamore Ct
160,39.899525,-85.889114,W 800 N
499,39.721407,-85.888284,Walnut St/E Walnut St/N Cedar St
160,39.804304,-85.842509,W Haines Pass
246,39.788702,-85.796376,Monticello Dr
216,39.935780,-85.849839,N School St
185,39.835315,-85.772384,Heritage Dr W/Heritage Dr
305,39.864836,-85.924581,/W Medford Ct
160,39.844028,-85.689978,E 400 N/N 600 E
390,39.783695,-85.788303,Dewey Ave/Thompson Rd
185,39.796604,-85.928754,Jennifer Ln
246,39.929303,-85.843704,/Garden St
185,39.807852,-85.750951,Scarlet Oak Dr/Redwood Dr
390,39.726053,-85.913746,S 600 W/US Hwy 52
185,39.797498,-85.943239,E 21st St/W 100 N/N Buck Creek Rd
246,39.786095,-85.808480,Sawdust Trl/Rambling Rd
185,39.726157,-85.887864,S Woodtrail Ln
160,39.720852,-85.891995,W Larrabee St/S Anderson St/Anderson St
246,39.774547,-85.885015,Havens Dr
305,39.785811,-85.776357,School St/W North St
305,39.781860,-85.840715,W US Hwy 40
160,39.813720,-85.803010,W 200 N
185,39.790530,-85.951646,Emory Dr
160,39.804074,-85.689170,N 600 E
472,39.819715,-85.765376,Collins Way
160,39.915881,-85.914678,Falling Waters Dr/River Chase Ln
185,39.813682,-85.789759,New Rd/E 200 N
216,39.737261,-85.930312,W Willow Grove Dr
185,39.936421,-85.852915,N Merrill St/W Ohio St
390,39.936445,-85.851483,E Ohio St/W Ohio St/N Main St
160,39.798894,-85.789386,Graham Ct
276,39.819762,-85.859187,I- 70
216,39.864292,-85.933242,N Peppereel Way
160,39.792613,-85.801410,Melrose Ct
276,39.770914,-85.768523,Bittersweet Dr/Bowman Dr
160,39.744509,-85.951953,S 800 W
160,39.722927,-85.888506,N Oak St/E Trees St
160,39.724068,-85.891045,W North St/S Kelly Dr
160,39.858402,-85.807818,N 25 W
185,39.813973,-85.773395,Fields Blvd/New Rd
185,39.935760,-85.843462,E Mill St/S Madison St
216,39.730971,-85.891512,Cedar Creek Ln/Cedar Creek Pl
246,39.930531,-85.847447,S Maple St
216,39.867466,-85.929133,W Jamestown Dr/Stansbury Blvd
160,39.793198,-85.935640,N Cumberland Falls Dr/N Mayer Dr/W Waterfall Way
185,39.787738,-85.714591,E Main St
185,39.782395,-85.829137,W US Hwy 40
160,39.718704,-85.879122,E Main St/Highland Ave
276,39.787255,-85.786457,Monroe St/W 4th St/Polk St
160,39.933452,-85.847896,Noel Ave/Mill St/E Mill St
160,39.796346,-85.926701,N Jennifer Dr/W Jennifer Ct
305,39.931943,-85.850803,McCarty St/S McCarty St/W Mill St
185,39.730217,-85.882503,Main Dr//East Dr
362,39.781907,-85.839669,S 200 W/W US Hwy 40
185,39.918360,-85.843591,W 925 N
160,39.793996,-85.800635,Meridian Springs Blvd/Meridian Springs Ln
334,39.774717,-85.887105,Windsong Ct
390,39.713594,-85.857217,S 300 W/US Hwy 52
246,39.930422,-85.847375,High St/S Maple St
185,39.927559,-85.930987,96th St
499,39.722703,-85.887021,Spruce St/E Trees St
185,39.725908,-85.946849,W Williamswood Dr
216,39.789266,-85.780612,Indiana St/W 6th St/6th St
185,39.931730,-85.855912,Staat St
246,39.765192,-85.821452,S Frog Pond Ct
390,39.809841,-85.943474,I- 70
390,39.819887,-85.846819,I- 70
246,39.793807,-85.755708,Apple St
246,39.929823,-85.846990,S Maple St
185,39.749285,-85.942795,W Ivy Ln/Ivy Ln
160,39.826951,-85.939364,W 300 N
499,39.717675,-85.884546,Sugar Creek Dr/Sugarcreek Dr
334,39.795377,-85.752507,Ariel Way
216,39.772039,-85.762674,E 100 S/Chapman Blvd
246,39.782119,-85.848329,Walnut Dr
185,39.798860,-85.816529,W 100 N
160,39.793673,-85.802026,N Meridian Rd
305,39.891695,-85.919081,W 750 N/N 600 W
160,39.765150,-85.900041,W Lilac Ln/S Buttercup Dr
246,39.853731,-85.769116,Mill Blvd/E Mill Blvd
445,39.721569,-85.892278,N Birch St/Main St/W Main St
160,39.788393,-85.788259,Weston Elementary School
160,39.899609,-85.881007,N 400 W/W 800 N
216,39.785625,-85.797855,Independence Rd/Winfield Park Dr
813,39.722807,-85.895365,S 500 W
185,39.907277,-85.929075,Winding Bend
246,39.932840,-85.843079,E High St
216,39.808761,-85.750454,King Maple Dr
246,39.799410,-85.951448,N Cambridge Ct/N Winchester Dr
160,39.883940,-85.606285,S Main St/G St
160,39.794270,-85.758952,Waterview Blvd
160,39.870132,-85.918958,Franks Ln/W 600 N
445,39.717008,-85.884809,Sugarcreek Dr
160,39.795497,-85.755743,Apple St/Apple View Ln
246,39.838654,-85.773258,N Hunters Ct
160,39.922287,-85.921556,Crossfield Trl/N Woody Creek Xing
160,39.739676,-85.898328,Raesner Dr/W Raesner South Dr
160,39.745301,-85.919531,S Wollenweber Rd/W Hollyhock Ct
418,39.794730,-85.748991,Jasmine Dr
160,39.776888,-85.914411,S 600 W/W Memory Ln
276,39.853822,-85.769980,Mill Blvd/N Main St
552,39.800662,-85.768446,Melody Ln
362,39.785303,-85.767484,Main St
160,39.884486,-85.919026,N 600 W/W 700 N
160,39.786723,-85.739230,/E Main St
276,39.935635,-85.849710,School St/N School St
526,39.793766,-85.765243,Swope St/E Boyd Ave/N Swope St
216,39.798621,-85.758969,Riverview Dr/Riverview Ct
246,39.828496,-85.596944,I- 70
160,39.755874,-85.941636,W 200 S/Fox Cove Blvd
216,39.698422,-85.896213,W 600 S/S 500 W
185,39.702624,-85.890029,Mohr Estate South Dr
160,39.854089,-85.918683,W Kathlene Ct
160,39.882300,-85.938074,Carroll Rd/Austin Trace Blvd
160,39.853749,-85.768299,N Mill Ct/E Mill Blvd
246,39.783327,-85.767155,Meek St
216,39.768542,-85.772630,Pixy Ct/Orphant Annie Dr
160,39.908171,-85.770811,State Rd 9
160,39.754327,-85.930983,W Logan Dr/S Briarwood Dr
216,39.782603,-85.764890,E Osage St
160,39.888730,-85.576647,/Main St
276,39.723275,-85.887857,N Cedar St/E North St
185,39.889645,-85.576638,Main St
185,39.778665,-85.864482,Act III
216,39.803994,-85.758440,Bluebird Ct
185,39.872881,-85.770304,State Rd 9
185,39.798254,-85.774853,Oak Blvd/W Michigan St
160,39.787271,-85.755505,/Apple St
185,39.774354,-85.856266,S Maple Dr/W Sugar Creek Dr
334,39.784915,-85.785192,N Harrison St
216,39.819364,-85.897474,I- 70
160,39.854030,-85.915462,W Kathlene Ct/Mt Comfort Rd
216,39.928326,-85.855754,W Broadway St/Vitality Dr
185,39.698018,-85.910262,W 600 S/W 1200 N
246,39.796632,-85.765893,Allen Ln/Eikenberry St
390,39.784517,-85.784024,N Franklin St/W Main St/S Franklin St
160,39.717593,-85.951583,/S 800 W
276,39.786348,-85.765067,E North St/N Swope St
216,39.918892,-85.919924,Nautica Blvd/First Watch Way
305,39.721019,-85.886500,E Walnut St/Maple St
216,39.930259,-85.762073,E 1000 N
499,39.929215,-85.852305,W Broadway St/W Garden St
1329,39.722795,-85.898031,Coventry Ct/W Main St
185,39.768092,-85.863212,Harmony Trl/S Harmony Trl
160,39.804308,-85.753856,Whisper Wood Cir/Greenbrook Dr
185,39.939922,-85.850280,School St
160,39.735733,-85.890183,Un-Named
216,39.778235,-85.769640,/Brook St
160,39.930020,-85.786372,E 1000 N
216,39.706619,-85.822236,S Greenfield St/W Railroad St
185,39.781621,-85.846001,W US Hwy 40
160,39.869366,-85.922904,Attleburg Dr
185,39.798511,-85.950400,N Manchester Dr/N Village Green Dr
160,39.796066,-85.852153,S&h Campgound
185,39.885059,-85.608538,/E St
185,39.740923,-85.895634,S 500 W/W Raesner North Dr
246,39.803326,-85.759278,Bluebird Dr/Bluebird Ct
160,39.866129,-85.737314,Arrowhead Ct/Arrowhead Dr
1200,39.810416,-85.769850,State St/E Muskegon Dr/W Muskegon Dr
216,39.771924,-85.752176,S Morristown Pike
185,39.917127,-85.915096,Water Bay/Bayfield Dr
160,39.756347,-85.914125,W 200 S/N 600 W/S 600 W
472,39.799686,-85.755848,Apple St/E McKenzie Rd
246,39.778961,-85.864487,Act III
276,39.881839,-85.934609,Lufkin Ct
185,39.792940,-85.933692,N 700 W
160,39.798393,-85.855422,Buckeye Ln/W 100 N
246,39.791335,-85.755634,Apple St/E 6th St
216,39.888566,-85.576648,Main St
160,39.884977,-85.895128,W 700 N/N 500 W
160,39.841633,-85.927156,W 400 N/N Commercial Pkwy
246,39.900694,-85.839748,Mt Vernon School Corp Private Dr/Mount Vernon School Corp
334,39.825860,-85.622971,I- 70
305,39.784329,-85.950480,Threshing Ct
160,39.872221,-85.728680,N 400 E/E 600 N
246,39.867065,-85.929370,Stansbury Dr/N Stansbury Blvd
216,39.929914,-85.858199,Cove Pt/Beacon Point Ln/Bluff Creek Dr
185,39.775164,-85.933333,S 700 W
185,39.787106,-85.760502,Howard St/
788,39.895868,-85.919042,N 600 W/W Pendleton Pike
160,39.870243,-85.897844,N 500 W/W 600 N
185,39.723630,-85.888688,N Depot St
160,39.792762,-85.946265,Sunrise Dr/Sunrise Cir
334,39.934570,-85.848750,School St/E Staat St
472,39.788011,-85.769469,N State St/W 4th St
216,39.814934,-85.763913,W Bay Dr/Martindale Dr
246,39.806739,-85.750336,Evergreen Dr
160,39.802847,-85.840132,N 200 W
160,39.922331,-85.842249,N Fortville Pike
445,39.722878,-85.885824,E North St/S 450 W
334,39.721689,-85.887227,E Mill St
185,39.783366,-85.773220,Depot St/Riley Ave
160,39.721872,-85.937282,W Anton Way/S Lillian Ct
276,39.786351,-85.765014,E North St/N Swope St
305,39.727276,-85.899433,S Loganberry Ct
334,39.724755,-85.907555,US Hwy 52/S 565 W
185,39.834390,-85.933872,W 350 N
185,39.794829,-85.930156,W Maiellen Dr/W Amanda Ct
160,39.777324,-85.940183,Yorkshire Blvd/W US Hwy 40
216,39.881083,-85.928895,Abilene Way/Odessa Way
160,39.892909,-85.920254,N Hanna St/Hanna St/3rd St
216,39.786746,-85.946734,Buckley Blvd
362,39.795249,-85.951393,Mace Dr/Valley Brook Dr
160,39.791248,-85.614001,E Main St
246,39.797435,-85.947602,E 21st St
305,39.726583,-85.888114,S Turning Leaf St/W Stonehaven Ln
185,39.791488,-85.760311,Maples Mobile Home Park
305,39.778246,-85.768241,/S State St
160,39.783646,-85.789636,Dewey Ave
216,39.820226,-85.915115,/600W/Mt Comfort Rd
246,39.781676,-85.844774,/W US Hwy 40
160,39.907188,-85.634070,Nashville Rd/E South St
160,39.922554,-85.842396,N 200 W/N Fortville Pike
246,39.796689,-85.759365,Lake View Dr/Lake View Ct N
160,39.864071,-85.925782,W Philadelphia Dr/N Jefferson Dr
216,39.730558,-85.893315,Cedar Creek Pl/Cedar Creek Way
160,39.791901,-85.596880,E Main St
334,39.867396,-85.932701,W Burlington Dr/W Raleigh Dr
216,39.793636,-85.800408,Meridian Springs Blvd/Meridian Springs Ln
390,39.783727,-85.769191,Courthouse Plz/S State St
276,39.826918,-85.606461,S 1st St/I- 70
185,39.730840,-85.910760,Countryside Ct/W Countryside Dr
160,39.840301,-85.953474,N 800 W
185,39.802793,-85.854665,Deer Ln
185,39.804114,-85.750153,Evergreen Dr/Palm Ct
185,39.799745,-85.943258,N Buck Creek Rd
246,39.781691,-85.844429,/W US Hwy 40
160,39.904859,-85.743833,N Troy Rd
216,39.840108,-85.781085,Lakewood Dr/Forest Ln
160,39.735147,-85.895553,S 500 W
185,39.864865,-85.953963,N 800 W/
246,39.813506,-85.763727,James Blvd
216,39.938646,-85.843444,N Madison St
160,39.729906,-85.916972,S Eland Dr/Caribou Cir/W Eland Dr
185,39.796333,-85.850437,S&h Campgound
362,39.721126,-85.886970,E Walnut St/Maple St/Spruce St
185,39.786007,-85.781937,N Hendricks St
185,39.795234,-85.756906,Creek View Ct
160,39.790375,-85.647498,S 850 E/E Main St
334,39.796476,-85.754675,Mill Run Blvd/Cortland Ct
185,39.787891,-85.765064,Grant St/N Swope St
216,39.804600,-85.761124,Songbird Ct
216,39.933430,-85.847941,Mill St/E Mill St/Oak St
160,39.791466,-85.609917,S 1st St/E Main St
185,39.698442,-85.894876,W 600 S
334,39.806337,-85.775133,Warren Ct
305,39.830998,-85.915205,Station Way/Mt Comfort Rd
160,39.782661,-85.951988,Hopkins Rd
390,39.719852,-85.886506,Allen St/E Larrabee St
305,39.796594,-85.770369,/Illinois St
216,39.782552,-85.766019,E Osage St/E Mill St
216,39.930564,-85.844767,/E Park St
185,39.785992,-85.800509,Winfield Park Cir
305,39.775278,-85.890222,W Waterway Dr/S Raylee Garden Dr
334,39.779417,-85.896593,S 500 W/W US Hwy 40
160,39.723879,-85.889444,N Depot St
185,39.787239,-85.727113,E Main St
160,39.717297,-85.895253,S School St/S 500 W
185,39.724359,-85.892965,S Amber Ct
216,39.791582,-85.802002,N Meridian Rd
710,39.932697,-85.845347,/E Broadway St
276,39.930696,-85.846851,S Main St/High St/E High St
160,39.757175,-85.764249,S 200 E
631,39.932982,-85.848851,E Mill St/S Main St
185,39.904339,-85.938086,Carroll Rd
160,39.783312,-85.779146,W South St/S Broadway St
185,39.767504,-85.924231,S Vera Dr
246,39.867163,-85.928997,W Jamestown Dr/N Stansbury Blvd
160,39.764935,-85.825091,Lily Ct
185,39.894670,-85.921446,/Center St
246,39.907600,-85.634450,N Nashville Rd/Nashville Rd
216,39.769326,-85.898487,S Daisy Ln/W Blue Bell Dr
216,39.728358,-85.900039,W Stonehaven Ln
276,39.789607,-85.860992,/Sycamore Ct
160,39.926882,-85.919784,N Wind River Run
160,39.791743,-85.794270,Van Buren St
246,39.884173,-85.931583,N Laredo Dr/W del Rio Dr
362,39.823323,-85.727609,N 400 E/I- 70
160,39.893466,-85.921437,/Center St
276,39.792779,-85.939152,Hickory Ct
185,39.799263,-85.782102,W McKenzie Rd
160,39.722993,-85.890615,N Central St
160,39.785972,-85.753810,Berry St/E Main St
160,39.779263,-85.938265,Derbyshire Dr
216,39.788749,-85.774813,W 5th St/Noble St/N Noble St
185,39.785502,-85.807554,Rambling Rd
160,39.927570,-85.930246,96th St
160,39.943937,-85.843477,N Madison St
185,39.776953,-85.913008,W Memory Ln
276,39.786826,-85.776461,School St/W Walnut St
185,39.730849,-85.883122,/Middle Dr
246,39.941406,-85.846514,E Delaware St/Center St
390,39.931855,-85.844598,/E High St
185,39.809901,-85.779469,Village Dr W
160,39.741066,-85.879538,/Ken Ln
276,39.821483,-85.746685,I- 70
276,39.792201,-85.769606,State St/N State St/E Park Ave
276,39.798170,-85.947146,Cobblefield Way/Fieldstone Ct
246,39.794220,-85.755722,Apple St/Creek Wood Dr
160,39.870030,-85.924665,W 600 N/Rockingham Ln
276,39.797440,-85.947301,Cobblefield Way/E 21st St
160,39.930192,-85.769392,E 1000 N
185,39.907092,-85.832542,N Fortville Pike
246,39.732822,-85.895458,Cedar Cove Dr
216,39.788862,-85.794274,Madison Dr/Van Buren St
160,39.782716,-85.822277,W US Hwy 40
362,39.936843,-85.851474,/N Main St
305,39.792494,-85.755672,Apple St/E Park Ave
160,39.941014,-85.839416,Brooks Dr/Laurel Ln
216,39.881084,-85.933168,N Laredo Dr/Odessa Way
362,39.721016,-85.889672,S Depot St/E Main St/W Main St/N Depot St
160,39.697279,-85.944326,W 1200 N
472,39.816888,-85.763521,N West Bay Dr/Crossing Ln
390,39.820190,-85.840351,N 200 W/I- 70
552,39.816799,-85.915013,N 600 W/W 225 N
216,39.723293,-85.900447,US Hwy 52/W Main St
246,39.802517,-85.776907,Meadow Lane Ct
246,39.787223,-85.788044,Weston Elementary School/Polk Ave/Madison Dr
160,39.786698,-85.612577,Carthage Rd/Railroad St
160,39.868449,-85.731007,Clubhouse Dr
762,39.932470,-85.845788,Poplar St/E Broadway St
160,39.811624,-85.824072,Valley Ln/Valley Ct
160,39.807637,-85.752508,E McClarnon Dr
185,39.703999,-85.819285,US Hwy 52/S 100 W
246,39.812327,-85.914938,W 200 N/N 600 W
418,39.720340,-85.886530,Bank St/E Main St
160,39.771990,-85.759061,E 100 S
305,39.934682,-85.850345,E Church St/W Church St/N Main St
160,39.886749,-85.927151,/Chelmsford Dr
160,39.757285,-85.776907,Shadeland Dr
185,39.777142,-85.882463,Parkside Ct
445,39.817486,-85.761977,Fern St
246,39.731215,-85.895511,S 500 W
246,39.907415,-85.917936,Commonview Dr/Deerview Bnd/Emerald Blvd
160,39.858452,-85.770570,N Main St
160,39.829945,-85.770126,N State St/State Rd 9
472,39.731033,-85.938912,/Village Dr
185,39.784219,-85.947266,N Buck Creek Rd
216,39.780737,-85.776654,Virginia Ct/Center St
160,39.889601,-85.759499,N Lakeshore Dr/Lakeshore Ct
246,39.784665,-85.806779,Thistle Wood Dr/Rambling Rd
305,39.720998,-85.886413,Bank St/E Walnut St
334,39.783445,-85.771376,S Pennsylvania St/Depot St
160,39.908539,-85.930784,N Deerhill Dr/Aspen Way
160,39.771478,-85.676515,E 100 S/S 675 E
185,39.794828,-85.740457,Runnymede Dr/Runnymede Ct/Indigo Dr/Indigo Ct
160,39.928923,-85.864329,96th St
216,39.857499,-85.769993,S Main St
276,39.786215,-85.768054,N East St/E North St
216,39.776914,-85.948046,W US Hwy 40
246,39.814434,-85.756308,Hickory Blvd
160,39.768939,-85.890670,S Heron Dr W/Quail Run Dr
445,39.790173,-85.784146,N Franklin St
362,39.789086,-85.784119,W 6th St/N Franklin St
246,39.782501,-85.767083,E Osage St/Meek St
362,39.821137,-85.769899,State St/I- 70
160,39.813084,-85.763810,James Blvd/Adam Ct
160,39.775688,-85.762360,Blank St
276,39.784302,-85.805433,Creston Meadow/Tinker Trl
185,39.730048,-85.883165,Main Dr/Middle Dr
160,39.778820,-85.775409,Sedgewick Dr/Sedgewick Ln
305,39.788818,-85.768134,Lincoln St/N East St
185,39.785599,-85.800612,Winfield Park Dr/Winfield Park Cir
246,39.814281,-85.756299,E 200 N/New Rd/Hickory Blvd
160,39.794651,-85.929992,W Amanda Ct
334,39.794399,-85.613939,E 25 N/25N
216,39.730404,-85.897215,S Harting Farms Dr
216,39.706262,-85.828294,US Hwy 52/S 150 W
276,39.821199,-85.765844,I- 70
305,39.870931,-85.913619,W Woodstock Trl
276,39.778851,-85.950629,Hopkins Rd/Granby Dr
216,39.887689,-85.576656,Main St
160,39.727657,-85.876382,S 400 W/W 400 S
160,39.922684,-85.842476,N Fortville Pike
246,39.783391,-85.807963,W Main St
160,39.935840,-85.839879,Ohio St/Industrial Dr
418,39.933780,-85.850273,/W Staat St
246,39.828607,-85.770130,N State St/E 300 N
216,39.779391,-85.769962,Mount St/Tague St
276,39.783726,-85.801889,W Main St/N Meridian Rd
160,39.719876,-85.941919,W Creekside Dr
160,39.843777,-85.912862,/Airport Blvd
185,39.814394,-85.746533,N 300 E/E 200 N
362,39.796504,-85.753988,N Mill Run Blvd/Mill Run Blvd
216,39.718307,-85.885785,S Bittner Rd/Artesian Ln/S 450 W
246,39.820962,-85.766127,I- 70
185,39.799832,-85.746223,N 300 E/E 100 N
276,39.909981,-85.929108,Cedar Chase Dr/Deer Crossing Blvd
472,39.815048,-85.761610,N East Bay Dr/E Bay Dr
160,39.857604,-85.807821,E 500 N/N 25 W/W 500 N
185,39.937656,-85.852916,/N Merrill St
160,39.840383,-85.953478,N 800 W
160,39.730885,-85.876456,S 400 W/W 380 S
362,39.820119,-85.846853,I- 70
246,39.821039,-85.761066,I- 70
216,39.781745,-85.843249,W US Hwy 40/Main Cross
160,39.786079,-85.647047,S 850 E
276,39.820794,-85.794102,I- 70
216,39.731793,-85.894721,Cedar Cove Ct/Cedar Cove Way
246,39.749669,-85.932486,S Woodgrove Way/S Briar Park Vw
160,39.926372,-85.925323,Northview Dr/Briarway Ln/Northview Ct
216,39.786552,-85.866412,N Summerfield Dr/W Meadowview Dr
185,39.802228,-85.853057,N Blue Spruce Ct
160,39.750928,-85.928667,S Logan Dr/S Briar Park Vw
216,39.930802,-85.844317,Poplar St/E Park St
160,39.721018,-85.891931,W Larrabee St/S Anderson St/Anderson St
334,39.807459,-85.773679,Fields Blvd/Fallon Ln
185,39.781354,-85.772468,/W Pierson St
185,39.791477,-85.760049,Maples Mobile Home Park
185,39.772109,-85.776050,E 100 S/Center St
499,39.825318,-85.705922,I- 70
276,39.814222,-85.760782,E 200 N
246,39.926632,-85.849417,Peach Blossom Dr/Saundra Dr
362,39.784468,-85.785184,N Harrison St/Main St/W Main St
160,39.896032,-85.577760,Half St/White St
276,39.784423,-85.766359,E South St
185,39.913613,-85.843361,N 200 W
160,39.741139,-85.880273,S Sycamore Hills Dr/W Ken Ln
334,39.865961,-85.930445,W Stansbury Blvd/Stansbury Blvd
160,39.885982,-85.919029,N 600 W
160,39.929924,-85.805545,W 1000 N/E 1000 N/N Meridian Rd
160,39.747357,-85.759861,S Brandywine Trl/E Bomar Ln
418,39.731005,-85.938799,/Village Dr
216,39.786695,-85.759137,/N Lincoln St
276,39.821250,-85.746687,I- 70
216,39.783039,-85.774456,S Noble St
216,39.793978,-85.802030,Meridian Springs Blvd/Meridian Springs Ln/N Meridian Rd
185,39.819599,-85.897518,I- 70
246,39.943377,-85.839530,Alden Dr/Laurel Ln
160,39.855278,-85.767715,South St/S East St
185,39.800397,-85.947224,Sandstone Ct
216,39.720715,-85.893991,S Pine St
334,39.769033,-85.761204,Shepherd Ct/Chapman Dr
390,39.721510,-85.894895,W Larrabee St/West St
216,39.790130,-85.752260,/Cherry St
160,39.778039,-85.776670,Sandlewood Dr
160,39.781847,-85.947351,N Buck Creek Rd
276,39.771408,-85.772192,Bumblebee Ct/Bumblebee Way/Orphant Annie Dr
160,39.702623,-85.904483,/S 550 W
276,39.751976,-85.916547,W Richman Dr/S Richman Cir
390,39.727162,-85.890764,W Stonehaven Ln
246,39.783811,-85.799058,/W Main St
160,39.786830,-85.805510,Tinker Trl
160,39.797693,-85.753891,Morningside Dr/Cricket Reel Ct
246,39.778926,-85.907048,/W US Hwy 40
160,39.800860,-85.943269,N Buck Creek Rd
305,39.882881,-85.937229,Denton Dr
185,39.893777,-85.923839,W Pendleton Pike/N Form St
276,39.785360,-85.788803,Jefferson Blvd/Garfield Dr/Roosevelt Dr
891,39.779119,-85.887173,W Lake Potomac Vw
216,39.797802,-85.767072,Downing Ct/Ellis Dr
160,39.801557,-85.746892,Persimmon Cir
216,39.771782,-85.849350,W 100 S
246,39.779690,-85.846420,Pearl
362,39.781855,-85.768156,American Legion Pl
216,39.871739,-85.790908,N 50 E/E 600 N
216,39.736232,-85.886578,Un-Named
216,39.727129,-85.895456,S 500 W/Stonehaven Ln/W Stonehaven Ln
334,39.791401,-85.612690,E Main St/Main St
185,39.718046,-85.908371,W Hackberry Trl/S Grassy Ct
160,39.739654,-85.901247,W Village Dr/S Theodore Ln
160,39.802494,-85.752271,Worcester Way/Lexington Trl
160,39.909981,-85.928086,Cedar Chase Dr/Fawn Meadow Dr
788,39.722296,-85.892564,W Walnut St
185,39.791253,-85.613605,West St/E Main St
216,39.771900,-85.751918,E 100 S
160,39.825588,-85.835234,Fountain Lake Dr
334,39.788542,-85.746833,Gemstone Dr
160,39.941524,-85.832541,Flint Blvd/E Broadway St
499,39.790603,-85.796259,Founders Dr/Foundation Dr
216,39.786780,-85.946346,Buckley Blvd/Buckley Ct
276,39.927007,-85.922962,Mirafield Ln
160,39.780805,-85.843269,Center St W/Main Cross
216,39.768982,-85.896279,S 500 W/Quail Run Dr
185,39.798278,-85.950391,N Village Greene Dr/N Village Green Dr
160,39.927656,-85.855763,/Vitality Dr
160,39.938103,-85.850284,N School St
305,39.784163,-85.806786,Creston Meadow/Rambling Rd
276,39.928837,-85.853347,W Broadway St
160,39.806589,-85.748245,Cypress Dr/E McClarnon Dr
362,39.741746,-85.913980,S 600 W
160,39.837208,-85.625809,E 350 N/N Grandison Rd
246,39.773782,-85.772178,Dream March Dr/Leonainie Ct/Pomona Ct
216,39.893428,-85.922642,/N McCord St
216,39.814171,-85.763810,E New Rd/Martindale Dr/James Blvd
216,39.730460,-85.939049,S Village Dr/Village Dr
160,39.784369,-85.763851,E South St
185,39.832839,-85.770092,State Rd 9
160,39.776447,-85.891281,W Meadow Lake Dr
246,39.791046,-85.769570,N State St/Walker St
160,39.799246,-85.728567,Santa Fe Dr/Geronimo Dr
160,39.854876,-85.817324,N Fortville Pike
160,39.782965,-85.848368,Walnut Dr
160,39.814456,-85.741531,E 200 N
362,39.815063,-85.763467,N East Bay Dr/W Bay Dr
216,39.724215,-85.904910,S 550 W/US Hwy 52
445,39.804502,-85.768485,Melody Dr/E Green Meadows Dr
216,39.801365,-85.857177,W Redbud Cir
160,39.896038,-85.576606,Half St/Main St/N 1200 E
246,39.804367,-85.775079,Green Meadows Dr
160,39.767538,-85.858220,W Pleasant Dr/S Jacobi Rd
185,39.782806,-85.914528,N 600 W/S 600 W
362,39.787988,-85.770276,W 4th St
246,39.776944,-85.884349,Parkside Ct/Parkway Ave
552,39.800324,-85.768441,Melody Ln/Plaza Dr
160,39.887334,-85.580272,E 700 N/Meridian St
160,39.891444,-85.936298,W 750 N/Cindy Dr
185,39.791034,-85.752285,/Cherry St
334,39.819904,-85.845239,I- 70
276,39.721481,-85.886245,Bank St/E Mill St
185,39.705527,-85.821586,S Main St/W Center St
160,39.716564,-85.951582,S 800 W/W Stinemyer Rd
160,39.698325,-85.857084,S 300 W/W 1200 N
334,39.791188,-85.766565,Walker St/N Spring St
160,39.760455,-85.895089,W Congress Cove
160,39.742647,-85.749714,E 300 S/S 275 E
362,39.721597,-85.886791,E Mill St/Maple St
160,39.868806,-85.924388,Rockingham Ln
185,39.785907,-85.848720,Walnut Dr
160,39.751893,-85.932621,S Woodgrove Way
160,39.777143,-85.943626,W US Hwy 40
216,39.908540,-85.929121,N Deerhill Dr/W Winding Bend
185,39.941471,-85.843460,E Delaware St/N Madison St
160,39.856922,-85.768868,Jefferson St/Center St
185,39.785482,-85.939077,Beechwood Dr/Hickory Dr
276,39.816573,-85.788150,Anderson Blvd
390,39.794889,-85.779494,W Boyd Ave/N Broadway St
216,39.719490,-85.882642,E Main St
185,39.795100,-85.937627,Buck Creek Ct
216,39.793074,-85.778280,Wilson St/W 9th St
185,39.883886,-85.606552,S 1st St/G St
160,39.751499,-85.756913,S Brandywine Trl
160,39.917817,-85.922768,First Watch Way
160,39.786713,-85.830452,N 150 W
185,39.786339,-85.799033,Winfield Pk Ct
185,39.894250,-85.921439,2nd St/Center St
216,39.787235,-85.777656,Wilson St
160,39.875472,-85.919017,N 600 W
185,39.794623,-85.943439,Lakeside Ln
216,39.789273,-85.750795,Date St
160,39.757127,-85.707302,E 200 S/S 500 E
276,39.864958,-85.930342,W Littleton Dr
160,39.899985,-85.851366,Mount Vernon School Corp/State Rd 234
445,39.769872,-85.762129,Chapman Overlook
185,39.794309,-85.801404,Melrose Ct
160,39.807610,-85.751918,Redwood Dr/E McClarnon Dr
185,39.801125,-85.941627,N 127 W/Glendale Ln
185,39.782381,-85.926126,Avalon Ln
276,39.731990,-85.928894,S Southway Dr
160,39.747688,-85.764004,S 200 E
216,39.757877,-85.891878,S Philadelphia Pass
160,39.812182,-85.942473,W 200 N/W New Rd
276,39.797487,-85.947302,Cobblefield Way
160,39.794441,-85.759069,Creek Wood Dr/Waterview Blvd
160,39.757101,-85.848508,W 200 S/S 250 W
246,39.789687,-85.744887,Brookstone Dr/Carlton Dr
246,39.789511,-85.775065,W 6th St/N Noble St
185,39.767539,-85.926927,Lana Ct W
216,39.784528,-85.765027,E South St/S Swope St
185,39.712828,-85.854250,US Hwy 52
246,39.941322,-85.851411,E Delaware St/W Delaware St/N Main St
185,39.733433,-85.928875,W Western Ct/S Southway Dr
160,39.774365,-85.850965,W Sugar Creek Dr
246,39.828598,-85.770522,E 300 N
418,39.726955,-85.889944,S Meadow Wood Ct
246,39.821191,-85.766396,I- 70
160,39.812690,-85.782293,Murdoch Dr/Webb Dr
185,39.939069,-85.850290,N School St
216,39.868673,-85.928320,W Charleston Way/Stansbury Blvd
526,39.720116,-85.891328,W Schultz St
276,39.788370,-85.750775,Date St
185,39.787717,-85.755518,Apple St/E 2nd St
160,39.734749,-85.913871,S 600 W
160,39.835352,-85.770049,/State Rd 9
185,39.903297,-85.743825,N Troy Rd/E Eden Rd
185,39.787489,-85.726980,N 400 E
246,39.727631,-85.898107,S Harting Farms Dr/W Stonehaven Ln
216,39.759374,-85.941879,W Banton Cir
160,39.939784,-85.846514,Hamilton St/Center St
246,39.814856,-85.763839,Martindale Dr/W Bay Dr
631,39.779186,-85.885211,/W Lake Potomac Vw
276,39.780892,-85.863086,W US Hwy 40
185,39.760216,-85.939667,Red Fox Trl/Fox Cove Blvd
185,39.867630,-85.930155,W Raleigh Dr/N Quincy Dr
276,39.919014,-85.921626,Nautica Blvd/Schooner Cir
552,39.933306,-85.849136,S Main St
246,39.795277,-85.770915,Maple Dr/Willow Rd
305,39.781519,-85.848325,W US Hwy 40/Walnut Dr
246,39.807788,-85.756064,Apple St/E McClarnon Dr
160,39.863871,-85.774717,Acorn Ct
246,39.811261,-85.934065,W 200 N/N 700 W
185,39.943270,-85.850813,Mendora Dr/New York St
418,39.797452,-85.768512,Allen Ln/Ellis Dr
276,39.886755,-85.938081,N 700 W
160,39.743177,-85.916231,S Colton Rd/W Colton Ct
390,39.784300,-85.788706,Jefferson Blvd/W Main St
276,39.929277,-85.844992,/Garden St
160,39.713321,-85.706584,S 500 E/E 500 S
362,39.793684,-85.769576,State St/E Boyd Ave
185,39.739021,-85.895604,Tomke Dr/S 500 W
160,39.764905,-85.773308,Penny Ln
246,39.788646,-85.774804,W 5th St/Noble St/N Noble St
418,39.720632,-85.890794,School St/W Larrabee St
185,39.791700,-85.933663,N 700 W
185,39.910976,-85.930489,Coldwater Cir/Aspen Way
305,39.815127,-85.763522,N East Bay Dr/N West Bay Dr/W Bay Dr
160,39.779780,-85.796205,/Eli Lilly
160,39.887530,-85.927697,/Kensington Way/Dickens Xing
216,39.776880,-85.948711,W US Hwy 40/N Buck Creek Rd
160,39.788212,-85.784100,W 5th St/N Franklin St
276,39.892029,-85.927769,/W Pendleton Pike
185,39.745343,-85.943081,Sunrise Ct
185,39.922122,-85.927807,Breckenridge Station
160,39.796961,-85.852544,S&h Campgound
216,39.768598,-85.868985,S Country Ln
362,39.933634,-85.843540,/E Broadway St
334,39.791259,-85.795267,Freedom Ct
246,39.776884,-85.884376,Parkway Ave
160,39.896956,-85.895205,N 500 W
160,39.728822,-85.883049,Cornerstone Dr
472,39.789941,-85.784465,W 7th St
185,39.787407,-85.752186,Cherry St
334,39.931930,-85.847927,Noel Ave/S Main St
246,39.789633,-85.789019,/Madison St
185,39.697936,-85.913822,S 600 W/W 1200 N
552,39.786822,-85.769424,N State St
216,39.812144,-85.914941,N 600 W
216,39.887313,-85.924362,N Stubbington Ln/Chelmsford Dr/Windsor Dr
160,39.727203,-85.943180,W Village Way/S Village Row
160,39.716501,-85.951226,W Stinemyer Rd
160,39.936131,-85.840265,Ohio St/E Broadway St
216,39.915315,-85.921409,Waterfront Way
216,39.939717,-85.849992,Hamilton St
185,39.729231,-85.917855,Caribou Cir
276,39.819951,-85.769850,State St/
160,39.742347,-85.881464,S 425 W/W 300 S
334,39.898887,-85.919050,N 600 W/Oil Well Rd/W 800 N
684,39.721749,-85.893155,W Main St/Locust St
246,39.780905,-85.862761,W US Hwy 40
160,39.793025,-85.949603,Waterview Cir/Valley Brook Dr
160,39.776414,-85.933352,S 700 W
216,39.870188,-85.912785,N Woodhaven Dr/W 600 N
185,39.722194,-85.889640,W Mill St/N School St
160,39.780941,-85.801122,Eli Lilly
362,39.720389,-85.886746,E Main St/Maple St
160,39.791286,-85.944905,Sunrise Dr
552,39.814086,-85.767906,E New Rd/Barrett Dr
160,39.780287,-85.928050,Brenda Ct/Manor Dr
526,39.820318,-85.794621,Franklin St
185,39.772089,-85.768656,E 100 S/Bowman Dr
160,39.920003,-85.918005,Port Dr
185,39.781315,-85.928076,Deldin Ct/Manor Dr
216,39.885415,-85.608022,E St/S Main St
185,39.803058,-85.878043,N 400 W
499,39.932466,-85.849779,Mill St/W Mill St/S Merrill St
276,39.798649,-85.757008,Riverview Ct
216,39.724086,-85.885731,W Eagle Trce
160,39.822502,-85.654592,N 800 E/E 250 N
185,39.925895,-85.862313,N 300 W
362,39.784191,-85.771432,S Pennsylvania St/W South St
160,39.735745,-85.890774,Un-Named
160,39.763467,-85.936396,S Fox Tail Pass
276,39.741937,-85.915908,S Colton Rd/W 300 S
160,39.907237,-85.891414,W Ricks Dr S/N Ricks Dr E
160,39.776942,-85.800402,Eli Lilly
185,39.790113,-85.741245,Willowview Ct
246,39.787890,-85.792430,Harding Ave
216,39.891924,-85.576624,Main St
160,39.928655,-85.892036,96th St
472,39.723062,-85.886885,E North St/Spruce St
362,39.805932,-85.776966,Field's Blvd/Preston Dr
246,39.922931,-85.921581,N Woody Creek Xing
185,39.791474,-85.752324,E 6th St/Cherry St
160,39.827668,-85.840457,N 200 W/W 300 N
246,39.789409,-85.760606,Howard St/Lincoln St
684,39.720428,-85.889890,W Larrabee St/S Depot St/E Larrabee St
160,39.699625,-85.895344,S 500 W
305,39.934427,-85.850858,/W Church St
185,39.794625,-85.943179,N Buck Creek Rd/Lakeside Ln
160,39.828134,-85.797791,E 300 N
305,39.893880,-85.919050,/N 600 W
276,39.779219,-85.943569,Yorkshire Blvd
305,39.933029,-85.846941,/Pearl St
216,39.786404,-85.763878,E North St/Wood St
160,39.787041,-85.731979,E Main St
216,39.813872,-85.782897,Hastings Blvd/New Rd
160,39.940516,-85.850283,School St/E Carolina St
160,39.870264,-85.895195,N 500 W/W 600 N
246,39.780274,-85.844775,Walnut St
160,39.710730,-85.908499,W Beechwood Ln
499,39.806790,-85.768155,Melody Dr/Melody Ln/E McClarnon Dr
160,39.940147,-85.830917,Sandy Rock Ln/Pebble Dr
276,39.722404,-85.883301,S Woodbridge Ln
160,39.786880,-85.753841,E 1st St/Berry St
216,39.788072,-85.791234,Roosevelt Dr
160,39.791825,-85.791405,Jefferson Blvd
390,39.788499,-85.778104,Wilson St/W 5th St
160,39.761798,-85.764360,White Oak Dr/S State St/E Steele Ford Rd
246,39.751961,-85.917381,W Richman Dr/Richman Way
160,39.803983,-85.951047,N Manchester Dr
334,39.773364,-85.766535,Longfellow Ln/S State St
160,39.807476,-85.751636,E McClarnon Dr
185,39.933556,-85.852562,/W Church St
160,39.801901,-85.784418,Franklin St
160,39.797697,-85.737580,Springside Ct
246,39.793697,-85.768308,East St/E Boyd Ave
160,39.793198,-85.936637,W Waterfall Way
185,39.893647,-85.794285,E 750 N/N 50 E
160,39.924649,-85.937418,Carroll Rd/N 700 W
160,39.764028,-85.936428,S Fox Tail Pass/W Fox View Trl
276,39.807860,-85.746392,N 300 E
246,39.786402,-85.744996,E Main St/Pope Ln
185,39.739000,-85.894078,Tomke Dr/S Leonard Rd
276,39.734955,-85.926187,S Willow Grove Dr
390,39.720937,-85.895331,S 500 W/Meadow Dr
160,39.769932,-85.768503,Bowman Ct/Bowman Dr
276,39.820432,-85.821496,I- 70
160,39.712630,-85.819449,S 100 W
160,39.794950,-85.754637,Cortland Ct
216,39.814072,-85.771234,Greenfield Banking/New Rd
160,39.773422,-85.884416,Summerhaven Ct
246,39.795244,-85.765295,Swope St/Kirkpatrick Pl
216,39.800729,-85.762541,N Brandywine St/Lake Dr
276,39.892912,-85.919081,N 600 W
160,39.786612,-85.781036,/W Walnut St
185,39.783123,-85.813605,W Main St
334,39.816624,-85.765023,Martindale Dr/Crossing Ln
160,39.742408,-85.893259,W 300 S
160,39.864110,-85.927922,W Philadelphia Dr/N Plymouth Ct
216,39.821267,-85.779973,Hastings Blvd
305,39.785491,-85.786427,Monroe St/W North St
160,39.797718,-85.755793,Apple St/Lake View Dr
276,39.782925,-85.771329,S Pennsylvania St/W Mill St
216,39.929264,-85.846626,Garden St/S Maple St
185,39.890653,-85.577250,Depot St/Center St
334,39.797383,-85.952272,E 21st St
246,39.805818,-85.754157,Coventry Ct/Greenbrook Dr
276,39.770739,-85.762766,Chapman Cir
305,39.819505,-85.906602,I- 70
160,39.900325,-85.827940,N Fortville Pike/State Rd 234
216,39.802887,-85.750111,Magnolia Dr/Cypress Dr
185,39.937732,-85.848593,/N Leland St
216,39.724707,-85.940177,S Creekside Dr/W Creekside Ct
526,39.819528,-85.769843,/State St
246,39.886695,-85.938079,Carroll Rd/N 700 W
246,39.814812,-85.763942,W Bay Dr/Martindale Dr
216,39.934519,-85.847926,/Noel Ave
246,39.765950,-85.821798,W Morning Walk Dr/S Frog Pond Ct
246,39.786812,-85.755490,Apple St/E 1st St
390,39.793728,-85.766677,Spring St/E Boyd Ave
305,39.784099,-85.773280,W South St/Riley Ave
658,39.784753,-85.779195,S Broadway St/W Main St/N Broadway St
216,39.857189,-85.769994,/S Main St
160,39.769551,-85.748818,S Oden Dr
160,39.871536,-85.808272,W 600 N
276,39.721207,-85.890577,School St/W Main St/N Central St
160,39.799160,-85.741982,Fair Glen Ct
334,39.866038,-85.928706,N Plymouth Ct
246,39.805476,-85.775142,Paragon Ct
185,39.721213,-85.923233,S 650 W
216,39.804306,-85.948828,N Hampton Ct
216,39.792507,-85.740847,Runnymede Ct
305,39.805570,-85.775647,Paragon Way/Warren Way/Paragon Ct
160,39.894606,-85.924128,Depot St/N Railroad St
185,39.739597,-85.894077,S Leonard Rd
305,39.780223,-85.778315,Grove St/S West St
445,39.777848,-85.886888,W Potomac Dr/W Lake Potomac Vw
160,39.924690,-85.921610,Moonstone Pl/Mirafield Ln/N Woody Creek Xing/N Wind River Run
390,39.731368,-85.938798,US Hwy 52/Village Dr
160,39.729033,-85.943009,S Village Row
246,39.806642,-85.750377,Evergreen Dr/E McClarnon Dr
185,39.788289,-85.796387,Old Glory Dr/Monticello Dr
160,39.788963,-85.765097,Lincoln St/N Swope St
185,39.787088,-85.726979,N 400 E/E Main St/S 400 E
185,39.797244,-85.770980,McClellan Rd/Maple Dr
185,39.856462,-85.934812,N 700 W/W 500 N
472,39.772382,-85.885411,Havens Dr/Summerhaven Dr
185,39.800551,-85.944591,Cobblefield Way/Brownstone Ct
216,39.795335,-85.739444,Runnymede Dr/Streamside Dr
160,39.802906,-85.748560,Mulberry Ct/Evergreen Dr
185,39.705119,-85.821748,S Main St
276,39.887052,-85.938086,Carroll Rd
160,39.943280,-85.849727,New York St/Tulip Way
684,39.722388,-85.892969,W Walnut St
185,39.728700,-85.911086,W Countryside Dr/W Country Way
185,39.925173,-85.927730,N Ridgeway Ct
216,39.777974,-85.933384,S 700 W/N 700 W
185,39.767182,-85.860386,W Pleasant Dr/Peace St
185,39.783771,-85.758768,Pennsy Trl
526,39.807202,-85.952929,N 800 W
362,39.882336,-85.936149,Karnes Dr/Odessa Way/Austin Trace Blvd
160,39.871534,-85.808379,W 600 N
246,39.788764,-85.752240,Cherry St/E 3rd St
334,39.793155,-85.755686,Apple St/E 8th St
276,39.934656,-85.843792,Pearl St/Ash St
362,39.799455,-85.768570,Allen Ln/McKenzie Rd/E McKenzie Rd
216,39.886112,-85.607931,Post St/D St
185,39.825397,-85.710263,I- 70
185,39.794101,-85.800613,Meridian Springs Ln
246,39.825762,-85.644984,I- 70/N 850 E
160,39.794707,-85.931891,W Maiellen Ct
216,39.800654,-85.758481,Sherwood Ct
185,39.942415,-85.844251,Virginia St/Peony Ln
160,39.749489,-85.763008,E Bomar Blvd/S Bomar Ln
185,39.721895,-85.890575,W Walnut St/N Central St
160,39.825209,-85.912415,W Corporate Dr
246,39.792494,-85.951039,Grebe Cir
246,39.784575,-85.762573,Vine St/E South St
160,39.933957,-85.845128,Pearl St
160,39.791265,-85.794256,Van Buren St/Freedom Ct
160,39.801349,-85.863390,Hickory Woods
185,39.915850,-85.739221,E 900 N/N Troy Rd
160,39.806401,-85.746205,E McClarnon Dr
160,39.845364,-85.810115,N Fortville Pike
160,39.796886,-85.852232,S&h Campgound
185,39.943301,-85.848667,E New York St/New York St/N Leland St
185,39.710758,-85.838295,S 200 W
160,39.794688,-85.933731,N 700 W
160,39.841505,-85.915282,W 400 N/Mt Comfort Rd
390,39.932233,-85.846247,/E Broadway St
185,39.911200,-85.891404,Pendleton Pike/N Ricks Dr E
160,39.751538,-85.688345,S 600 E
160,39.727165,-85.944504,W Village Way/S Woodfield Dr
185,39.927561,-85.930853,96th St
305,39.785530,-85.755450,S Morristown Pike
160,39.793153,-85.746088,Stonewall Dr/N 300 E
160,39.826784,-85.952277,/W 300 N
390,39.788987,-85.769980,W 5th St
185,39.909394,-85.913755,W Crestview Trl
160,39.789566,-85.929074,Woodcrest
185,39.813084,-85.764078,Adam Ct
216,39.927747,-85.848815,Peach Blossom Dr/Cherry Blossom Ln
160,39.908008,-85.938093,Carroll Rd/W Winding Bend
160,39.887169,-85.927667,/Dickens Xing
216,39.816789,-85.783139,Anderson Blvd/Hastings Blvd
552,39.791067,-85.779397,Greenfield High School/N Broadway St
216,39.856919,-85.769409,/Jefferson St
185,39.909558,-85.929112,Deer Crossing Blvd
160,39.784022,-85.848575,Walnut Dr
185,39.791396,-85.613618,West St/E Main St
418,39.820560,-85.794209,Franklin St/I- 70
160,39.777493,-85.855579,W Lake Dr/S Park Dr
334,39.799507,-85.765996,Eikenberry St/E McKenzie Rd
160,39.742331,-85.877185,W 300 S
418,39.820371,-85.826145,I- 70
160,39.858057,-85.747511,E 500 N/N 300 E
276,39.814248,-85.758615,E 200 N
160,39.746539,-85.920717,Homestead Ct
390,39.795668,-85.945848,Huntington Ct
160,39.854926,-85.768901,South St/Center St
160,39.772423,-85.747844,Fairway Village Blvd
160,39.785079,-85.864689,W Hidden Lake Ct
305,39.822525,-85.770051,/State St
334,39.806190,-85.776973,Field's Blvd/Warren Way
216,39.724082,-85.885128,W Eagle Trce/W Woodbridge Ln/S Woodbridge Ln
160,39.786686,-85.810053,Rambling Rd
160,39.945755,-85.634525,State Rd 109/E 1100 N
246,39.930974,-85.848709,W Broadway St/S Merrill St
276,39.796297,-85.951990,Valley Brook Dr/Valley Brook Ct
216,39.734199,-85.903960,Rockway Dr
246,39.789965,-85.766520,Douglas St/N Spring St
305,39.928591,-85.851975,Garden Ct
390,39.781904,-85.839759,S 200 W/W US Hwy 40
499,39.819742,-85.765224,Collins Way/Layton Ln
334,39.906855,-85.911199,Vistaview Trl/Crestview Trl
305,39.790057,-85.794316,Founders Dr/Van Buren St
917,39.804453,-85.769780,State St/Green Meadows Dr
472,39.788573,-85.761649,/Baldwin St
305,39.822532,-85.769903,State St/
160,39.912415,-85.847328,Orchard Dr
246,39.935201,-85.850742,N Main St
276,39.866486,-85.927292,W Jamestown Dr/N Jamestown Dr/N Benjamin Pl
160,39.813808,-85.788282,New Rd
246,39.816912,-85.783145,Anderson Blvd/Hastings Blvd
185,39.799323,-85.853275,N Creekview Dr/Buckeye Dr
185,39.793556,-85.612770,Pine St/Main St
246,39.769488,-85.931631,W Brier Creek Dr/Fox Trail Dr W
185,39.786170,-85.947095,N Buck Creek Rd
160,39.785567,-85.790759,Tyler Ave/Roosevelt Dr
160,39.857977,-85.770563,/School St
305,39.799296,-85.778992,Fairview Dr/W McKenzie Rd
160,39.924445,-85.843585,N Fortville Pike
160,39.792297,-85.765209,E Park Ave/N Swope St
185,39.790499,-85.612630,Carthage Rd/West St/South St
246,39.932690,-85.852390,W Staat St/Staat St/N McCarty St
216,39.786746,-85.946912,Buckley Blvd
160,39.720722,-85.909181,S Brooklawn Dr
216,39.712125,-85.813488,Shel-Lyn Dr/W Shel Lyn Ct
160,39.729570,-85.897737,S Harting Farms Dr/S Redbird Trl
276,39.821121,-85.794562,Franklin St
160,39.927966,-85.914289,96th St
246,39.900071,-85.846695,State Rd 234
160,39.797624,-85.753713,Morningside Dr/Cricket Reel Ct
160,39.750948,-85.928583,S Briar Park Vw
160,39.857110,-85.768922,Center St
216,39.720422,-85.894066,S Pine St/W Schultz St
246,39.776853,-85.949195,W US Hwy 40
216,39.796895,-85.840049,N 200 W/Osman Ln
334,39.727168,-85.918963,Arbor Dr/US Hwy 52
334,39.776759,-85.951021,Granby Dr/W US Hwy 40
246,39.828323,-85.796526,N Fortville Pike
185,39.773467,-85.952327,S 800 W
160,39.731157,-85.900526,W Barnwood Dr
185,39.787247,-85.726867,E Main St
185,39.789331,-85.858921,N 300 W
276,39.779340,-85.943609,Yorkshire Blvd/W Yorkshire Blvd
418,39.787480,-85.799324,Colony Ct/Independence Rd/W Liberty Ln/N Liberty Ln
185,39.783842,-85.757357,Pennsy Trl
160,39.777537,-85.769620,/Brook St
185,39.806407,-85.785553,Franklin St
185,39.918856,-85.922980,Coral Reef Rd/Nautica Blvd
276,39.802499,-85.774518,Gaslite Ln/Candlelite Dr
160,39.938228,-85.843446,Monroe St/N Madison St
246,39.791065,-85.776128,Hawthorne Ln/N Noble St
160,39.718251,-85.880716,Highland Ave
246,39.785573,-85.799005,Winfield Pk Ct/Winfield Park Dr
334,39.784968,-85.774626,W Main St/S Noble St/N Noble St
160,39.914722,-85.843622,W 900 N
160,39.867981,-85.770164,State Rd 9
185,39.799505,-85.946916,Cobblefield Way/Sandstone Ct
216,39.785605,-85.761196,S Brandywine St/Main St
216,39.786956,-85.752181,E 1st St/Cherry St
185,39.807012,-85.756049,Apple St
160,39.900478,-85.851358,Mount Vernon School Corp
185,39.827008,-85.935306,W 300 N
160,39.779714,-85.795337,Eli Lilly
185,39.797601,-85.748545,Johnson Cir/Morningside Dr
390,39.807453,-85.774136,/Fallon Ln/Fallon Ct
185,39.889513,-85.933168,W Pendleton Pike
160,39.934076,-85.858635,W Church St
160,39.784436,-85.951704,Hopkins Rd
185,39.778503,-85.773442,Riley Mobile Home Park
160,39.908144,-85.770811,State Rd 9
160,39.814637,-85.726565,E 200 N
334,39.794397,-85.770533,Maple Dr/Elm Dr
305,39.827813,-85.601064,I- 70
160,39.763974,-85.938764,S Fox Den Blvd/W Fox View Trl
362,39.790672,-85.772270,Sycamore Ln
185,39.775864,-85.856315,W Sycamore Dr/S Maple Dr
160,39.785447,-85.756952,Valley Dr
362,39.751793,-85.757972,E Country Trl
160,39.848880,-85.915390,Mt Comfort Rd
160,39.842439,-85.824698,W 400 N
334,39.787473,-85.748928,Flagstone Dr/Whetstone Dr
185,39.864942,-85.770059,E 550 N/State Rd 9
216,39.812067,-85.952944,N 800 W/W 200 N
390,39.718760,-85.885794,S Bittner Rd/S 450 W/Maupin St
160,39.797579,-85.937690,W 100 N
216,39.786597,-85.811784,Winding Creek Ln/Gristmill Dr/School House Dr
216,39.787090,-85.796769,Old Glory Cir
362,39.932006,-85.846688,S Oak St/E Broadway St
305,39.867624,-85.924637,/Attleburg Dr
276,39.825834,-85.668462,I- 70
216,39.900192,-85.838785,State Rd 234
185,39.796636,-85.765361,Allen Ln
185,39.929758,-85.815030,W 1000 N/N 50 W
185,39.767256,-85.926882,Lana Ct W
216,39.775908,-85.952388,S County Line Rd
160,39.931252,-85.853933,W Staat St
185,39.892078,-85.922644,/N McCord St
185,39.792226,-85.768301,E Park Ave/Park Ave/East St
216,39.932894,-85.851978,/Staat St
160,39.936654,-85.839656,E Broadway St/E Ohio St
216,39.743922,-85.917267,S Kaitlin Ct/W Kaitlin Rd
552,39.895051,-85.919047,N 600 W/1st St
160,39.742395,-85.890298,W 300 S
246,39.779130,-85.902658,/W US Hwy 40
216,39.808596,-85.786838,Franklin St/W Muskegon Dr
160,39.775810,-85.771776,Dream March Dr/Longfellow Ct/Longfellow Ln
185,39.786458,-85.762732,Pratt St/E North St
418,39.723221,-85.885830,S 450 W
276,39.873806,-85.912575,N Woodhaven Dr
160,39.799716,-85.754071,Cricket Reel Dr/E McKenzie Rd
160,39.729130,-85.913797,S 600 W/W Country Way/W Eland Dr
185,39.784626,-85.940422,Maple Ct
160,39.792414,-85.760850,E Park Ave/Maples Mobile Home Park
160,39.723146,-85.943300,S Village Row
246,39.932175,-85.856394,Staat St
362,39.819684,-85.889419,I- 70
185,39.788381,-85.780615,W 5th St/Indiana St
216,39.781157,-85.776677,W Pierson St/Center St
185,39.857690,-85.769993,E 500 N/Junction St / E 500 N/S Main St/N Main St
334,39.793618,-85.947806,Waterview Cir
160,39.781191,-85.856045,W US Hwy 40
305,39.721106,-85.890090,Victory Dr/W Main St/N School St
362,39.768117,-85.760716,Keller Dr/Chapman Dr
362,39.802983,-85.775588,Meadow Ln
185,39.791050,-85.947396,Valley Brook Dr/Abel Cir
160,39.697274,-85.944565,W 1200 N
246,39.786312,-85.744987,/E Main St/Pope Ln
305,39.724372,-85.897769,Coventry Ct
276,39.830452,-85.915201,Mt Comfort Rd
