Estimated daily crossings,Latitude,Longitude,Name
160,41.085536,-85.470096,State Rd 9
160,41.245945,-85.443357,N Old 102/Old Willow Rd
160,41.142430,-85.449055,S Williams Dr/Governors Dr
216,41.048411,-85.470600,E 800 S/State Rd 9
305,41.157128,-85.479367,E Van Buren St
160,41.133140,-85.372751,E Lincolnway/Yellow River Rd
160,41.259817,-85.365438,Blue Ridge Eastates II
185,41.177970,-85.596837,US Hwy 30/N 550 W
216,41.146841,-85.448343,E 100 S/US Hwy 30
362,41.168992,-85.509780,W Lincolnway/N Lincolnway/Depoy Dr
160,41.256640,-85.359966,Blue Ridge Estates I
160,41.208169,-85.334033,N 825 E/E 300 N
216,41.149028,-85.486644,E Swihart St/S Whitley St
917,41.163691,-85.487664,W North St/E North St/N Main St
160,41.150535,-85.491189,S Line St/Factory Ave
185,41.171320,-85.509816,Connexion Way
160,41.178645,-85.495353,N Center Ct/W Center Dr
160,41.162532,-85.460110,Old Trail Rd/S Eagle Glen Trl
472,41.155902,-85.492717,W Market St/S Walnut St
185,41.178728,-85.405514,N 450 E
276,41.166442,-85.492923,N Walnut St/Redick Ave
216,41.152439,-85.454935,US Hwy 30
160,41.153037,-85.452841,Eagle View Cir
246,41.082001,-85.336912,S 800 E/G Antony Dr-92
276,41.228188,-85.323275,Western Ave/Coal St
246,41.078682,-85.336848,S 800 E
216,41.153749,-85.489776,Spencer St/S Chauncy St
216,41.239987,-85.329427,US Hwy 33/Thresher Run
499,41.125044,-85.337570,S 800 E
684,41.158172,-85.473669,Park Terrace Blvd
305,41.169936,-85.542294,US Hwy 30/Bus 30 W
276,41.164618,-85.405976,Old Trail Rd
160,41.142546,-85.430800,S Meade Blvd
160,41.080396,-85.341673,Via del Sogno/E Via del Sogno-92
185,41.178275,-85.626626,Depot St/W Main St
472,41.075025,-85.336781,800 E/E 600-S Rd/S 800 E
305,41.174098,-85.483960,W Berkshire Dr
390,41.154880,-85.484010,E Ellsworth St/S Wayne St
276,41.228537,-85.316999,/E Pleasant St/S Washington St
160,41.086421,-85.631060,W Market St/N Line St
246,41.150398,-85.483007,Indiana Ave/E Hanna St
334,41.159538,-85.508710,County Square Estates Mhp/Bus 30 W
276,41.166532,-85.483899,Columbia Dr/Blue River Dr
216,41.127682,-85.481267,/State Rd 9
185,41.231715,-85.311678,Millstone Run
305,41.175913,-85.483630,Burke St/Cambridge Dr
160,41.079536,-85.625401,W Buckeye St
246,41.126027,-85.358236,Yellow River Rd
246,41.158259,-85.501621,N Lincolnway/Bus 30 W
276,41.177182,-85.483301,Carlyle St
216,41.171432,-85.489511,Claiborne Dr/Fairview Ct
276,41.244349,-85.441071,N Willow Ave/Old Willow Rd
160,41.160414,-85.502886,N Lincolnway
160,41.248360,-85.358584,Co Rd 575 N/Timber Ln
160,41.152263,-85.467430,Martz Ct/Redstone Ct
246,41.169227,-85.533691,US Hwy 30
160,41.201051,-85.443683,N 250 E
160,41.075459,-85.614938,State Rd 14
160,41.063872,-85.451818,S 200-E Rd-92/S 200 E/E 700 S
246,41.163086,-85.403510,Old Trail Rd
160,41.083266,-85.627922,S State St
185,41.251432,-85.318801,N 900 E/E 600 N
216,41.227864,-85.316820,S Washington St
246,41.228403,-85.321500,Short St
160,41.073603,-85.422852,Clydes Dale Dr
160,41.146895,-85.474367,E Business 30
185,41.273580,-85.558226,W 750 N/N 350 W
305,41.235293,-85.316418,E Douglas St/Weston Ave
160,41.163057,-85.506399,N Andrew Ave
160,41.246423,-85.441023,E Lakeview Ave
334,41.147189,-85.487438,Radio Rd/S Whitley St
185,41.078063,-85.628319,Washington Ct/Buckeye
160,41.088991,-85.631085,N Line St
160,41.265143,-85.536708,/W 700 N
160,41.240394,-85.347813,N East Dr/West Dr
246,41.234666,-85.322200,E Golf St/N Main St
246,41.087310,-85.626514,E Broad St/N Maple St/Maple St
246,41.159212,-85.489872,N Chauncey St/W Jefferson St
185,41.154911,-85.479462,E Ellsworth St
160,41.085244,-85.623926,E Columbia St/N Jefferson St/S Jefferson St
160,41.177718,-85.593565,US Hwy 30
160,41.191900,-85.487915,Arthur Dr
160,41.176889,-85.491580,State Rd 109
216,41.239417,-85.329856,Thresher Run
160,41.205496,-85.405756,E Burd Rd/N 450 E
216,41.249232,-85.338508,US Hwy 33
334,41.165670,-85.484285,Eagle Ct/Blue River Dr
160,41.004181,-85.491154,State Rd 114
185,41.148550,-85.450246,US Hwy 30
185,41.237090,-85.360076,Harold Pl
334,41.165114,-85.476191,Shoreland Ct
418,41.149499,-85.487520,S Main St/S 9 W
216,41.150362,-85.526013,Old Trail Rd/W Whitley Rd
160,41.126393,-85.393277,E Duffin St/Smith St
216,41.132603,-85.481337,E 200 S/State Rd 9
185,41.150355,-85.463096,S Sommerset Trl
472,41.170670,-85.481207,Country Side Dr/Denzil Dr/Liberty Dr
185,41.251302,-85.343502,US Hwy 33
160,41.094190,-85.627951,State Rd 5
305,41.232210,-85.320557,W Tulley St/N Main St
160,41.273587,-85.573700,W 750 N
160,41.088091,-85.631082,N Line St
216,41.160986,-85.459043,S Eagle Glen Trl/E Brookside Trl
216,41.163884,-85.467336,US Hwy 30
526,41.166503,-85.485473,Garland Ave/Earl Ave
362,41.165470,-85.481077,Azuba Ct/W Columbia Pkwy/Azuba Ln
216,41.232485,-85.326531,Fry Ln
305,41.157317,-85.451614,Kleespie Ct
246,41.153744,-85.456033,US Hwy 30
160,41.149872,-85.463077,Hanna St/S Sommerset Trl
185,41.131428,-85.414958,S 400 E
390,41.160721,-85.475993,Hawthorn Ln
185,41.177990,-85.482006,Airport Rd
216,41.151960,-85.491206,S Line St/Diamond Ave
185,41.163999,-85.462696,Bridget Ln/N 150 E
160,41.150274,-85.491186,Wallace Ave/S Line St
216,41.113043,-85.337379,S 800 E
160,41.235396,-85.538743,Etna Rd/W 500 N/N 250 W
160,41.178125,-85.453238,N 200 E/Widman Rd/E Widman Rd
305,41.157362,-85.475032,Rolling Hills Ave/E Van Buren St
305,41.157720,-85.451363,Kleespie Ct/S Eagle Glen Trl
185,41.160908,-85.487008,N Washington St/Maple St
185,41.275783,-85.545025,/Brown Rd
185,41.197672,-85.386600,E State Rte 205/N 550 E/E Darland St
185,41.002915,-85.582721,1200 N
185,41.178970,-85.625531,Center St
276,41.241712,-85.349789,N Blue Lake Rd
160,41.223429,-85.335442,Country Hills Dr
362,41.164361,-85.489037,/Mulberry St
160,41.114837,-85.471499,S 100-S Rd
160,41.148552,-85.491158,Weston Dr/S Line St
684,41.224577,-85.317270,McCoy Dr/US Hwy 33/S Main St
160,41.191761,-85.490463,N Mary Ln/N Etna Rd
216,41.213235,-85.313537,/US Hwy 33
185,41.237665,-85.405166,N 450 E/Co Rd 500 N
605,41.158891,-85.473998,Park Terrace Blvd
445,41.135945,-85.415075,US Hwy 30/S 400 E
160,41.005228,-85.432469,E 114 S/S Raber Rd
246,41.148247,-85.482381,Ohio St
185,41.180390,-85.623301,E Hammontree St/King St
499,41.159223,-85.488437,E Jefferson St/W Jefferson St/N Main St
160,41.206850,-85.558289,W Lincolnway/N 350 W
216,41.149872,-85.464216,Hanna St/S Archer Ct
185,41.152742,-85.492715,Vine St/S Walnut St
185,41.248212,-85.336383,E Old US Highway 33
185,41.132766,-85.538947,/S Wolf Rd
216,41.221619,-85.462711,E 400 N/N 9 W
246,41.181418,-85.628542,US Hwy 30
246,41.154888,-85.483103,E Ellsworth St
305,41.241970,-85.443397,/N Old 102/E South Center St
246,41.178513,-85.623456,King St
390,41.157054,-85.486945,E Van Buren St/N Washington St/S Washington St
160,41.119626,-85.337544,S 800 E
246,41.160146,-85.463181,US Hwy 30
276,41.180833,-85.622197,McLallen St/US Hwy 30
185,41.171481,-85.495207,Walton Dr
160,41.142569,-85.425546,E Sherman St
160,41.076942,-85.489547,E 600-S Rd/Meridian Rd/State Rd 14
185,41.236330,-85.315125,N Conway St
216,41.148312,-85.467379,Redstone Ct
390,41.160719,-85.476140,Hawthorn Ln
276,41.155891,-85.494175,S Elm St/W Market St
160,41.237086,-85.319144,N 900 E
499,41.171813,-85.476975,Plantation Dr/Summit Dr
305,41.156993,-85.494180,S Elm St/W Van Buren St/N Elm St
1355,41.170712,-85.484589,N Main St
160,41.231301,-85.315390,East St
305,41.149966,-85.478214,Arrowhead Ct/E Hanna St
499,41.241406,-85.443399,N Old 102/South Ave
160,41.226299,-85.328135,Pleasant St/Anderson
305,41.178231,-85.623420,E Main St/King St
185,41.146937,-85.452807,E 100 S
445,41.159753,-85.474928,Rolling Hills Ave/E Jefferson St
276,41.164349,-85.480974,Holden Rd/Jeffery Dr
160,41.153122,-85.452954,Eagle View Cir
216,41.176598,-85.568177,US Hwy 30/N 400 W
160,41.168896,-85.406516,E Chapine Rd/N 450 E
160,41.155985,-85.484018,S Wayne St/E Market St
362,41.166805,-85.489949,Branch Ct
445,41.159119,-85.494203,Hildebrand Ave/N Elm St
160,41.158427,-85.359908,E Dela Balme Rd
160,41.245412,-85.445859,E Schram Ave
216,41.158847,-85.455577,E Ravenwood Ln/E Brookside Trl
305,41.231713,-85.321660,N Mulberry St/W Tulley St
246,41.084165,-85.627929,S State St/Mulberry St
160,41.179431,-85.625514,North St/E North St/Center St
185,41.132119,-85.402498,Union St
160,41.221851,-85.430534,E 400 N
499,41.171433,-85.488256,Claiborne Dr/Hurstland Ct
216,41.151195,-85.466108,Pebble Creek Run/Valley River Dr
276,41.228213,-85.323178,Coal St
160,41.250752,-85.357430,/Timber Ln
160,41.203979,-85.491679,/State Rd 109
390,41.159455,-85.508137,County Square Estates Mhp/Bus 30 W
276,41.180409,-85.624379,E Hammontree St/Thompson St
160,41.238530,-85.353346,Rapp's Camp Ground
160,41.073607,-85.422043,S Hackney Dr/Clydes Dale Dr/Clydesdale Dr
334,41.173242,-85.484035,Heritage Place Blvd
185,41.230420,-85.462658,N 9 W
185,41.141312,-85.431140,E Sherman St/S Sherman St/S Meade Blvd/Mead Blvd
160,41.140009,-85.446104,Paige Rd/E Business 30
160,41.004201,-85.489886,E 114 S/Meridian Rd/State Rd 114
499,41.169531,-85.501134,Armstrong Dr/US Hwy 30
160,41.239644,-85.471477,North Virginia Trl
216,41.159982,-85.459022,E Ravenwood Ln/E Brookside Trl
216,41.185820,-85.463203,Co Rd 150 E/N 9 W
579,41.231393,-85.319935,W Washington St/Charlotte Ave/N Main St
362,41.158030,-85.475019,Rolling Hills Ave/Cul de Sac Ln
160,41.221465,-85.610532,W Lincolnway
160,41.002305,-85.643841,1200 N/State Rd 114
185,41.253458,-85.538230,N 250 W/W 625 N
246,41.047115,-85.350854,Westfield Trl
418,41.153752,-85.488329,Spencer St/S Main St
185,41.238759,-85.329460,Wheatfield Ct/Wheatfield Ln
276,41.228670,-85.323324,W Whitley St/South St
216,41.083106,-85.632748,/W Wayne St/Big Blue Ave
276,41.166900,-85.481626,W Columbia Pkwy/Columbia Dr
185,41.171919,-85.434591,N 300 E/State Rd 205/Widman Rd
185,41.226292,-85.327935,Pleasant St
185,41.155926,-85.377128,Old Trail Rd/S 600 E
246,41.168093,-85.513919,Depoy Dr
246,41.180422,-85.626561,W Hammontree St/Depot St
185,41.160924,-85.457812,S Eagle Glen Trl/E Inverness Cir
160,41.166607,-85.495717,N Oak St/Redick Ave
1226,41.169024,-85.491519,US Hwy 30/N Line St
216,41.176200,-85.563353,US Hwy 30/Wilson Rd
160,41.084638,-85.625293,S Calhoun St/E Front St
246,41.163121,-85.466852,US Hwy 30
160,41.083125,-85.631013,S Line St/W Wayne St
276,41.158487,-85.502515,Bus 30 W
216,41.167378,-85.475392,N Columbia Pkwy/Bayview Ct
185,41.090527,-85.626628,N Maple St/E 2nd St
160,41.079333,-85.624459,State Rd 5/S State St
185,41.264931,-85.393583,US Hwy 33/E 700 N
185,41.160392,-85.497090,W Squawbuck Rd/W Park St/Shinnemann Dr
418,41.229312,-85.319859,S Mulberry St/Coal St
1485,41.169029,-85.485284,US Hwy 30/N Main St
710,41.158136,-85.488409,E Jackson St/W Jackson St/N Main St
579,41.150256,-85.487140,E Chicago St/S Main St
160,41.242787,-85.439291,Hively St/Maple Ave
185,41.244846,-85.440458,E Beech Ave/Hall St
160,41.087380,-85.635317,W Buffalo St/Reed St
305,41.159689,-85.502294,N Lincolnway/W Squawbuck Rd
216,41.128012,-85.395667,E Mojunkin St/Simonson St
160,41.060945,-85.610599,W 700 S/State Rd 5
246,41.233501,-85.324039,John Krieger Dr/Park Dr
499,41.159692,-85.492751,N Walnut St/W Harrison St
216,41.149871,-85.464157,Hanna St
160,41.213942,-85.577203,W Lincolnway/N 450 W
185,41.248303,-85.354291,Co Rd 575 N/Timber Ln
185,41.103837,-85.337249,S 800 E
305,41.178003,-85.623344,Main St/King St
994,41.171473,-85.484312,N 9 W/Spartan Dr
160,41.132598,-85.485170,/E 200 S
185,41.225141,-85.331098,Clearview Dr/Summit Dr
160,41.132562,-85.494244,W 200 S/E 200 S
160,41.080482,-85.630967,S Line St/S Flint St
160,41.087346,-85.632580,W Buffalo St/Shultz St
160,41.160786,-85.455561,S Eagle Glen Trl/E Inverness Cir
160,41.206627,-85.558290,N 350 W
160,41.182345,-85.467332,N 9 W/Cider Mill Rd
552,41.170974,-85.488256,Hurstland Ct
185,41.156015,-85.481500,E Market St
418,41.125870,-85.376460,S 600 E
216,41.242194,-85.440378,N Old 102/E South Center St/E Colony Ave
305,41.161490,-85.478320,Redbud Ct
216,41.161963,-85.462613,Old Trail Rd/N 150 E
160,41.135272,-85.381422,S Lone Pine Rd/E Lincolnway
160,41.093938,-85.627948,State Rd 5
160,41.265208,-85.535374,/W 700 N
526,41.154847,-85.488350,E Ellsworth St/S Main St/W Ellsworth St
160,41.240188,-85.429359,Basin St/Carlywood Dr/Carylwood Dr
160,41.202851,-85.491660,/State Rd 109
160,41.145364,-85.481468,S 50 E
160,41.125926,-85.481241,State Rd 9
216,41.166937,-85.472217,US Hwy 30
216,41.176398,-85.563344,US Hwy 30/Wilson Rd
216,41.087306,-85.627910,N State St/E Broad St/
499,41.155949,-85.488369,W Market St/E Market St/S Main St
160,41.005182,-85.367371,E 114 S
160,41.178686,-85.621838,W 100 N/E North St
160,41.005191,-85.386405,E 114 S
185,41.126535,-85.357158,US Hwy 30/S 700 E
216,41.207057,-85.491720,E 300 N/State Rd 109
185,41.154807,-85.494163,S Elm St/W Ellsworth St
276,41.236309,-85.330917,Thresher Run
160,41.233731,-85.595994,N 550 W/W 475 N
160,41.087331,-85.623920,E Broad St/N Jefferson St
160,41.222048,-85.318289,Carlin Ct
305,41.180382,-85.621937,E Hammontree St
246,41.224578,-85.318536,McCoy Dr/
160,41.092124,-85.622865,E Sunset Dr
418,41.181295,-85.626537,US Hwy 30/Depot St
160,41.158613,-85.495578,N Oak St/Legion Dr
160,41.177794,-85.520342,N 150 W
276,41.137514,-85.415106,S 400 E/Park 30 Dr
216,41.234931,-85.319195,Long St/N Line St
216,41.163840,-85.473125,River Run Ct
216,41.227251,-85.538917,W Bittersweet Trl/N 250 W
160,41.003923,-85.510549,State Rd 114
160,41.049228,-85.351648,Westfield Trl/E 800 S
276,41.148987,-85.483587,Indiana Ave
185,41.171354,-85.508164,Connexion Way
160,41.082796,-85.470127,/State Rd 9
185,41.171298,-85.510379,Connexion Way
160,41.242544,-85.367743,E McGuires Rd/Co Rd 650 E
276,41.152882,-85.491218,S Line St
445,41.141456,-85.434580,S 300 E/E Lincolnway
185,41.176955,-85.466167,E Greenbriar Dr
185,41.184165,-85.644572,N Binkley Rd
390,41.239101,-85.330098,Thresher Run/Wheatfield Ln
276,41.168018,-85.512713,Westchester Dr/Depoy Dr
216,41.164969,-85.466866,E Louise Dr
160,41.084126,-85.342878,Donatello Dr
160,41.153400,-85.495519,/S Oak St
160,41.264500,-85.491153,E Morsches Rd/State Rd 109
185,41.174103,-85.480255,N Ridge Apartments
362,41.088244,-85.629317,N Main St
160,41.049329,-85.355258,S 700 E/E 800 S
305,41.149909,-85.468483,Hanna St/E Hanna St/Camden Dr
160,41.089648,-85.626715,E 1st/N Maple St
362,41.088113,-85.629318,Pennsylvania Ave/N Main St
390,41.165643,-85.474458,Lakecrest Dr/E Columbia Pkwy
216,41.175917,-85.482761,Browning St/Cambridge Dr
160,41.236213,-85.462534,E 500 N/N 9 W
160,41.155128,-85.495549,S Oak St
185,41.247997,-85.336482,/US Hwy 33
216,41.262232,-85.385459,US Hwy 33/N 550 E
216,41.166620,-85.515616,Stoneridge Dr
160,41.096676,-85.558311,S 350 W/State Rd 205
362,41.239477,-85.330952,Wheatfield Ln
216,41.157147,-85.477101,E Van Buren St/Peabody Ave
160,41.149928,-85.474251,E Hanna St/Towerview Dr
216,41.157682,-85.499685,Bus 30 W/Legion Dr
160,41.095337,-85.627973,State Rd 5
305,41.238688,-85.326414,US Hwy 33
160,41.250653,-85.452884,Wilckens Rd/E Crampton Rd
160,41.262261,-85.491255,State Rd 109
185,41.152453,-85.488161,S Main St
160,41.089085,-85.635157,Reed St
246,41.165206,-85.494317,Weigand Dr/N Elm St
160,41.166987,-85.471801,US Hwy 30
160,41.258026,-85.433497,E 650 N/N 300 E
160,41.158559,-85.497614,Legion Dr
160,41.075671,-85.596968,/State Rd 14
160,41.212535,-85.462770,N 9 W
160,41.093361,-85.624352,Cherry Rd/E Carroll Rd
160,41.078766,-85.355586,E 600-S Rd/S 700 E
185,41.140112,-85.437663,E Business 30/One Reelcraft Center
216,41.234505,-85.319205,E Douglas St/N Line St/Douglas St
276,41.149941,-85.477426,S Golden St/E Hanna St
185,41.254664,-85.462835,/N 9 W
334,41.155411,-85.482578,S Madison St
216,41.172522,-85.483213,N 9 W/Heritage Place Blvd
305,41.159714,-85.494214,N Elm St/W Harrison St
160,41.085225,-85.625292,E Columbia St/S Calhoun St/Calhoun St
305,41.192561,-85.491729,W 200 N/N State Rte 109
968,41.167753,-85.485854,Walker Way/N Main St
160,41.265454,-85.537966,W 700 N/N 250 W
891,41.157028,-85.488392,W Van Buren St/E Van Buren St/S Main St/N Main St
305,41.084536,-85.627930,S State St/E Front St
160,41.147011,-85.464159,E 100 S
185,41.239834,-85.329073,US Hwy 33
160,41.086279,-85.625306,E Market St/Calhoun St
160,41.160303,-85.514052,James St/Bus 30 W
160,41.264905,-85.398720,E 700 N
185,41.110148,-85.534007,S 205 W
160,41.240497,-85.349592,N Blue Lake Rd/E 550 N
216,41.152670,-85.494148,Vine St/S Elm St
216,41.232545,-85.317434,Greenwood Dr/Windsor Dr
160,41.250119,-85.595518,N 550 W/W 600 N
276,41.235822,-85.322703,Barnhart Dr/N Main St
472,41.158113,-85.491322,N Line St/W Jackson St
246,41.163474,-85.466878,US Hwy 30
216,41.155972,-85.371290,E Cobblestone Cove/E Cobblestone Cv
710,41.157879,-85.472993,E Van Buren St/Park Terrace Blvd
710,41.158190,-85.473038,Park Terrace Blvd
160,41.089618,-85.623975,E 1st
160,41.115952,-85.471604,S 100-S Rd/S 100 E-57/State Rd 9
185,41.229542,-85.311924,Millstone Run/Mill St
160,41.223256,-85.332375,Indiana Dr/Johnson Rd
160,41.133107,-85.381333,S Lone Pine Rd
160,41.004547,-85.624417,State Rd 105
160,41.121931,-85.461917,S 150 E/E Keiser Rd
160,41.155893,-85.497248,W Market St
185,41.235584,-85.530003,W 500 N/N Etna Rd
185,41.230471,-85.368908,Edgewood Dr
185,41.161725,-85.460305,E Sparrow Cove
216,41.078311,-85.374821,E 600-S Rd/S 600 E
246,41.181217,-85.628530,US Hwy 30
160,41.080663,-85.625504,Smith St/S State St/W Smith St
160,41.009827,-85.335678,US Hwy 24/S 800 E Rd
185,41.264917,-85.403951,E 700 N
276,41.147782,-85.478514,S Douglas Ave/E Business 30
579,41.158759,-85.494208,Park St/Jolly St/N Elm St
216,41.174388,-85.478545,Raleigh Ct
160,41.141373,-85.428844,E Sherman St/E Early Ct
185,41.112977,-85.530449,S Wolf Rd/S 205 W
160,41.212797,-85.353238,Blue Lake Rd/State Rd 205
216,41.280844,-85.541046,N Arnold Rd/Buckles Rd
684,41.171434,-85.487294,Claiborne Dr
185,41.086256,-85.629307,W Market St/N Main St
216,41.177541,-85.577489,US Hwy 30/N 450 W
185,41.081272,-85.628770,Walnut St/S Water St
160,41.062545,-85.394093,S 500 E
334,41.131118,-85.395841,US Hwy 30/S 500 E
160,41.164355,-85.434673,Old Trail Rd/N 300 E
185,41.135333,-85.395940,S 500 E
160,41.165361,-85.536290,Bus 30 W
160,41.172679,-85.479888,Blue Bird Dr/Liberty Dr
185,41.118201,-85.337460,S 800 E
160,41.248284,-85.352175,N Blue Lake Rd/Co Rd 575 N
185,41.090977,-85.627919,N State St/
276,41.164618,-85.489258,Washburn Ave/Douglas St
216,41.132348,-85.414982,S 400 E
305,41.228564,-85.323584,W Whitley St/Western Ave
160,41.265072,-85.535958,/W 700 N
276,41.084123,-85.632186,W Mulberry St/S Fosler Ave
160,41.065351,-85.470386,State Rd 9
246,41.083104,-85.632918,Big Blue Ave
276,41.148110,-85.482436,Ohio St
334,41.164388,-85.489149,Douglas St
334,41.153950,-85.482484,/S Madison St
552,41.171141,-85.483490,Country Side Dr
362,41.088023,-85.629591,Pennsylvania Ave
658,41.165748,-85.478452,Jeffery Ct
246,41.185221,-85.499355,/W 150 N
334,41.158892,-85.507853,County Square Estates Mhp
185,41.141576,-85.452799,E Business 30
160,41.165761,-85.513854,Quail Run
246,41.175922,-85.483276,Carlyle St/Cambridge Dr
160,41.149662,-85.526432,W Whitley Rd
160,41.149110,-85.396398,S 500 E
160,41.181177,-85.469160,/N 9 W
185,41.235408,-85.576966,W 500 N/N 450 W
185,41.061162,-85.591226,/W 700 S
160,41.060799,-85.625213,W 700 S/State Rd 105
605,41.165599,-85.477220,S Shore Ct
160,41.079201,-85.413188,S 400 E
160,41.221622,-85.624745,W Lincolnway/State Rd 5
631,41.181273,-85.625465,US Hwy 30/State Rd 5/Center St
362,41.154892,-85.482579,E Ellsworth St/S Madison St
276,41.157233,-85.475559,/E Van Buren St
499,41.173234,-85.477713,River Bluff Dr
160,41.151166,-85.472396,Thornapple Ct
160,41.096510,-85.628001,State Rd 5
160,41.174066,-85.520407,W Lincolnway/N 150 W
246,41.149261,-85.487634,E Swihart St/S Main St
185,41.237908,-85.430552,N Lakewood Dr/E South Shore Dr
185,41.181389,-85.629987,US Hwy 30
276,41.131082,-85.394808,US Hwy 30
684,41.158110,-85.492738,N Walnut St/W Jackson St
160,41.212982,-85.495401,Calais Rue/Rue Dijon
762,41.166003,-85.486629,Diplomat Dr/N Main St
216,41.173789,-85.506150,Opportunity Dr
305,41.150860,-85.452817,US Hwy 30
185,41.179568,-85.471779,N 9 W/Wildwood Dr
579,41.229250,-85.318439,Mill St/S Main St
216,41.151198,-85.467415,Pebble Creek Run/Redstone Ct
499,41.159321,-85.478337,E Jefferson St/Deer Path
788,41.163685,-85.487038,N Washington St/E North St
160,41.265119,-85.535678,/W 700 N
160,41.077243,-85.567702,State Rd 14
160,41.235952,-85.320417,Jewel Ct
216,41.167511,-85.495698,N Oak St/Oak St
185,41.146105,-85.482877,S Ohio St
418,41.159267,-85.484084,E Jefferson St/N Wayne St
418,41.231666,-85.319240,N Line St/Charlotte Ave
276,41.151145,-85.468493,Camden Dr
246,41.150509,-85.456920,Blue Grass Dr/Meadow Dr
160,41.176646,-85.476605,N 9 W
390,41.087355,-85.629315,/W Broad St/N Main St
631,41.159649,-85.473975,Park Terrace Blvd
160,41.149875,-85.462696,Hanna St
185,41.277127,-85.536914,N Arnold Rd/N 250 W
246,41.164377,-85.479394,W Columbia Pkwy/Jeffery Dr/Jeffery Ct/S Columbia Pkwy
185,41.078354,-85.372873,/E 600-S Rd
216,41.177883,-85.622533,Main St
185,41.243377,-85.333330,/US Hwy 33
216,41.178058,-85.491544,/State Rd 109
160,41.149919,-85.471227,Kirkwood Ct/E Hanna St
160,41.161604,-85.673371,S 950 W/N 950 W-92/W Division Rd-92
246,41.200234,-85.491637,State Rd 109
276,41.149242,-85.492835,Catherine Ave/Walnut St
160,41.247124,-85.333487,E Old US Highway 33
246,41.170823,-85.479578,N Lake Ct/Country Side Dr
185,41.231509,-85.317208,E Whitley St/Windsor Dr
418,41.170235,-85.495273,Walton Dr/W Plaza Dr
305,41.157089,-85.484042,S Wayne St/E Van Buren St/N Wayne St
246,41.160076,-85.463461,US Hwy 30
160,41.048580,-85.509411,W 800 S/S Washington Rd
684,41.159327,-85.477132,Hawthorn Ln/E Jefferson St
160,41.200925,-85.377003,State Rd 205/Johnson Rd
185,41.133171,-85.395884,S 500 E/Park 30 Dr
276,41.232835,-85.316298,Greenwood Cir
390,41.140679,-85.431481,E Lincolnway/Mead Blvd
160,41.245737,-85.445365,Wilckens Rd/E Schram
390,41.241757,-85.443400,N Old 102/E Scott Rd
185,41.176536,-85.482003,Airport Rd
160,41.164732,-85.505828,Ryan Rd/N Lincolnway
216,41.218769,-85.315516,Hyndman Rd/US Hwy 33
276,41.236945,-85.322538,Clingerman Ave
334,41.181955,-85.625439,Depot St/State Rd 5
276,41.149976,-85.478534,S Douglas Ave/E Hanna St
185,41.080024,-85.624982,W Pine St/S State St
185,41.255466,-85.355882,US Hwy 33
334,41.158411,-85.470396,Towerview Dr
276,41.148017,-85.482468,E Swihart St/Ohio St
631,41.161262,-85.464409,Old Trail Rd/US Hwy 30/E Van Buren St
160,41.158735,-85.518468,Buddale Dr/Lawrence Dr
1252,41.169936,-85.486010,Frontage Rd/Hoosier Dr
658,41.155912,-85.491259,S Line St/W Market St
160,41.213422,-85.495425,Calais Rue
305,41.148076,-85.472947,Norris Ct
390,41.147072,-85.488690,Radio Rd
216,41.126079,-85.370139,US Hwy 30
216,41.174107,-85.481869,Airport Rd/W Berkshire Dr
185,41.264304,-85.327151,Noble-Whitley Co Line Rd
160,41.165733,-85.513853,Quail Run/Crooked Tree Dr
276,41.128952,-85.395075,Simonson St/E North St
160,41.251011,-85.454263,E Leo Smith Ln
305,41.084317,-85.336940,S 800 E
216,41.005182,-85.346470,US Hwy 24/E 114 S
305,41.174094,-85.482754,Browning St/W Berkshire Dr
362,41.221122,-85.316257,US Hwy 33/E South Carlin Ct
185,41.147106,-85.474272,E 100 S/Towerview Dr
390,41.160536,-85.484057,N Wayne St
1304,41.169923,-85.484895,Frontage Rd/N Main St
160,41.076637,-85.625535,Whispering Ln/S Willow Cove
216,41.005200,-85.346173,US Hwy 24
185,41.242375,-85.440061,N Old 102/E Colony Ave
216,41.180547,-85.620803,/US Hwy 30
160,41.172827,-85.432779,State Rd 205
305,41.229454,-85.323959,South St/W Washington St
216,41.170007,-85.534739,N Wolf Rd
185,41.237499,-85.323725,US Hwy 33/N Main St
526,41.154868,-85.485467,E Ellsworth St/S Whitley St
216,41.181595,-85.630000,US Hwy 30
160,41.199725,-85.462609,N 9 W/E 250 N
185,41.196739,-85.386722,E State Rte 205/E Collins St/N 550 E
246,41.242497,-85.556039,W Shoreline Dr/Hill Dr
246,41.149130,-85.493949,Catherine Ave/Elm St
334,41.226864,-85.317844,S Main St/Maple Ln
160,41.140062,-85.400370,E Lincolnway
185,41.250294,-85.358306,/Timber Ln
160,41.247879,-85.450969,Wilckens Rd/E Fox Dr
216,41.233281,-85.315388,Greenwood Cir/Greenwood Dr
185,41.079910,-85.624651,S State St
216,41.164941,-85.465790,E Louise Dr/Ann Marie Ln
185,41.226911,-85.326733,W Whitley St/Anderson
160,41.177679,-85.527942,W Wolf Rd/W Lincolnway
246,41.093221,-85.625474,E Carroll Rd/Calhoun St
334,41.167402,-85.512669,Westchester Dr
710,41.167990,-85.491499,N Line St
305,41.227158,-85.317914,Home Ave/S Main St
362,41.162818,-85.487044,Brownwood Ave/N Washington St
160,41.145492,-85.337882,Old Trail Rd/S 800 E
185,41.146985,-85.481490,S 50 E/Collins St
276,41.167062,-85.507551,N Lincolnway/Emancipation Ct
185,41.091402,-85.627922,N State St/E 3rd St
185,41.088051,-85.635313,W Lewis St/Reed St
160,41.235725,-85.515560,N 125 W/W 500 N
216,41.127035,-85.395892,S Simonson St/E Duffin St/S 500 E
362,41.147073,-85.488308,Radio Rd/S Main St/S 9 W
305,41.171779,-85.476286,Summit Dr
185,41.155880,-85.495555,W Market St/S Oak St
160,41.077362,-85.643966,State Rd 14
499,41.154384,-85.485456,S Whitley St
276,41.167247,-85.507719,N Lincolnway/W Park St
160,41.179133,-85.495287,N Center Ct
216,41.150706,-85.489804,S Chauncy St
160,41.185245,-85.496474,W 150 N
246,41.265560,-85.499192,W 700 N
334,41.159423,-85.482627,N Madison St/Hilltop Dr
390,41.161913,-85.485560,N Whitley St/Collinwood Ave
185,41.229620,-85.315480,Mill St/East St
334,41.165872,-85.494328,N Elm St
305,41.157005,-85.492726,W Van Buren St/N Walnut St/S Walnut St
185,41.166402,-85.449093,/N Indian Hills Dr
334,41.162353,-85.455255,N Firestone Ct
160,41.078953,-85.626836,W Buckeye St/Buckeye
185,41.148733,-85.457166,Medallion Blvd W/Valley View Dr/Medallion Blvd E
445,41.140908,-85.434812,US Hwy 30/E Business 30
160,41.083653,-85.342819,Fibia Pl-92/Donatello Dr/Donatello Dr-92
362,41.158194,-85.479379,E Jackson St
472,41.158149,-85.486965,E Jackson St/N Washington St
276,41.083151,-85.629277,W Wayne St/S Main St
334,41.157073,-85.485500,N Whitley St/E Van Buren St/S Whitley St
160,41.239307,-85.349110,South Dr/West Dr
160,41.265039,-85.422413,E 700 N
216,41.177436,-85.625895,W Elm St
305,41.180380,-85.622214,McLallen St/E Hammontree St
185,41.248091,-85.336438,E Old US Highway 33
160,41.080513,-85.336875,S 800 E/E Via del Sogno-92
216,41.147543,-85.477394,S Golden St/E Business 30
334,41.169220,-85.534722,US Hwy 30/N Wolf Rd
246,41.255939,-85.358897,US Hwy 33
160,41.235357,-85.365019,E Harrold Rd
1097,41.167836,-85.485816,S/l Dr/N Main St
160,41.250566,-85.491726,State Rd 109/E 600 N/W 600 N
390,41.185312,-85.644576,US Hwy 30/N Binkley Rd
305,41.165611,-85.482707,Eagle Ct
276,41.085205,-85.627927,N State St/W Columbia St/E Columbia St/S State St
185,41.185286,-85.491525,State Rd 109/W 150 N
160,41.178285,-85.634377,State Rd 5/W Old Trail Rd
160,41.028311,-85.336003,S 800 E Rd
552,41.165089,-85.491442,Weigand Dr/N Line St
216,41.143343,-85.448701,E Cardinal Dr/S Williams Dr
160,41.241438,-85.441172,E South Ave
160,41.084586,-85.626550,S Maple St/E Front St
605,41.167419,-85.484388,Walker Way
362,41.146622,-85.488245,S 9 W
160,41.234384,-85.323311,N Mulberry St/E Golf St
185,41.235857,-85.319173,N 900 E/N Line St
185,41.246485,-85.435845,/E Muncie Ave
160,41.252248,-85.404615,E 600 N/N 450 E
160,41.241520,-85.573322,W Camp Whitley Rd
334,41.159205,-85.491320,N Line St/W Jefferson St
216,41.178186,-85.622174,McLallen St
185,41.168060,-85.479038,N Shore Ct/N Columbia Pkwy
160,41.180210,-85.627673,Perrin St
185,41.082701,-85.627435,S State St
160,41.075113,-85.621370,State Rd 5/W State Rte 14
246,41.229365,-85.321960,W Whitley St/Eagle Dr
160,41.151238,-85.491197,S Line St/Simonson St
185,41.170636,-85.544133,US Hwy 30
160,41.163491,-85.404158,/Old Trail Rd
185,41.128638,-85.393805,E North St/S Freemont St
160,41.241106,-85.557842,N Oak Dr/W Shoreline Dr
472,41.170525,-85.491532,N Line St
160,41.243088,-85.359752,N 700 E
216,41.160286,-85.482647,Hilltop Dr
499,41.160205,-85.473461,Park Terrace Blvd
418,41.169522,-85.500800,US Hwy 30
160,41.265059,-85.536187,/W 700 N
472,41.173599,-85.478342,River Bluff Dr
418,41.159254,-85.485530,N Whitley St/E Jefferson St
185,41.005200,-85.378593,E 114 S
246,41.150616,-85.474256,Short St/Towerview Dr
499,41.158906,-85.473050,Park Terrace Blvd
552,41.159129,-85.492744,N Walnut St/Hildebrand Ave
305,41.164428,-85.475806,Shoreland Ct/E Columbia Pkwy/S Columbia Pkwy
185,41.257670,-85.474707,E Gatesworth Dr
246,41.242543,-85.555808,W Shoreline Dr/Hill Dr
160,41.070491,-85.336710,800 E/Harrison Fields Blvd
788,41.158594,-85.492739,N Walnut St/Jolly St
185,41.250979,-85.441899,Kohne Ave/E Stalf Rd/Stalf Rd
185,41.161598,-85.499154,W Park St/W Park Dr
185,41.250633,-85.614715,N 650 W/W 600 N
185,41.238372,-85.332217,Turtle Run/Carolyn Ct
160,41.145814,-85.482881,S Ohio St
160,41.078303,-85.625767,Hibbard St
305,41.228168,-85.319385,S Mulberry St/W Pleasant St
160,41.207402,-85.443641,E 300 N/N 250 E
160,41.148717,-85.455860,Blue Grass Dr/Medallion Blvd E
160,41.182005,-85.414519,E Cider Mill Rd/State Rd 205
160,41.258022,-85.372110,US Hwy 33
185,41.085194,-85.631623,W Columbia St
160,41.169812,-85.474892,Steve Ct/Denzil Dr
185,41.168125,-85.488571,S/l Dr
185,41.153710,-85.494145,Spencer St/S Elm St
334,41.158195,-85.480247,Marshall Ave/E Jackson St
276,41.153732,-85.456386,US Hwy 30
160,41.164877,-85.462701,E Louise Dr/N 150 E
160,41.264197,-85.313506,Noble-Whitley Co Line Rd
216,41.161543,-85.473532,Deer Path/Brennan St
160,41.252621,-85.347290,US Hwy 33/N 750 E
160,41.196519,-85.386839,E State Rte 205/State Rd 205
160,41.122684,-85.460170,Indian Run/E Keiser Rd
160,41.273391,-85.623037,W 750 N
160,41.165249,-85.495699,Weigand Dr/N Oak St
185,41.231084,-85.310433,Harvest Ct
334,41.169563,-85.510440,US Hwy 30
185,41.172566,-85.476029,Blue Bird Dr
185,41.149687,-85.484849,Coesse St/E Chicago St
160,41.244900,-85.404873,N 450 E
334,41.154856,-85.486913,E Ellsworth St/S Washington St
362,41.175926,-85.484036,Cambridge Dr
445,41.163658,-85.485553,N Whitley St/E North St
305,41.192760,-85.491535,N State Rte 109/State Rd 109/N Etna Rd
160,41.140070,-85.405485,E Lincolnway
246,41.077593,-85.470148,E 600-S Rd/State Rd 9
185,41.147985,-85.487095,S Whitley St/Collins St
160,41.232277,-85.577075,W 475 N/N 450 W
160,41.207108,-85.615617,N 650 W/W 300 N
160,41.046182,-85.625028,State Rd 105/W 800 S
390,41.158193,-85.479103,E Jackson St
334,41.180773,-85.624363,Thompson St
160,41.167151,-85.462673,N 150 E
160,41.005200,-85.378769,E 114 S
216,41.150500,-85.527005,Old Trail Rd
390,41.171157,-85.478637,Plantation Dr/Summit Dr/Country Side Dr
216,41.178005,-85.468023,E Greenbriar Dr
216,41.180732,-85.620702,US Hwy 30
579,41.170141,-85.491527,Frontage Rd/N Line St/W Plaza Dr
185,41.254984,-85.353991,US Hwy 33
160,41.146996,-85.482868,Ohio St/Collins St/S Ohio St
160,41.095198,-85.627970,Williams Way/State Rd 5
658,41.166722,-85.486309,Earl Ave/N Main St
185,41.163022,-85.508775,Ryan Rd
334,41.153735,-85.491236,Spencer St/S Line St
216,41.078250,-85.625900,Hibbard St
160,41.080704,-85.637900,/Whitko Dr
185,41.090066,-85.625392,1st St/Calhoun St
246,41.242304,-85.441784,E South Center St/E Short St
160,41.146824,-85.449797,E 100 S/S Williams Dr
160,41.090982,-85.624236,E 2nd St
160,41.198621,-85.501214,N 50 W/N Etna Rd
1071,41.164304,-85.487387,Mulberry St/N Main St
362,41.165130,-85.492875,Weigand Dr/N Walnut St
160,41.145934,-85.477006,E Swihart St/S Raber Rd
305,41.162653,-85.500998,W Gates Rd/W Park St
216,41.179004,-85.615877,N 650 W/US Hwy 30
246,41.237870,-85.538670,Etna Rd/N 250 W
185,41.273588,-85.574184,/W 750 N
305,41.172347,-85.485062,Isherwood Dr
305,41.161437,-85.477615,Deer Path
160,41.249710,-85.337989,E Old US Highway 33
216,41.246220,-85.441547,Beech Ave
276,41.163741,-85.498270,W Gates Rd/W North St/Forest Pkwy
160,41.265289,-85.471056,/E 700 N
216,41.140069,-85.396088,/S 500 E
185,41.226353,-85.328011,Anderson
160,41.014758,-85.335812,Manitou Trl/S 800 E Rd
160,41.188252,-85.405540,N 450 E
160,41.162556,-85.459997,Old Trail Rd/S Eagle Glen Trl
276,41.169511,-85.520484,US Hwy 30
246,41.163929,-85.496608,W North St
305,41.164849,-85.484556,Jeffery Dr/Blue River Dr
160,41.248728,-85.337648,/US Hwy 33
216,41.176798,-85.568182,US Hwy 30/N 400 W
160,41.104200,-85.630035,State Rd 5/W 400 S
276,41.129090,-85.395786,S 500 E/E North St
362,41.130864,-85.394830,US Hwy 30
160,41.225299,-85.639166,W Lincolnway/Elder Rd
246,41.186537,-85.405503,N 450 E/State Rd 205
160,41.095059,-85.627966,State Rd 5
362,41.169563,-85.510511,W Lincolnway/US Hwy 30
160,41.214135,-85.520336,N 150 W
185,41.178050,-85.601754,US Hwy 30
216,41.148685,-85.464940,S Archer Ct
216,41.178224,-85.455459,E Widman Rd/Widman Rd
185,41.148008,-85.456641,E Willie Ct
185,41.128929,-85.393407,E North St
160,41.130791,-85.489943,S Mosher Rd
160,41.212297,-85.491790,State Rd 109/Rue Dijon
216,41.234541,-85.322789,Jones St/E Golf St
246,41.165409,-85.511445,Lexington Dr/Westchester Dr
185,41.127746,-85.504031,S 205 W
185,41.167168,-85.472195,US Hwy 30
185,41.128519,-85.397786,/E McJunkin St
185,41.163923,-85.494296,N Elm St/W North St
160,41.075400,-85.621175,State Rd 14/W State Rte 14
185,41.159979,-85.454432,S Eagle Glen Trl/S Hancock Farm Rd
216,41.229433,-85.317217,Mill St
160,41.138879,-85.481455,S 50 E/State Rd 9/S 9 W
305,41.169596,-85.542291,Bus 30/Bus 30 W
160,41.249877,-85.538327,W 600 N/N 250 W
160,41.148356,-85.483878,Indiana Ave/E Swihart St
216,41.149913,-85.469709,Graber Ct/E Hanna St
216,41.090356,-85.625410,N Calhoun St/Calhoun St/E 2nd St
160,41.172310,-85.491554,State Rd 109/Barbara Dr
185,41.096749,-85.542217,State Rd 205/S 275 W
160,41.130976,-85.443749,S Kyler Rd/Mowrey Rd
160,41.148694,-85.485263,Coesse St/E Swihart St
362,41.171412,-85.491543,Claiborne Dr/State Rd 109/N Line St
276,41.169699,-85.476993,Denzil Dr
390,41.159687,-85.474731,Rolling Hills Ave
418,41.173699,-85.478760,River Bluff Dr/Liberty Dr
334,41.131347,-85.395861,US Hwy 30/S 500 E
276,41.175076,-85.475815,Raleigh Ct
305,41.140158,-85.432711,United States Highway 30 Business Rte
160,41.191292,-85.489781,N Etna Rd
160,41.129081,-85.414883,S 400 E/Mowrey Rd
185,41.152040,-85.396498,Little Turtle/S 500 E
216,41.152507,-85.454649,/US Hwy 30
246,41.171274,-85.506259,Connexion Way/Opportunity Dr
216,41.242454,-85.362261,E McGuires Rd
185,41.082126,-85.630993,S Line St/W Poplar St
276,41.167617,-85.494381,N Elm St
246,41.238550,-85.331957,Carolyn Ct
185,41.156327,-85.457752,S Cross Creek Way
305,41.165617,-85.473380,Lakecrest Dr/River Run Ct
160,41.089595,-85.631073,N Line St/W 500 S
552,41.159202,-85.492745,N Walnut St/W Jefferson St
216,41.236442,-85.315882,Conway
334,41.223939,-85.317098,US Hwy 33
216,41.005195,-85.346941,E 114 S
160,41.186440,-85.353919,E 150 N/N Johnson Rd
334,41.160889,-85.488469,Maple St/N Main St
472,41.141109,-85.434727,E Business 30/US Hwy 30/E Lincolnway
160,41.161714,-85.498975,W Park Dr/Hill Dr
246,41.180826,-85.621118,US Hwy 30
472,41.159952,-85.500359,W Squawbuck Rd
216,41.092321,-85.627931,N State St
185,41.079658,-85.624590,S State St
216,41.083113,-85.632177,W Wayne St/S Fosler Ave
216,41.177341,-85.577491,US Hwy 30/N 450 W
160,41.092330,-85.622481,N Hillcrest Dr/E Sunset Dr
185,41.181197,-85.405401,E Cider Mill Rd/N 450 E
246,41.111262,-85.534071,/W 350 S
160,41.150001,-85.463080,S Sommerset Trl
160,41.175243,-85.478923,/N 9 W
185,41.133499,-85.496314,/S 205 W
305,41.228624,-85.323443,W Whitley St
216,41.113445,-85.337387,S 800 E
334,41.159243,-85.486977,N Washington St/E Jefferson St
160,41.235519,-85.557829,N 350 W/W 500 N
160,41.103700,-85.471456,S 100-S Rd/E 400 S
160,41.213641,-85.576590,W Lincolnway/N 450 W/W 350 N
499,41.169320,-85.501134,Armstrong Dr/US Hwy 30
305,41.169300,-85.520490,US Hwy 30
160,41.087374,-85.635141,W Buffalo St
1278,41.168861,-85.491519,N Line St
185,41.171328,-85.509409,Connexion Way
216,41.128394,-85.481277,/State Rd 9
334,41.166539,-85.493343,Denihan Plaza Apartments/Redick Ave
160,41.183960,-85.644574,N Binkley Rd
362,41.166548,-85.493624,Denihan Plaza Apartments/Redick Ave
185,41.235445,-85.322540,Jones St/N Main St
216,41.164070,-85.465787,Bridget Ln/Ann Marie Ln
362,41.164111,-85.485554,N Whitley St/Holden Rd/Jeffery Dr
305,41.166569,-85.494340,N Elm St/Redick Ave
445,41.158705,-85.470285,E Van Buren St
160,41.266155,-85.529357,W 700 N/N 200 W
160,41.147003,-85.463128,E 100 S/S Sommerset Trl
246,41.174864,-85.552337,US Hwy 30
185,41.090756,-85.626631,N Maple St/
276,41.165748,-85.481471,W Columbia Pkwy
305,41.168019,-85.512639,Depoy Dr
246,41.180697,-85.627662,Perrin St
185,41.088094,-85.635148,W Lewis St
160,41.080515,-85.624571,Smith St
246,41.250936,-85.482222,N Airport Rd/E 600 N
160,41.174404,-85.478784,Raleigh Ct/Liberty Dr
160,41.195775,-85.462709,N 9 W
276,41.160627,-85.479935,Grove Park Dr
160,41.165894,-85.495710,N Oak St
276,41.228157,-85.323392,Coal St
160,41.206511,-85.539210,N 250 W
526,41.173076,-85.478350,River Bluff Dr
160,41.244474,-85.474815,Ashford Dr
185,41.081149,-85.629212,Walnut St/W Walnut St/S Main St
185,41.173688,-85.549294,N 300 W/US Hwy 30
216,41.084118,-85.632785,/W Mulberry St
185,41.179301,-85.493581,N Circle Ct
445,41.077556,-85.627109,/Washington Ct
216,41.239455,-85.469349,E Kennys Ct N
246,41.167680,-85.510310,Emancipation Ct
160,41.190647,-85.488388,Arthur Dr/N Etna Rd
160,41.177847,-85.601614,US Hwy 30
276,41.148320,-85.493562,Weston Dr
246,41.151516,-85.478047,Arrowhead Ct
185,41.089848,-85.627893,N State St
216,41.092927,-85.627937,N State St/State Rd 5/E Carroll Rd
362,41.154323,-85.486910,S Washington St
605,41.167173,-85.486116,N Park Dr/N Main St
216,41.150472,-85.457614,Valley View Dr/Meadow Dr
160,41.250336,-85.452928,E Leo Smith Ln/Wilckens Rd
276,41.178815,-85.625534,Center St
499,41.230431,-85.322059,W Washington St/Eagle Dr
160,41.062968,-85.470422,E 700 S/State Rd 9
185,41.242137,-85.439880,E Colony Ave
216,41.162095,-85.456697,E Inverness Cir/Pinehurst Ct
445,41.158711,-85.477119,Peabody Ave
390,41.165865,-85.492892,N Walnut St
246,41.149355,-85.487589,S Main St/S 9 W
160,41.033755,-85.470642,E 900 S/State Rd 9
160,41.127456,-85.393487,E McJunkin St
305,41.170071,-85.542717,Bus 30/US Hwy 30
185,41.175042,-85.552222,US Hwy 30
185,41.153690,-85.495525,Spencer St/S Oak St
160,41.181788,-85.462767,Co Rd 150 E/Cider Mill Rd
788,41.224945,-85.317370,/S Main St
216,41.131959,-85.414971,S 400 E
390,41.126117,-85.337598,US Hwy 30/S 800 E
185,41.149446,-85.491174,Catherine Ave/S Line St
362,41.174096,-85.483656,W Berkshire Dr/Burke St
160,41.075188,-85.621431,/State Rd 5
216,41.086407,-85.629307,W Market St/N Main St
390,41.159282,-85.482623,E Jefferson St/N Madison St
185,41.246406,-85.436108,/E Muncie Ave
160,41.139798,-85.452767,E Paige Rd
276,41.159706,-85.509890,Bus 30 W/W Dogwood Dr
185,41.090747,-85.627914,/N State St
305,41.151760,-85.453821,US Hwy 30
445,41.161927,-85.488442,Collinwood Ave/N Main St
216,41.148223,-85.488102,S Main St/Collins St
185,41.133071,-85.395882,Park 30 Dr/S 500 E
160,41.198856,-85.491620,State Rd 109
185,41.178495,-85.654014,N 850 W-92/E 400 S
160,41.083143,-85.628124,S Water St/W Wayne St/S State St
160,41.078053,-85.460779,E 600-S Rd/S 150 E
185,41.180432,-85.627664,W Hammontree St/Perrin St
160,41.246333,-85.351255,N Blue Lake Rd
246,41.149907,-85.467398,Hanna St/Redstone Ct
605,41.166930,-85.474592,N Columbia Pkwy/E Columbia Pkwy/Shorewood Ct
160,41.256798,-85.364445,US Hwy 33
160,41.159885,-85.496186,/W Park St
185,41.090524,-85.627908,N State St/E 2nd St
185,41.082619,-85.627327,S State St
390,41.150840,-85.469601,Graber Ct
160,41.079225,-85.624394,State Rd 5
390,41.181254,-85.624429,US Hwy 30
160,41.199949,-85.474089,/E 250 N
185,41.161545,-85.495628,N Oak St/W Park Dr
185,41.173927,-85.549298,N 300 W/US Hwy 30
216,41.113246,-85.337385,S 800 E
160,41.177213,-85.624640,700 W/E Elm Ave
305,41.158162,-85.485523,N Whitley St/E Jackson St
160,41.214390,-85.462779,/N 9 W
305,41.163827,-85.497540,W North St/Hill Dr
160,41.127643,-85.394172,E McJunkin St/S Freemont St
246,41.084133,-85.631029,S Line St/W Mulberry St
418,41.140648,-85.431358,S Meade Blvd/E Lincolnway
160,41.086227,-85.432798,S Raber Rd
185,41.083959,-85.621280,S East St/E Mulberry St
334,41.238618,-85.326250,US Hwy 33/John Krieger Dr
185,41.249318,-85.338654,US Hwy 33/E 600 N
216,41.231682,-85.318695,Orchard Ln/Washington St
276,41.153698,-85.483967,S Wayne St
185,41.160916,-85.518321,Bus 30 W/Lawrence Dr
185,41.133439,-85.496328,Washington Rd/S 205 W
362,41.159305,-85.479910,E Jefferson St/Grove Park Dr
160,41.077862,-85.628919,Buckeye
160,41.250581,-85.443119,N Old 102/N Center St/Stalf Rd
160,41.171507,-85.501141,Armstrong Dr/Columbia City Retirement Community
390,41.155075,-85.484011,S Wayne St
216,41.246536,-85.435732,/E Muncie Ave
160,41.223338,-85.317499,N Circle Dr/S Circle Dr/Circle Dr
185,41.243708,-85.439853,N Willow Ave/N Old 102
276,41.234879,-85.315299,Staunton Ave
185,41.227071,-85.316612,S Washington St/Maple Ln
390,41.154822,-85.492705,S Walnut St/W Ellsworth St
160,41.009989,-85.335682,US Hwy 24/S 800 E Rd
160,41.178051,-85.613700,W 100 N
334,41.229269,-85.322151,W Whitley St/Short St
390,41.077593,-85.626621,Washington Ct
216,41.152657,-85.490492,Vine St/Alley
160,41.150736,-85.484398,Coesse St/E Hanna St
631,41.180918,-85.625474,Thompson St/Center St
246,41.167078,-85.483655,Blue River Dr
160,41.139986,-85.567976,W 150 S
185,41.095490,-85.490580,Meridian Rd
216,41.169438,-85.533672,US Hwy 30
216,41.178851,-85.491528,/State Rd 109
216,41.177313,-85.625520,E Elm Ave/S Center St/W Elm St
185,41.061142,-85.592456,/W 700 S
160,41.178489,-85.468026,/N Greenbriar Dr
246,41.002993,-85.573858,1200 N/State Rd 5
160,41.222569,-85.353082,Blue Lake Rd/Anderson Rd
362,41.232531,-85.322274,N Mulberry St/Liberty St
160,41.070362,-85.336708,800 E/Harrison Fields Blvd
334,41.160707,-85.485667,N Whitley St
185,41.171788,-85.479511,N Lake Ct
526,41.157016,-85.491275,W Van Buren St/S Line St/N Line St
160,41.231215,-85.317830,Washington St/E Whitley St
216,41.148964,-85.482093,E Chicago St/E Business 30/Ohio St
160,41.259662,-85.366151,Blue Ridge Eastates II/Co Rd 650 E
216,41.228759,-85.315735,Gateway Ave/E Pleasant St
216,41.152646,-85.491215,Vine St/S Line St
216,41.254273,-85.351975,Blue Lake Rd/US Hwy 33
185,41.162009,-85.459817,S Eagle Glen Trl
160,41.174985,-85.479352,N 9 W/Liberty Dr
185,41.149368,-85.485049,Coesse St
334,41.155975,-85.485493,E Market St/S Whitley St
185,41.233200,-85.318316,Brooks St
185,41.226278,-85.327520,W Whitley St/Pleasant St/W Pleasant St
185,41.251478,-85.456600,E Poplar Rd
160,41.231057,-85.326710,Rapp Dr/Fry Ln
276,41.161257,-85.478040,Redbud Ct/Deer Path
160,41.045823,-85.451957,Taylor St/S 200-E Rd-92
276,41.229797,-85.324253,South St/Charlotte Ave
216,41.079865,-85.336871,S 800 E
216,41.005190,-85.346496,E 114 S
276,41.158161,-85.472006,E Van Buren St
160,41.161490,-85.503623,N Lincolnway
185,41.178275,-85.468041,E Greenbriar Dr/N Greenbriar Dr/E Ridgewood Dr
185,41.149925,-85.472946,Norris Ct/E Hanna St
762,41.231248,-85.322652,W Tulley St/Eagle Dr
160,41.087359,-85.633708,W Buffalo St/Short St
185,41.161835,-85.459753,E Sparrow Cove/S Eagle Glen Trl
185,41.089593,-85.627892,E 1st/N State St/W 500 S
185,41.158030,-85.496165,Vanorsdoll St/McDonald Ave
160,41.160134,-85.452916,S 200 E
390,41.160818,-85.473540,Hawthorn Ln/Brennan St
246,41.140080,-85.424784,N 350 E/E Lincolnway
276,41.177524,-85.485720,Tidewater Trl/Newport Run
160,41.245945,-85.446239,/Wilckens Rd
445,41.181094,-85.626544,US Hwy 30/Depot St
160,41.237200,-85.471518,E Wrights Way
160,41.009684,-85.342276,Glacier Creek Dr/S Vinewood Rd W-92
1020,41.167565,-85.485002,Garland Ave/Walker Way
160,41.259810,-85.363270,Blue Ridge Eastates II
305,41.181957,-85.625674,Depot St
305,41.170141,-85.542221,US Hwy 30/Bus 30 W
185,41.202928,-85.596615,N 550 W/W 275 N
160,41.088476,-85.627896,N State St
216,41.132955,-85.402269,US Hwy 30
216,41.127267,-85.395794,S 500 E
305,41.150527,-85.452816,US Hwy 30
305,41.153942,-85.483988,S Wayne St
276,41.220087,-85.315919,US Hwy 33/E Orchard Ln
334,41.126317,-85.337599,S 800 E
160,41.167244,-85.478272,N Shore Ct
276,41.230901,-85.321041,N Mulberry St/W Washington St
362,41.165875,-85.491454,N Line St
305,41.178261,-85.625545,E Main St/S Center St/W Main St/Center St
216,41.187355,-85.652528,US Hwy 30
160,41.149865,-85.464957,Hanna St/Cottonwood Ct
499,41.228350,-85.318203,E Pleasant St/S Main St/W Pleasant St
216,41.147165,-85.475630,E Business 30
160,41.207881,-85.309774,E 300 N
276,41.086677,-85.633776,Short St/W Park St
160,41.153270,-85.489772,S Chauncy St
305,41.164649,-85.489958,Washburn Ave/N Chauncey St
160,41.256485,-85.362398,US Hwy 33/Raspberry Ln
185,41.242148,-85.439032,Hatchery Rd/E Colony Ave
390,41.078015,-85.626997,Hibbard St
216,41.133143,-85.396965,Park 30 Dr
418,41.140118,-85.431670,US Hwy 30
445,41.165687,-85.491453,Diplomat Dr/N Line St
160,41.141670,-85.453197,E Business 30/Governors Dr
160,41.166082,-85.517053,Stoneridge Dr/W Glenview Ct/Crooked Tree Dr
160,41.080244,-85.341715,Via del Sogno
160,41.161582,-85.496928,W Park Dr/Shinnemann Dr
160,41.206652,-85.557700,W Lincolnway
160,41.125865,-85.395591,Smith St/S 500 E
276,41.192463,-85.491535,N State Rte 109/State Rd 109/N Etna Rd
160,41.173168,-85.487302,Robin Way/Linda Ln
160,41.152928,-85.388188,/Little Turtle
305,41.164532,-85.477479,S Shore Ct/S Columbia Pkwy
160,41.132181,-85.497048,/S 205 W
185,41.088277,-85.627899,N State St/Pennsylvania Ave
160,41.281944,-85.541344,/Buckles Rd
390,41.140419,-85.435120,E Business 30/United States Highway 30 Business Rte
185,41.157239,-85.498173,W Van Buren St/Bus 30 W
185,41.240309,-85.330161,US Hwy 33
160,41.159202,-85.453669,/S Eagle Glen Trl
160,41.158608,-85.496175,/McDonald Ave/Legion Dr
246,41.265504,-85.491048,W 700 N/State Rd 109
160,41.114555,-85.586444,S Whitley Rd
160,41.224578,-85.318825,/Holiday Park
216,41.090761,-85.625435,Calhoun St
472,41.126487,-85.376473,US Hwy 30/S 600 E
216,41.174328,-85.480441,N 9 W
185,41.189254,-85.484327,N Irene Dr/N Etna Rd
216,41.177382,-85.475381,N 9 W
216,41.241408,-85.441816,E South Ave/E Short St/South Ave
160,41.238196,-85.353845,Rapp's Camp Ground
185,41.149905,-85.466084,Hanna St/Valley River Dr
185,41.084788,-85.621250,S East St/E Front St
160,41.012348,-85.335758,Glacier Creek Dr/S 800 E Rd
605,41.181072,-85.625470,US Hwy 30/Center St
276,41.229617,-85.315857,Gateway Ave/Mill St
276,41.162402,-85.500618,W Park St
216,41.128106,-85.396035,S 500 E/E McJunkin St
334,41.229139,-85.320235,Coal St
216,41.230528,-85.316538,Depot St/Railroad St
552,41.161399,-85.464105,Old Trail Rd
185,41.236474,-85.363136,Harold Pl
185,41.139189,-85.396065,E Lincolnway/S 500 E
185,41.150904,-85.476831,Short St
185,41.252951,-85.362702,Raspberry Ln
216,41.233116,-85.316213,Staunton Ave/Greenwood Dr
305,41.167475,-85.472910,US Hwy 30
472,41.162831,-85.488047,Brownwood Ave/N Main St
362,41.166521,-85.473267,Shorewood Ct
160,41.192474,-85.503907,W 200 N
472,41.166588,-85.512627,Stoneridge Dr/Westchester Dr
160,41.200635,-85.377140,E Johnson Rd/Johnson Rd
160,41.075358,-85.621569,State Rd 5/State Rd 14/W River Rd
276,41.164902,-85.406421,Old Trail Rd/N 450 E
160,41.088189,-85.625343,Calhoun St
160,41.221919,-85.443625,E 400 N/N 250 E
160,41.182519,-85.467058,N 9 W
216,41.246017,-85.442125,E Beech Ave/Beech Ave
160,41.122744,-85.376389,S 600 E
185,41.147034,-85.489676,Radio Rd
160,41.078458,-85.401693,E 600-S Rd
276,41.228871,-85.321854,Short St/Coal St
160,41.084812,-85.620583,W Pook Rd/E Front St
160,41.236214,-85.472368,E 500 N/
185,41.168015,-85.513075,/Depoy Dr
160,41.242786,-85.438848,Hatchery Rd/Maple Ave
762,41.162825,-85.485559,N Whitley St/Brownwood Ave
276,41.087321,-85.625320,E Broad St/Calhoun St
276,41.083031,-85.338717,Fibia Pl-92/D Andre Dr-92
305,41.169430,-85.534727,US Hwy 30/N Wolf Rd
160,41.078401,-85.417214,E 600-S Rd/S Appaloosa Dr
160,41.264209,-85.314037,Noble-Whitley Co Line Rd
160,41.182595,-85.625427,/State Rd 5
160,41.157725,-85.477108,Peabody Ave
185,41.175894,-85.481991,Airport Rd/Cambridge Dr
160,41.048001,-85.489870,W 800 S/Meridian Rd/E 800 S
185,41.165280,-85.496412,Pine Crest Apartments
160,41.222938,-85.333032,State Rd 205/Johnson Rd
185,41.164550,-85.448921,Old Trail Rd
185,41.249809,-85.338212,E 600 N/E Old US Highway 33
185,41.190181,-85.484373,N Irene Dr
160,41.079927,-85.341736,Via del Sogno
305,41.178383,-85.623503,King St
216,41.163907,-85.506951,Ryan Rd/N Andrew Ave
185,41.225742,-85.374530,Crescent Ct
305,41.161959,-85.455701,E Inverness Cir/N Firestone Ct
839,41.158030,-85.494190,Vanorsdoll St/N Elm St
334,41.176216,-85.485762,Newport Run
185,41.167154,-85.488846,N Park Dr
276,41.156987,-85.496199,W Van Buren St/Old Trail Rd/McDonald Ave
276,41.082142,-85.629249,W Poplar St/S Main St
276,41.151496,-85.487768,S Main St/E Hanna St
185,41.230552,-85.315419,Depot St/East St
185,41.126813,-85.357163,S 700 E/Yellow River Rd
185,41.086256,-85.627920,N State St/W Market St/E Market St
216,41.084153,-85.629315,W Mulberry St/S Main St/Mulberry St
185,41.165277,-85.496976,Pine Crest Apartments/Pinecrest Dr
160,41.070491,-85.336779,Harrison Fields Blvd/W County Line Rd S
160,41.229221,-85.325436,West St/Charlotte Ave
160,41.127969,-85.395497,E Mojunkin St/S 500 E/E McJunkin St
334,41.157131,-85.478998,E Van Buren St
160,41.281702,-85.541275,Buckles Rd
472,41.165849,-85.479699,Azuba Ct
160,41.009139,-85.343091,Glacier Creek Dr
445,41.158107,-85.489839,N Chauncey St/W Jackson St
499,41.173252,-85.478350,River Bluff Dr
185,41.223065,-85.405844,N 450 E/Co Rd 400 N
216,41.093047,-85.626987,E Carroll Rd
334,41.232680,-85.320914,E Tulley St/N Main St
185,41.228183,-85.538898,W 450 N/N 250 W
160,41.004424,-85.475774,E 114 S
216,41.151216,-85.490454,Simonson St/Alley
246,41.165717,-85.514885,Wildthorne Ct/Crooked Tree Dr
185,41.178748,-85.493588,W Center Dr/N Circle Ct
160,41.122818,-85.481107,S 50 E/State Rd 9
216,41.173608,-85.481633,N 9 W/Airport Rd/N Ridge Apartments
305,41.160805,-85.485991,Maple St
216,41.151787,-85.466112,Valley River Dr
160,41.063705,-85.451818,S 200-E Rd-92/S 200 E/E 700 S
216,41.179063,-85.491525,State Rd 109/W Center Dr
813,41.170937,-85.486028,Hoosier Dr
362,41.158119,-85.475460,Cul de Sac Ln
216,41.151219,-85.489802,S Chauncy St/Simonson St
185,41.081569,-85.342607,G Antony Dr-92/Donatello Dr-92
160,41.004396,-85.477801,/E 114 S
160,41.188943,-85.481959,N Airport Rd/Airport Rd/N Etna Rd
185,41.090981,-85.625448,/Calhoun St
185,41.164599,-85.449558,N Indian Hills Dr/Old Trail Rd/State Rd 205
185,41.168333,-85.495703,Oak St
418,41.169352,-85.510273,W Lincolnway/US Hwy 30
185,41.125380,-85.507816,S 205 W
216,41.166614,-85.516091,Stoneridge Dr
185,41.091003,-85.626633,N Maple St/
160,41.147549,-85.651393,W 100 S
185,41.077445,-85.508554,S Washington Rd/State Rd 14
246,41.165718,-85.514979,Wildthorne Ct/Crooked Tree Dr
499,41.163848,-85.491427,N Line St/W North St
160,41.173925,-85.344341,N Johnson Rd
305,41.172378,-85.485020,Isherwood Dr
185,41.155341,-85.371342,S Butterstone Trl/E Cobblestone Cove
160,41.192804,-85.625157,W 200 N/State Rd 5
160,41.213637,-85.577215,N 450 W/W 350 N
390,41.158638,-85.470484,E Van Buren St/Towerview Dr
216,41.250737,-85.423852,N 350 E/E State Camp Rd
160,41.144941,-85.481464,S 50 E
445,41.230243,-85.322388,W Washington St/Eagle Dr
160,41.170542,-85.511678,W Lincolnway/Connexion Way
160,41.183526,-85.491512,Morsches Dr/State Rd 109
276,41.233012,-85.321162,Liberty St/N Main St
160,41.078420,-85.413177,E 600-S Rd/S 400 E
762,41.171139,-85.485895,Hoosier Dr/Spartan Dr
334,41.233842,-85.321733,Magers St/N Main St
160,41.177234,-85.623334,E Elm Ave/King St/W Old Trail Rd
185,41.240798,-85.331015,US Hwy 33/E 550 N
160,41.044669,-85.336237,S 800 E Rd
305,41.165685,-85.515977,Glenwood Dr/Crooked Tree Dr
1149,41.169240,-85.491520,US Hwy 30/N Line St
160,41.132713,-85.496004,/S Washington Rd/Washington Rd
185,41.180519,-85.491522,/State Rd 109
160,41.049185,-85.413026,S 400 E/E 800 S
246,41.164088,-85.466733,Bridget Ln
418,41.140256,-85.431330,US Hwy 30
185,41.088097,-85.634960,W Lewis St
246,41.153736,-85.485441,S Whitley St
472,41.230098,-85.320440,W Whitley St/S Mulberry St/N Mulberry St
185,41.237721,-85.331610,Meadow Way/Turtle Run
246,41.250199,-85.423859,N 350 E
160,41.082144,-85.628484,S Water St/W Poplar St
185,41.173212,-85.491558,State Rd 109/Linda Ln
185,41.197409,-85.405684,E Crone Rd/N 450 E
276,41.160674,-85.516632,Lowell St/Bus 30 W
185,41.146973,-85.457882,Medallion Blvd W/E 100 S
160,41.091399,-85.625456,Calhoun St/E 3rd St
216,41.149923,-85.472367,Thornapple Ct/E Hanna St
160,41.249425,-85.475341,Ashford Dr/Wexford
246,41.178019,-85.474335,/N 9 W
185,41.078368,-85.423626,E 600-S Rd
160,41.250014,-85.439320,E Island Ct/Island Ct
552,41.229661,-85.320117,S Mulberry St/Coal St
216,41.157120,-85.480242,Marshall Ave/E Van Buren St
160,41.179235,-85.568391,W Plattner Rd/N 400 W
216,41.161551,-85.456700,Pinehurst Ct
160,41.250948,-85.443265,Kohne Ave/N Center St
216,41.253688,-85.352012,Blue Lake Rd/Dogwood Ln
334,41.154906,-85.480548,E Ellsworth St
605,41.150022,-85.486220,E Chicago St/S Whitley St
185,41.264925,-85.404563,N 450 E/E 700 N
185,41.081167,-85.630975,W Walnut St/S Line St
185,41.199947,-85.482010,N Airport Rd/E 250 N
160,41.082840,-85.627618,S State St
631,41.155928,-85.489805,S Chauncy St/W Market St
185,41.226289,-85.331139,Summit Dr/Anderson Rd
160,41.021733,-85.355270,S 700 E
185,41.234904,-85.318303,Long St
160,41.136512,-85.452722,Mowrey Rd
185,41.159728,-85.518352,Westgate Ave/Lawrence Dr
418,41.165909,-85.512371,Westchester Dr/Crooked Tree Dr
216,41.250133,-85.340236,/US Hwy 33
185,41.175811,-85.491578,State Rd 109
813,41.230581,-85.319315,W Whitley St/S Main St/N Line St/E Whitley St/N Main St
276,41.227418,-85.462675,N 9 W
160,41.089506,-85.644601,S 800 W/W 500 S
160,41.182087,-85.466842,Cider Mill Rd
390,41.185103,-85.644575,US Hwy 30/N Binkley Rd
246,41.155959,-85.486922,E Market St/S Washington St
390,41.159300,-85.480261,Marshall Ave/E Jefferson St
216,41.089595,-85.629596,/W 500 S
216,41.143342,-85.445839,E Cardinal Dr
216,41.090519,-85.625420,N Calhoun St/Calhoun St/E 2nd St
276,41.146769,-85.448616,E 100 S/US Hwy 30
160,41.200737,-85.382109,N Indiana St/State Rd 205/E Johnson Rd
216,41.163865,-85.467686,US Hwy 30
160,41.148942,-85.491162,S Line St
160,41.104302,-85.337252,S 800 E/E 400 S
185,41.085201,-85.631033,W Columbia St/S Line St/N Line St
276,41.174167,-85.484121,W Berkshire Dr
185,41.156006,-85.482588,E Market St/S Madison St
246,41.158031,-85.495572,Vanorsdoll St/N Oak St
160,41.157748,-85.458074,S Cross Creek Way/N Cross Creek Way
276,41.083017,-85.336925,D Andre Dr-92/S 800 E
305,41.168108,-85.481608,W Columbia Pkwy/N Columbia Pkwy
160,41.164161,-85.452994,Old Trail Rd/N 200 E
185,41.257076,-85.366253,Co Rd 650 E/US Hwy 33
160,41.012617,-85.335763,S 800 E Rd
1304,41.170803,-85.484536,N 9 W/N Main St
160,41.087819,-85.632607,W Lewis St/Shultz St
276,41.163730,-85.489948,N Chauncey St/W North St
276,41.149347,-85.483455,Indiana Ave/E Chicago St
276,41.233452,-85.322895,N Mulberry St/Magers St
160,41.177771,-85.596847,/US Hwy 30/N 550 W
185,41.128561,-85.398044,E McJunkin St/S Barr St
305,41.164750,-85.481703,Azuba Ln/Jeffery Dr
334,41.154841,-85.489793,S Chauncy St/W Ellsworth St
160,41.169209,-85.474918,Steve Ct
418,41.154831,-85.491247,S Line St/W Ellsworth St
216,41.127107,-85.395861,S 500 E
305,41.165963,-85.489927,Diplomat Dr/Branch Ct
246,41.266344,-85.542300,Brown Rd/W 700 N
185,41.179387,-85.623327,E North St/King St
1459,41.168829,-85.485373,US Hwy 30/N Main St
362,41.166905,-85.475506,Bayview Ct
334,41.166136,-85.484075,Earl Ave/Blue River Dr
216,41.246824,-85.434275,E Muncie Ave
160,41.146937,-85.452059,E 100 S
160,41.236450,-85.373188,Shady Grove Mhp
246,41.177815,-85.474669,/N 9 W
305,41.159424,-85.523925,Buddale Dr
216,41.159516,-85.503572,W Squawbuck Rd
160,41.153003,-85.467438,Redstone Ct
390,41.171150,-85.476852,Plantation Dr/Country Side Dr
362,41.153717,-85.492692,Spencer St/S Walnut St
160,41.147025,-85.466044,E 100 S/Valley River Dr
418,41.161920,-85.487026,Collinwood Ave/N Washington St
499,41.136190,-85.415084,US Hwy 30/S 400 E
305,41.235364,-85.316498,Weston Ave
185,41.245574,-85.423896,N 350 E/E Magley Ln
216,41.236792,-85.329529,Wheatfield Ct
445,41.241221,-85.443398,E Bair Rd/N Old 102
160,41.232146,-85.462632,/N 9 W
246,41.246332,-85.442977,E Beech Ave
276,41.174358,-85.478116,Raleigh Ct
160,41.075725,-85.621839,State Rd 5
160,41.240878,-85.558821,Cowan/Hill Dr
445,41.229042,-85.319665,S Mulberry St
710,41.157895,-85.472934,E Van Buren St/Park Terrace Blvd
216,41.208811,-85.309717,US Hwy 33
390,41.158998,-85.508298,County Square Estates Mhp
160,41.160268,-85.522048,Westgate Ave/Royal Dr
362,41.181048,-85.624391,US Hwy 30
160,41.003941,-85.509216,S Washington Rd/State Rd 114
216,41.233029,-85.316398,Greenwood Cir/Greenwood Dr
185,41.083000,-85.627830,S State St
216,41.132747,-85.402326,US Hwy 30
305,41.165686,-85.516054,Glenwood Dr/Crooked Tree Dr
390,41.158193,-85.478948,E Jackson St
605,41.161322,-85.464476,US Hwy 30
160,41.236899,-85.319148,N 900 E/Clingerman Ave
160,41.096813,-85.586796,Carroll Rd/S 500 W/State Rd 205
216,41.158775,-85.455279,E Ravenwood Ln
276,41.181033,-85.622187,McLallen St/US Hwy 30
216,41.230379,-85.405543,N 450 E/Anderson Rd
526,41.173057,-85.477717,River Bluff Dr
160,41.246642,-85.445008,E Schram
185,41.237704,-85.330623,Meadow Way/Thresher Run
160,41.082586,-85.342697,D Andre Dr-92/Donatello Dr-92
246,41.177520,-85.483450,Tidewater Trl/Carlyle St
276,41.158176,-85.484068,E Jackson St/N Wayne St
334,41.158186,-85.482610,E Jackson St/N Madison St
185,41.193737,-85.405642,N 450 E/E 200 N
276,41.092233,-85.433960,S Raber Rd
526,41.164669,-85.491437,Washburn Ave/N Line St
185,41.150075,-85.481615,Ohio St/E Hanna St
334,41.236943,-85.323189,Clingerman Ave/N Main St
185,41.087938,-85.626629,Maple St
185,41.078357,-85.451832,E 600-S Rd/S 200-E Rd-92
185,41.148387,-85.450429,US Hwy 30
362,41.225091,-85.316074,Dana/
185,41.150666,-85.510435,Old Trail Rd
160,41.200730,-85.377803,State Rd 205/E Johnson Rd
246,41.171026,-85.544430,US Hwy 30
334,41.163894,-85.496954,W North St/Pinecrest Dr
552,41.157022,-85.489818,S Chauncy St/W Van Buren St/N Chauncey St
160,41.137621,-85.495014,S 205 W
246,41.244270,-85.440748,N Willow Ave/Hall St
362,41.230993,-85.324932,Rapp Dr/South St
305,41.170989,-85.489502,Fairview Ct
216,41.126865,-85.395235,E Duffin St/S 500 E
276,41.076835,-85.626974,Whispering Ln
160,41.042574,-85.576832,Co Rd 450 W
160,41.002637,-85.610239,1200 N
472,41.180423,-85.625489,W Hammontree St/E Hammontree St/Center St
246,41.236025,-85.315446,Conway/N Conway St/E Douglas St
246,41.089723,-85.337024,S 800 E/E 500 S
160,41.073601,-85.422883,Clydes Dale Dr
160,41.080251,-85.625327,W Buckeye St/S State St
160,41.240606,-85.558735,W Shoreline Dr/Hill Dr
160,41.242573,-85.439287,Hively St
276,41.233718,-85.323050,N Mulberry St/Park Dr
160,41.077664,-85.543199,S 275 W/State Rd 14
216,41.172332,-85.487323,Robin Way/Barbara Dr
160,41.178793,-85.615887,N 650 W/US Hwy 30
160,41.086855,-85.460932,S 150 E
305,41.156981,-85.495566,W Van Buren St/S Oak St/N Oak St
160,41.159720,-85.495593,N Oak St/W Harrison St
418,41.159910,-85.474689,Rolling Hills Ave/E Jefferson St
305,41.223409,-85.316944,US Hwy 33/Circle Dr
185,41.226279,-85.332417,Indiana Dr/Anderson Rd
185,41.147783,-85.481493,E Swihart St/S 50 E
160,41.178489,-85.652715,E 400 S/W Old Trail Rd
216,41.236063,-85.491796,E 500 N/State Rd 109/W 500 N
472,41.126700,-85.376484,US Hwy 30/S 600 E
216,41.229536,-85.316578,Mill St/Railroad St
334,41.238874,-85.326849,US Hwy 33
185,41.142507,-85.452827,Governors Dr
160,41.177917,-85.593523,US Hwy 30
246,41.210077,-85.310838,/US Hwy 33
216,41.088892,-85.627889,N State St
579,41.161147,-85.464662,US Hwy 30/E Van Buren St
160,41.174314,-85.475200,Raleigh Ct
160,41.146046,-85.477249,E Swihart St
605,41.159648,-85.473459,Park Terrace Blvd
246,41.163875,-85.492846,N Walnut St/W North St
160,41.159062,-85.505426,Bus 30 W/S Briarwood Ln
160,41.166746,-85.471813,US Hwy 30
216,41.228862,-85.325125,West St/W Washington St
605,41.170441,-85.501150,Armstrong Dr/Connexion Way/W Plaza Dr
