Estimated daily crossings,Latitude,Longitude,Name
185,37.799826,-77.759996,Taylors Creek Rd
185,37.836547,-77.730024,/Mountain Rd
390,37.612155,-77.363719,/I- 295
160,37.909447,-77.661130,/Beaver Dam Rd
390,37.604060,-77.325233,War Horse Ln/Travellers Way
160,37.692031,-77.430673,Windsor Shade Dr/Rose Garden Path
246,37.587950,-77.320547,Creighton Rd/Tammy Ln
185,37.691362,-77.454160,Stony Run Ln
305,37.645766,-77.330957,Rural Point Rd/Heatherwood Dr
185,37.610964,-77.333254,Brandy Creek Dr
185,37.616825,-77.370333,Shady Grove Rd/Olde Grove Glen
418,37.631575,-77.339861,/Lee Davis Rd
160,37.676966,-77.387258,Pamunkey Rd/Julie Way/New Ashcake Rd
160,37.860946,-77.605437,/Coatesville Rd
185,37.625171,-77.310894,Thicket Run Way/Old Cavalry Dr
160,37.662560,-77.335906,Count Kristopher Ct
160,37.775148,-77.629576,Mountain Rd
185,37.581851,-77.222174,/Pa Pa Ln
185,37.820757,-77.684723,Mountain Rd
216,37.713875,-77.483631,Anne Gate Ct
276,37.599887,-77.343147,Cold Harbor Rd/Walnut Grove Dr
246,37.645980,-77.330979,/Rural Point Rd
362,37.752387,-77.483397,Race Course St/S Center St
246,37.582976,-77.326727,Creighton Rd
216,37.691547,-77.455617,Lakeridge Square Ct/Lakeridge Pkwy
160,37.662594,-77.404082,/Cool Spring Rd
658,37.676856,-77.380893,Rural Point Rd/New Ashcake Rd/Chamberlayne Rd
160,37.592994,-77.270965,/Crown Hill Rd
246,37.589085,-77.333859,Chenault Way/McCauley Ln
362,37.635598,-77.343014,Colemanden Dr/Rumhill Ct
160,37.826550,-77.608238,W Patrick Henry Rd
160,37.849824,-77.464237,Washington Hwy
276,37.674979,-77.429777,Woodglen Dr/Gerljean Dr
246,37.693201,-77.463048,/Washington Hwy
160,37.598622,-77.359892,/Cold Harbor Rd
185,37.702469,-77.439389,/Richardson Rd/Lickinghole Rd
160,37.756369,-77.656334,/Howards Mill Rd
160,37.840589,-77.747121,/Double Cedar Rd
160,37.674358,-77.419464,/Atlee Station Rd
160,37.813587,-77.613836,Three Creeks
216,37.810647,-77.655613,/Mountain Rd
185,37.591656,-77.323226,Puller Dr/Bonniefield Dr
185,37.724377,-77.470126,Washington Hwy
160,37.671121,-77.423944,Deer Stream Dr/Fawn Park Ln
362,37.690827,-77.382635,Beatty Farm Dr/Chamberlayne Rd
216,37.588396,-77.338293,Poteet Ln
185,37.634192,-77.298661,/Walnut Grove Rd
216,37.687823,-77.421673,Smythes Cottage Way
276,37.684568,-77.381113,/Chamberlayne Rd
246,37.618285,-77.393445,Mary Mundie Ln/Ellerson Station Dr
552,37.761376,-77.467220,Sweet Tessa Dr
472,37.634360,-77.327190,Turnage Ln/Midday Ln
305,37.603461,-77.332399,Jay Way/Dove Way
160,37.660780,-77.243397,/Spring Run Rd
160,37.795936,-77.608861,Greenwood Church Rd
160,37.679782,-77.424430,Drawbridge Rd/Castle Tower Rd
445,37.660285,-77.385036,Hanover Crossing Dr/Chamberlayne Rd
276,37.638614,-77.263318,/Mechanicsville Tpke
160,37.650153,-77.410165,Craney Island Rd/Cudlipp Ave
276,37.723599,-77.364151,Georgetown Rd
658,37.690333,-77.457643,/Lake Ridge Square Ct/Lakeridge Square Ct
160,37.699955,-77.278568,Arrowhead Rd
276,37.633604,-77.286877,Calvary Run/Mechanicsville Tpke
362,37.654029,-77.407337,Jeans Grove Ln/Gerry Ct
160,37.801723,-77.558088,W Patrick Henry Rd
684,37.598457,-77.355553,/Harbor Hill Dr/Cold Harbor Rd
246,37.644492,-77.222235,/Old Church Rd
160,37.624793,-77.379078,S Mayfield Ln/Holly Ln
160,37.744475,-77.664714,/Mlc Ln
160,37.703517,-77.356542,Sugarloaf Dr
185,37.587130,-77.298567,Gaines Mill Rd/Cold Harbor Rd
246,37.763521,-77.368224,Hanover Courthouse Rd
185,37.828912,-77.701677,/Mountain Rd
160,37.633499,-77.298613,/Walnut Grove Rd
246,37.629687,-77.310797,Skirmish Ln
216,37.603137,-77.310158,Thaxton Dr/Creighton Rd
160,37.607637,-77.370722,Shady Grove Rd/Fullview Ave
185,37.676320,-77.416110,Poplar Hall Ct
160,37.789410,-77.531837,Horseshoe Bridge Rd
216,37.658174,-77.221279,/Mechanicsville Tpke
160,37.772311,-77.362340,Wickerton Ln//Normans Bridge Rd
246,37.691000,-77.429888,Pecan Tree Ct
160,37.694641,-77.351640,/Georgetown Rd
160,37.614111,-77.401924,/Industrial Park Rd/Meadowbridge Rd
160,37.608237,-77.374420,Atlee Rd/York St
160,37.788288,-77.507924,Independence Rd/Bear Slash Trl
216,37.653675,-77.230514,Mechanicsville Tpke
160,37.799198,-77.667001,Locust Run Dr/Kelli Ashley Ct
160,37.627498,-77.168754,Christian Ridge Dr/Old Church Rd
185,37.701496,-77.384747,Chamberlayne Rd
3671,37.761844,-77.477472,Henry St
185,37.659109,-77.411903,Page St/Howard Dr
305,37.614498,-77.367186,Darva Glen/Mountain Lilly Ln/Mountain Lily Ln
160,37.704336,-77.506058,/Holly Berry Rd
216,37.715208,-77.465622,Lewistown Rd/
1304,37.758820,-77.481777,Thompson St/S Center St
246,37.747602,-77.484670,S Center St
216,37.636492,-77.267946,/Mechanicsville Tpke
216,37.663265,-77.379010,Braxton Ct/Braxton Way
185,37.597168,-77.366614,Jennifer Cir
445,37.652545,-77.408770,Graff Ct
305,37.747389,-77.479600,Slash Dr/Courtside Dr
362,37.636076,-77.387341,Atlee Rd
246,37.677481,-77.193393,/Mechanicsville Tpke
362,37.757131,-77.480293,Virginia St/Myrtle St
185,37.693397,-77.404011,Malboro Rd/New Ashcake Rd
160,37.785748,-77.479476,McConnell Ln
160,37.732821,-77.374625,/Cadys Mill Rd
160,37.643799,-77.232081,/Old Church Rd
160,37.793612,-77.499646,/Blunts Bridge Rd
968,37.856460,-77.454022,I- 95
499,37.764189,-77.469506,Secretariat Ct
160,37.605673,-77.378034,Signal Hill Rd
160,37.597443,-77.345538,Shannonwood Ct
160,37.594589,-77.191952,Cattail Run Dr
246,37.632866,-77.348901,Soft Wind Dr/Hanover Grove Ln
185,37.647360,-77.323250,Pine Hill Dr/Pine Hill Rd
418,37.586111,-77.270666,/Cold Harbor Rd
160,37.851473,-77.433505,Kings Dominion Blvd
788,37.855928,-77.454123,I- 95
943,37.695257,-77.449136,I- 95
185,37.733256,-77.678314,Walnut Hill Dr
276,37.633168,-77.317266,Midnight Dr/Raven Run Dr
246,37.845004,-77.453504,/Kings Dominion Blvd
185,37.733117,-77.678357,Walnut Hill Dr
160,37.763189,-77.487797,N Snead St/John St
246,37.664049,-77.210113,Mechanicsville Tpke
710,37.644227,-77.412696,/I- 295
160,37.595771,-77.373626,Stonewall Pkwy/Elm Dr E
246,37.630769,-77.320099,Fieldshire Ct
246,37.637486,-77.298949,Walnut Grove Rd/Walnut Branch Dr
185,37.697386,-77.384319,Chamberlayne Rd
160,37.755489,-77.490669,Beverly Rd/Hanover Ave
246,37.697131,-77.412059,Walnut Spring Pl/Oak Cottage Dr
160,37.805131,-77.605028,/Scotchtown Rd
418,37.602703,-77.353159,Bell Creek Rd
185,37.610378,-77.394585,Elwin Dr/Buckard Dr
710,37.761227,-77.471561,/N Washington Hwy/Caroline St
334,37.595086,-77.334830,Harbor Dr
160,37.629240,-77.178306,/Flannigan Mill Rd
445,37.682526,-77.457112,/King Acres Rd
185,37.807144,-77.473083,Washington Hwy
160,37.605042,-77.294652,Colts Neck Rd
160,37.640521,-77.294123,/Pole Green Rd
160,37.646252,-77.228798,Colonial Ln
305,37.634206,-77.273532,Mechanicsville Tpke
216,37.705107,-77.437471,Air Park Rd/Whitesel Rd
160,37.650754,-77.252281,Studley Rd/Linneys Ct
160,37.812568,-77.591881,/Three Oaks Ln
185,37.752280,-77.477804,New St
185,37.612595,-77.378362,Mechanicsville Elementary Dr/Atlee Rd
185,37.617470,-77.382807,/Atlee Rd
362,37.614634,-77.380345,Atlee Rd/Rose Hill Dr/Windsor Dr
160,37.831879,-77.660134,/Robert Terrell Rd
185,37.729540,-77.583892,/Chewning Rd
160,37.773523,-77.557800,/Winston Rd
185,37.894932,-77.663450,Beaver Dam Rd
185,37.687592,-77.407429,Doncastle Ct/Tarleton Dr
3503,37.609560,-77.354982,Mechanicsville Tpke/Bell Creek Rd
418,37.659061,-77.402268,Leighfield Way
246,37.630310,-77.389438,Ellerson Green Pl/Summer Walk Pkwy
185,37.631347,-77.304888,Ironclad Dr
246,37.615276,-77.307815,Pond Pike Way
362,37.600122,-77.336279,Walgrove Ct/Cold Harbor Rd
160,37.839423,-77.518932,/Old Ridge Rd
160,37.660169,-77.325522,/Mattawan Trl
185,37.687745,-77.433495,Aynhoe Ln/Aynhoe Ct
160,37.767175,-77.490409,/Chapman St
160,37.713184,-77.289352,Nelson Bridge Rd
1046,37.758146,-77.481601,S Railroad Ave
499,37.798367,-77.461005,I- 95
185,37.750789,-77.479600,E Francis St
305,37.589552,-77.336249,Tammy Ln
160,37.720928,-77.769014,Saddlewood Ln/Pinhook Rd
185,37.761837,-77.488203,N Snead St/Henry Clay Rd
216,37.629862,-77.293280,/Mechanicsville Tpke
160,37.743700,-77.358461,/Hanover Courthouse Rd
445,37.602371,-77.352689,/Bell Creek Rd
185,37.711027,-77.393980,Stumpy Rd
160,37.834752,-77.726441,Devonwood Rd/Mountain Rd
160,37.667304,-77.378373,Sir Michael Ln
185,37.723396,-77.445119,/Lewistown Rd
246,37.690950,-77.411525,Rouzie Ct
160,37.611329,-77.302215,Walnut Grove Rd/Melissa-Paige Cir
160,37.694412,-77.386905,Whippoorwill Rd
216,37.630767,-77.303382,Ironworks Ct
160,37.592171,-77.327988,Tammy Ct/Tammy Ln
276,37.622328,-77.312541,/Westhaven Dr
246,37.666615,-77.414216,Atlee Station Rd/Staple Ln
160,37.656050,-77.391048,Tall Oak Ln
276,37.749694,-77.476270,Swannee Ct
246,37.706095,-77.493422,Cedar Ln
276,37.691529,-77.428545,Agecroft Manor Ct
160,37.649951,-77.332871,Mossy Brook Rd
160,37.703953,-77.594222,/Cauthorne Rd
813,37.617869,-77.339849,Lee Davis Rd
276,37.691911,-77.383049,Chamberlayne Rd
246,37.710323,-77.630525,Ashland Rd
160,37.768541,-77.464074,Quarles Rd
185,37.629833,-77.334333,Skipjack Ct
216,37.647763,-77.185150,/Old Lafayette Rd
334,37.679835,-77.394622,/New Ashcake Rd
216,37.701411,-77.439684,Richardson Rd
185,37.647008,-77.331089,Rural Point Rd
216,37.620913,-77.312839,/Mechanicsville Tpke
2408,37.762670,-77.478289,/E Patrick St
736,37.628765,-77.344498,Cinnamon Ct/Sugar Oak Ct
246,37.687928,-77.454788,Sliding Hill Rd/Lakeridge Pkwy
216,37.729630,-77.593649,Ashland Rd
418,37.697342,-77.405097,Ashcake Station Pl
185,37.602717,-77.309663,Anvil Ln/Creighton Rd
160,37.716350,-77.654500,/Mile Branch Rd
334,37.600396,-77.362539,East Blvd/Stuart Dr
276,37.649556,-77.239498,Mechanicsville Tpke
160,37.858103,-77.489741,Doswell Rd
246,37.756984,-77.477493,/Myrtle St
160,37.844544,-77.661264,New Found Hills Ln/Robert Terrell Rd
305,37.630318,-77.347497,Soft Wind Ct
160,37.672088,-77.423339,Ivy Hill Ct
160,37.763552,-77.489593,John St/Dewey St
891,37.755748,-77.471462,S Washington Hwy
160,37.608042,-77.333160,Lark Way/Wren Way
185,37.695347,-77.453837,Marvin Ln/Lakeridge Pkwy
216,37.635176,-77.345120,Bama Rd
185,37.783178,-77.603806,/Stone Trace Dr
160,37.711943,-77.637971,/Pouncey Tract Rd
160,37.722792,-77.405793,Stumpy Rd
390,37.662552,-77.410889,/Atlee Station Rd
160,37.683308,-77.241642,/River Rd
160,37.837997,-77.590710,Scotchtown Rd
305,37.567385,-77.303961,I- 295
216,37.610656,-77.328737,Washington Arch Dr/Jackson Arch Dr
216,37.818219,-77.474056,Route Dr
160,37.843901,-77.587219,/Chiswell Ln
246,37.622238,-77.311554,Mechanicsville Tpke
334,37.747427,-77.478442,Courtside Ln/Courtside Dr
216,37.647567,-77.347546,Salient Ln/Six Pound Ln
246,37.624976,-77.356169,Chime Ct/Bell Creek Rd
160,37.608729,-77.301255,Smithy Ct
185,37.636935,-77.310828,Pole Green Rd/Cosby Ln
160,37.636931,-77.298850,Walnut Grove Rd
246,37.666135,-77.376106,Braxton Way
246,37.676886,-77.376411,Rural Point Rd
160,37.703010,-77.355517,Sugarloaf Dr/Kersey Ln
334,37.648510,-77.344970,Lunette Ln
216,37.695050,-77.422371,Manor View Dr
185,37.650807,-77.388662,Studley Rd/Twin Oaks Rd
216,37.749180,-77.512212,Ashcake Rd/Cool Breeze Ln
362,37.626688,-77.310703,Rolling Forest Cir
160,37.776228,-77.458723,/Jamestown Rd
526,37.607706,-77.360459,I- 295/Mechanicsville Tpke
185,37.658857,-77.343351,Shelton Pointe Dr
2221,37.758243,-77.465088,England St
305,37.620925,-77.342692,Foxlair Ct/Foxbernie Cir
216,37.704386,-77.415278,Hunters Chase Dr/Jump Cir
185,37.793364,-77.541864,W Patrick Henry Rd
160,37.605568,-77.332346,Jay Way/Thrush Way
390,37.614364,-77.302703,Pond Edge Ct
160,37.632434,-77.305385,Shiloh Pl
216,37.695592,-77.463322,Washington Hwy
246,37.723406,-77.607403,Ashland Rd
185,37.707564,-77.465975,/Washington Hwy
334,37.593742,-77.321699,Bonniefield Ct/Bonniefield Dr
185,37.630140,-77.334684,Christopher Paul Dr/Skipjack Ct
2194,37.758386,-77.467716,/England St
579,37.761251,-77.468200,Cottage Greene Dr
160,37.722273,-77.447932,/Lewistown Rd
736,37.756848,-77.458904,I- 95
305,37.683382,-77.453222,Kings Acres Rd
276,37.614449,-77.366013,Mountain Lilly Ln
160,37.916260,-77.627408,/Teman Rd
499,37.636925,-77.356198,Left Flank Rd/Bell Creek Rd
160,37.597936,-77.307781,Sandy Valley Rd
1071,37.824693,-77.455342,I- 95
216,37.635560,-77.381477,Shady Grove Rd
246,37.652355,-77.414949,Aaroe Dr
334,37.601573,-77.372222,Fast Ln
185,37.775115,-77.645967,Cottage Farm Rd
305,37.627085,-77.341211,Piabads Ct/Wesbeam Dr
216,37.613183,-77.388355,Addie Dr/Barnette Ave
246,37.680103,-77.413608,Covington Ridge Ct
305,37.745288,-77.530743,/Ashcake Rd
276,37.645255,-77.383248,Shady Grove Rd/Washington Henry Dr
305,37.609828,-77.342954,Brandy Run Dr
788,37.754836,-77.474311,/Arlington St
246,37.615312,-77.299752,Pond Grass Rd
185,37.628445,-77.348066,Bellspring Dr
276,37.594765,-77.328002,/Cold Harbor Rd
445,37.646390,-77.414631,I- 295
305,37.649672,-77.374210,Burkwood Club Dr
246,37.586512,-77.325990,Draperfield Rd/Chenault Way
160,37.678696,-77.328639,/Pollard Creek Rd
160,37.715216,-77.398175,/Stumpy Rd
160,37.642158,-77.171300,Piping Tree Ferry Rd
445,37.603679,-77.375369,/Hanover Green Dr
710,37.885239,-77.456236,I- 95
160,37.726759,-77.600392,Ashland Rd
185,37.724706,-77.364599,/Georgetown Rd
246,37.708673,-77.636442,/Pouncey Tract Rd
160,37.609309,-77.305245,/Walnut Grove Rd
160,37.633284,-77.396099,Shady Ridge Ln/Summer Walk Pkwy
160,37.706293,-77.438337,Air Park Rd
305,37.690925,-77.458153,Kestrel Dr
185,37.723022,-77.685850,/Franklin Hills Dr
185,37.726690,-77.662013,Pouncey Tract Rd/Mile Branch Rd
160,37.734283,-77.633906,/W Fork Dr
216,37.657734,-77.333589,/Mattawan Trl
185,37.770104,-77.469382,N Washington Hwy
160,37.676690,-77.435321,Slidingrock Dr
216,37.844664,-77.455884,Binns Rd/Kings Dominion Blvd
160,37.592162,-77.347021,Sunset Ct
418,37.606146,-77.371240,Davis Ave/Shady Grove Rd
216,37.607764,-77.331187,Brandy Creek Dr/Cardinal Way
418,37.600622,-77.373685,Fast Ln/Water Way Dr
390,37.632389,-77.330164,Weathered Oak Ln/Turnage Ln
160,37.613513,-77.235287,Fraley Dr
185,37.659997,-77.400309,Combs Dr/Oakham Dr
246,37.700506,-77.429224,/State Rte 656
160,37.609615,-77.281485,/Sandy Valley Rd/John Henry Ln
160,37.735673,-77.373233,/Cadys Mill Rd
160,37.724422,-77.367723,/Hanover Courthouse Rd
160,37.740608,-77.656509,S Anna Dr
160,37.738249,-77.764490,Pinhook Rd
1071,37.842071,-77.451088,/I- 95
445,37.611584,-77.351686,Hickory Ln
160,37.687415,-77.465477,/Colonial Estates Cir
276,37.615899,-77.346190,Peachtree Rd/Willow Ave
185,37.682235,-77.398944,Jasmac Ln/New Ashcake Rd
246,37.681106,-77.430938,Grand Hickory Dr/Atlee Station Rd
185,37.622336,-77.313608,/Westhaven Dr
334,37.692388,-77.383162,/Chamberlayne Rd
185,37.676914,-77.356355,/Rural Point Rd
185,37.713907,-77.378800,Hanover Courthouse Rd
160,37.725744,-77.630487,/Abner Church Rd
160,37.741337,-77.699715,/Shop Creek Dr
160,37.702227,-77.401932,/Wyndale Dr
216,37.708035,-77.529684,/Winns Church Rd
160,37.590192,-77.250553,Johnson Oak Dr
160,37.671144,-77.273356,/Studley Rd
246,37.757709,-77.480193,Virginia St/Lee St
334,37.612369,-77.361262,Seven Springs Rd/Amf Dr
160,37.647939,-77.393436,Sherton Ct/Sherton Dr
216,37.642670,-77.182008,Old Lafayette Rd/Piping Tree Ferry Rd
605,37.764899,-77.479542,N Center St/W Patrick St
246,37.657978,-77.221130,/Mechanicsville Tpke
1097,37.824870,-77.455973,I- 95
418,37.635160,-77.350128,Pole Green Rd
160,37.794096,-77.447285,Hickory Hill Rd
185,37.611029,-77.366047,Amesbury Cir/Deborah Dr
160,37.711238,-77.496809,Kenmont Ln
185,37.736813,-77.450124,Cheroy Rd
216,37.607877,-77.395416,Thebrix Ct
185,37.687290,-77.405845,Birdsong Creek Ct
160,37.633995,-77.298648,/Walnut Grove Rd
216,37.693769,-77.434791,Windsor Shade Dr/Robinson Hall Ct
658,37.633613,-77.387491,Atlee Rd/I- 295
276,37.635927,-77.331233,Magnolia Green Ln/Midday Ln
160,37.758727,-77.533233,Yowell Rd
160,37.705154,-77.520556,Greenwood Rd
160,37.712189,-77.394987,/Stumpy Rd
185,37.602392,-77.336461,Drewce Ct
160,37.804883,-77.542427,Mid Pines Dr
160,37.655535,-77.361931,W Wenlock Dr/Studley Rd
185,37.646130,-77.373050,Triple Trl
418,37.615292,-77.369210,Windflower Ct
216,37.652997,-77.398418,Barnfield Ln
246,37.596203,-77.345894,/Brooking Way
185,37.662209,-77.310794,/Pine Slash Rd
160,37.680422,-77.351219,Branner Woods Ct/Ivanhoe Dr
185,37.644434,-77.250657,/Mechanicsville Tpke
631,37.676871,-77.380160,/Rural Point Rd
276,37.676339,-77.417433,Amelia Manor Ct
216,37.661536,-77.313773,/Pine Slash Rd
160,37.671195,-77.397033,Cool Spring Rd
276,37.652156,-77.403871,/Atlee Station Rd
160,37.676859,-77.377866,/Rural Point Rd
160,37.654979,-77.359430,Sedgemore Cir/Grantham Dr
185,37.678818,-77.428064,Atlee Station Rd/Wilmore Dr
246,37.686749,-77.412303,Waldelock Pl/Brickerton Dr
334,37.702546,-77.443548,Lickinghole Rd/Leadbetter Rd
160,37.644743,-77.340785,Lee Davis Rd
185,37.691458,-77.430939,Pecan Tree Ct/Rose Garden Path
418,37.623439,-77.373873,Shady Grove Rd
216,37.766721,-77.474543,Old Station St
160,37.637049,-77.384656,Dell-Ray Dr/Lansdowne Rd
185,37.620449,-77.371992,Shady Grove Rd
185,37.825525,-77.593421,W Patrick Henry Rd
160,37.741302,-77.404645,Mount Eagle Rd
362,37.634164,-77.346864,Plum Grove Dr/Soft Wind Ln
246,37.814099,-77.664431,Mountain Rd
246,37.614325,-77.385634,Lake Terrell Dr/Meadow Lake Rd
216,37.609033,-77.373020,Bruce Blvd/York St
160,37.814083,-77.576392,W Patrick Henry Rd
216,37.686052,-77.542847,Mountain Rd
185,37.686250,-77.407000,Doncastle Ct
246,37.690914,-77.462791,Old Telegraph Rd/Washington Hwy
246,37.600039,-77.338427,Pond Way/Cold Harbor Rd
216,37.679234,-77.384493,/Georgie Ct
362,37.845612,-77.451441,/Kings Dominion Blvd
160,37.647570,-77.401777,Atlee Station Rd
160,37.760402,-77.490097,Beverly Rd/Thompson St
160,37.622288,-77.355776,/Bell Creek Rd
185,37.603175,-77.336180,Drewce Ct/Cornfield Ln
160,37.609545,-77.320911,Bunker Hill Dr/Lexington Dr
160,37.676035,-77.311668,Studley Rd/Buck Trl
499,37.644359,-77.414524,Chamberlayne Rd
160,37.750664,-77.478895,E Francis St/Kilby Station Rd
418,37.612142,-77.306011,Greystone Creek Rd/Pond Grass Rd
160,37.643191,-77.279698,Pole Green Rd
160,37.768275,-77.467077,/Quarles Rd
185,37.782102,-77.532777,Liberty School Rd
160,37.787463,-77.605113,/Big Bear Ct
160,37.795663,-77.560346,Hickory Springs Ln
160,37.686160,-77.423796,Berkeley Manor Dr
185,37.660291,-77.364895,Wrexham Cir/Witheridge Dr
216,37.644534,-77.221256,McClellan Rd/Old Church Rd
246,37.816918,-77.455902,/Old Ridge Rd
246,37.631959,-77.359320,/Pole Green Rd
160,37.596076,-77.310737,/Creighton Rd
160,37.795048,-77.465680,Elletts Crossing Rd/Homebound Rd
246,37.615287,-77.378872,Rose Stable Dr/Rose Hill Dr
185,37.757066,-77.479066,Maple St/Myrtle St
185,37.708172,-77.418430,Country Side Ln/Fetlock Dr
276,37.626090,-77.374599,/Wheelwright Way
390,37.591445,-77.329937,Jersey Ct
160,37.776535,-77.483316,N James St
160,37.636876,-77.253402,/Beatties Mill Rd
160,37.845845,-77.500518,/Whitetail Dr
246,37.666427,-77.379260,la Gorce Pl/Sir Michael Ln
160,37.718322,-77.737730,Dogwood Trail Rd
185,37.814067,-77.473842,/Washington Hwy
185,37.696147,-77.411852,Sycamore Hill Pl/Oak Cottage Dr
216,37.628939,-77.311044,Skirmish Ln/Stronghold Dr
216,37.725062,-77.764588,/Pembroke Woods Pl
160,37.717691,-77.741210,/Dogwood Trail Rd
658,37.611532,-77.354771,/Bell Creek Rd
185,37.726997,-77.662526,/Pouncey Tract Rd
185,37.744353,-77.485993,/Center Street Rd
185,37.681132,-77.419839,Spring Ivy Ln/Clearstream Ter
216,37.637279,-77.345126,Verdi Ln
276,37.753710,-77.473753,Randolph St
185,37.622353,-77.313701,/Westhaven Dr
552,37.579569,-77.322462,I- 295
160,37.618908,-77.399172,Erle Rd
499,37.790564,-77.460168,I- 95
917,37.758363,-77.470631,England St
160,37.716079,-77.514791,/Cedar Ln
160,37.798243,-77.472113,/Washington Hwy
305,37.701639,-77.419233,Stonefield Ct
246,37.625748,-77.375505,/Shady Grove Rd/Travelers Rest Dr
305,37.596167,-77.372086,Harbor Light Way
246,37.654875,-77.365174,Studley Rd/Royal Grant Dr
579,37.640328,-77.409010,I- 295
185,37.609204,-77.397699,Gold Coast Ln
305,37.605144,-77.369182,Access Rd/Mechanicsville Tpke
445,37.617834,-77.317763,Mechanicsville Tpke
216,37.634829,-77.314976,Gibbsdown Pl/Oxfordshire Pl
160,37.607590,-77.370973,Fullview Ave/Roosevelt Ave
605,37.581465,-77.329755,/I- 295
160,37.853936,-77.464318,Washington Hwy
160,37.715896,-77.376713,/Hanover Courthouse Rd
185,37.645408,-77.228734,Colonial Ln
160,37.702970,-77.280303,Hazelwood Dr
390,37.613041,-77.306264,Softmoss Ct
472,37.642683,-77.254467,Mechanicsville Tpke/Beatties Mill Rd
160,37.778875,-77.747673,Spring Rd/
216,37.660939,-77.402365,Cavalin Ct/New Holland Ln
246,37.613794,-77.308763,Pond Grass Rd
216,37.724615,-77.639899,/Howards Mill Rd
216,37.631589,-77.342251,Wetherden Dr
276,37.628741,-77.333824,Whiskey Hill Ln
160,37.637849,-77.345282,Verdi Ln
390,37.656786,-77.356026,/Studley Rd
185,37.632708,-77.388782,Ellerson Green Close/Ellerson Green Pl
216,37.661745,-77.383040,McKenzie Dr
160,37.819597,-77.584575,/W Patrick Henry Rd
160,37.890363,-77.647427,/Buckfast Pl
216,37.710615,-77.484170,Parsons Chapel Rd/Caruthers Way
216,37.666497,-77.381091,Assembly Way/Crown Colony Pkwy
160,37.679991,-77.349561,Georgetown Rd/Ivanhoe Dr
526,37.763100,-77.367761,Hanover Courthouse Rd/St Pauls Church Rd
246,37.611656,-77.378826,Mechanicsville Elementary Dr
445,37.633375,-77.327236,Turnage Ln/Diamond Ct
276,37.622659,-77.330117,Lakeway Dr
216,37.705978,-77.418193,Camptown Ct/Country Side Ln
579,37.765251,-77.471429,N Washington Hwy
276,37.700664,-77.361389,/Georgetown Rd
334,37.708693,-77.342967,Antler Ln//Chestnut Church Rd
334,37.761623,-77.466062,Sweet Tessa Dr/Kitty Hamilton Cir
185,37.603542,-77.388326,Hillview Dr/Princess Anne Dr
246,37.695530,-77.436082,State Rte 656/Totopotomoy Trl
160,37.652229,-77.384902,/Studley Rd
390,37.649778,-77.383533,/Shady Grove Rd
160,37.661077,-77.315823,Pine Slash Rd/Sarah Shelton Ln
185,37.595332,-77.356916,Bruce Academy Ct/Old Cold Harbor Rd
216,37.643534,-77.394645,Stywalt Ln/Stewart Ln
246,37.698264,-77.410029,New Ashcake Rd/Wychwood Dr
160,37.723456,-77.656146,Healey Rd/Pouncey Tract Rd
362,37.657877,-77.400659,Combs Dr
160,37.708806,-77.441366,/Air Park Rd
160,37.644367,-77.310268,/Tate Ln
305,37.654955,-77.402966,Center Path Ln/Center Oak Ct
305,37.626666,-77.311919,Retreat Hill Ln/Skirmish Ln
499,37.685236,-77.457807,Telegraph Ln
160,37.733213,-77.440615,Silent Mill Ln/Cheroy Woods Ln
160,37.651651,-77.385370,Eagle Creek Pl/Cardinal Creek Dr
160,37.776801,-77.639868,/Saint Peters Church Rd
362,37.756054,-77.466494,Junction Dr
246,37.633479,-77.394698,Silkwood Ct/Summer Walk Pkwy/Silkwood Dr
216,37.634546,-77.314718,Oxfordshire Pl
276,37.678096,-77.456171,Telegraph Rd
762,37.888918,-77.457376,I- 95
246,37.671355,-77.420130,Doe Run Pl/Deer Stream Dr
362,37.617673,-77.317755,/Mechanicsville Tpke
305,37.705474,-77.505492,/Holly Berry Rd
216,37.609404,-77.178672,/Babbling Brook Ln
305,37.610868,-77.312989,Greystone Creek Rd/Silktree Pl
160,37.596617,-77.365784,New Hunter Rd/Hunter Cir
185,37.793445,-77.470265,/Washington Hwy
160,37.708600,-77.484948,Old Scotland Rd/New Town Ct
185,37.632116,-77.316672,Scarecrow Rd/Raven Run Dr
658,37.601052,-77.332398,/Cold Harbor Rd
185,37.718132,-77.738741,Grannys Ln/Dogwood Trail Rd
917,37.616181,-77.321890,Mechanicsville Tpke
160,37.697729,-77.301759,Williamsville Rd
445,37.783413,-77.602811,/Stone Trace Dr
334,37.631184,-77.326952,Sherrington Dr
246,37.684713,-77.381371,/Old Lansdown Rd/Chamberlayne Rd
216,37.756087,-77.634787,/Auburn Mill Ln
334,37.846085,-77.450438,/Kings Dominion Blvd
246,37.614125,-77.317061,Creighton Pkwy
305,37.615700,-77.378974,Rose Stable Dr
160,37.712075,-77.638088,Pouncey Tract Rd
390,37.688580,-77.412111,Pantego Ln/Turnout Ct
305,37.613681,-77.345279,Cherry Ln
390,37.650551,-77.416271,Ashlar Pl
160,37.706360,-77.505068,/Holly Berry Rd
246,37.654962,-77.364578,Colesbury Dr/Studley Rd
160,37.874726,-77.646293,Parsons Rd
305,37.656106,-77.406503,Atlee Station Rd/Dewitt Dr
216,37.597277,-77.370675,Ridge Way
362,37.636847,-77.338531,/Pole Green Rd
631,37.768697,-77.462574,Quarles Rd
276,37.664918,-77.375321,Crown Colony Pkwy
160,37.792868,-77.497471,/Blunts Bridge Rd
917,37.683726,-77.451874,I- 95/Kings Acres Rd
276,37.615208,-77.344239,Sherwood Crossing Pl
185,37.624021,-77.169063,Deerhunters Xing/Christian Ridge Dr
160,37.698833,-77.302318,Studley Woods Dr/Williamsville Rd
762,37.811422,-77.460309,I- 95
276,37.712851,-77.467289,Old Telegraph Rd/Washington Hwy
246,37.645297,-77.389065,Atlee Springs Dr/Meadowsweet Dr
160,37.615098,-77.375687,Meadow Haven Cir/Rose Hill Dr
185,37.637283,-77.266219,Mechanicsville Tpke/Little Florida Rd
813,37.811220,-77.459922,I- 95
276,37.711870,-77.481000,Rose Bowl Dr
160,37.606493,-77.376199,Signal Hill Rd/Jackson Ave
160,37.677411,-77.302202,/Studley Rd
445,37.607653,-77.359978,/Mechanicsville Tpke
160,37.645028,-77.339107,McGregor Farm Dr
160,37.718227,-77.615442,Ashland Rd/Abner Church Rd
605,37.607045,-77.360813,/I- 295
160,37.744619,-77.539583,/Ashcake Rd
276,37.587359,-77.335338,Brooking Way/McCauley Ln
216,37.762540,-77.491818,Chapman St/Henry Clay Rd
160,37.590045,-77.203433,Westwood Rd
160,37.579200,-77.330854,/Creighton Rd
185,37.745298,-77.358574,Hanover Courthouse Rd
185,37.610021,-77.339090,/Lee Davis Rd
2515,37.758580,-77.464040,England St/N Hill Carter Pkwy
160,37.746386,-77.465929,/S Hill Carter Pkwy
305,37.630164,-77.387917,Grove Rd/Atlee Rd/Summer Walk Pkwy
246,37.817744,-77.474218,/Washington Hwy
216,37.653876,-77.230656,/Mechanicsville Tpke
246,37.612860,-77.316318,Creighton Pkwy
390,37.700683,-77.423083,Winnepeg Ct/Manor View Dr
160,37.647371,-77.308930,Fenne Farm Dr
246,37.670951,-77.419308,Atlee Station Rd
390,37.602602,-77.370160,/Cold Harbor Rd
1615,37.616694,-77.320920,/Mechanicsville Tpke
160,37.871162,-77.604807,Edgewood Farm Ln/Coatesville Rd
246,37.621979,-77.311828,/Mechanicsville Tpke
160,37.715940,-77.581919,Black Haw Ln/Dude Ranch Rd
160,37.661449,-77.286831,/Studley Plantation Dr
1746,37.611087,-77.344535,/Mechanicsville Tpke
160,37.689327,-77.436213,Oak Shade Ct
185,37.592505,-77.359851,Senn Way/River Pine Dr/Aquarius Loop
160,37.634170,-77.340478,Wetherden Dr/Brooks Hollow Pkwy
160,37.737662,-77.570899,Ashland Rd
160,37.613078,-77.392638,/Ellerson Dr
216,37.642770,-77.180706,Epps Rd/Piping Tree Ferry Rd
160,37.715622,-77.461446,Shellie Lee Dr
160,37.737269,-77.449561,Cheroy Woods Ln/Cheroy Rd
160,37.697189,-77.354401,Georgetown Rd
1746,37.611129,-77.343298,Brandy Run Dr/Mechanicsville Tpke
418,37.586242,-77.270669,/Cold Harbor Rd
160,37.688667,-77.421517,Seatoncroft Ct
185,37.643751,-77.235597,/Old Church Rd
276,37.611506,-77.370382,Delkin Cir
334,37.609245,-77.350387,Colony Dr/Birch Ln
216,37.739914,-77.479833,Maple St
246,37.687057,-77.430448,Still Spring Ct
216,37.629739,-77.336069,Prism Ct/Meredith Farms Dr
185,37.716655,-77.639978,Howards Mill Rd
160,37.711316,-77.485835,Old Scotland Rd/Haltonshire Way
160,37.695520,-77.453784,/Lakeridge Pkwy
216,37.799130,-77.540992,/Country Club Dr
160,37.843790,-77.459445,Mount Hope Church Rd
579,37.744998,-77.471257,/S Washington Hwy/Washington Hwy
216,37.648298,-77.242838,Mechanicsville Tpke
185,37.636572,-77.327598,Greenback Dr
185,37.630160,-77.317442,Scarecrow Rd
246,37.692123,-77.406314,Gold Ridge Ln
185,37.725550,-77.457092,Northlake Park Dr
276,37.707721,-77.530412,/Winns Church Rd
160,37.668305,-77.417715,Atlee Station Rd/Old House Rd
1046,37.762602,-77.475007,E Patrick St/Calhoun St
276,37.693230,-77.548798,/Mountain Rd
305,37.699578,-77.413669,Crossover Dr
185,37.609960,-77.332600,Robin Way/Brandy Creek Dr
160,37.747093,-77.506886,Wildwood Blvd
160,37.787779,-77.644210,Mountain Rd
276,37.671660,-77.200642,/Mechanicsville Tpke
216,37.676970,-77.194032,Mechanicsville Tpke
246,37.745946,-77.395965,/Quail Oak Ct
160,37.665539,-77.389827,Powhickery Ct
160,37.718464,-77.454871,Lewistown Rd/Carters Heights Rd
160,37.760295,-77.365541,Hanover Courthouse Rd/Depot Rd
185,37.763692,-77.368408,County Complex Rd/Hanover Courthouse Rd
185,37.731523,-77.433510,Hermon Farms Ln
160,37.658297,-77.320755,Pine Slash Rd/Mahixon Trl
216,37.685880,-77.417669,Grace Manor Ct
185,37.619287,-77.308149,Creekway Ct
736,37.627989,-77.376806,/Shady Grove Rd
160,37.845650,-77.464819,Kings Dominion Blvd/Washington Hwy
160,37.716020,-77.650332,/Mile Branch Rd
552,37.850404,-77.454790,/I- 95
216,37.707425,-77.471322,Comanche Ln
305,37.696710,-77.473979,Elmont Woods Dr
246,37.712552,-77.467213,/Washington Hwy
160,37.768342,-77.484826,Steyland St/N Macon Ter
526,37.613171,-77.332621,Mechanicsville Tpke
160,37.723833,-77.368343,/Hanover Courthouse Rd
160,37.728949,-77.363281,Hanover Courthouse Rd
160,37.661549,-77.303582,/Pine Slash Rd
276,37.640105,-77.260662,/Mechanicsville Tpke
160,37.717489,-77.617104,/Ashland Rd
185,37.825138,-77.592800,W Patrick Henry Rd
276,37.697641,-77.410341,Newcastle Dr
185,37.808307,-77.655710,Mountain Rd/Ranch House Rd
160,37.701185,-77.411565,Fox Hill Race Ct
185,37.622033,-77.378712,S Mayfield Ln/Brook Dr
185,37.745323,-77.679624,Harris Town Ln
216,37.705186,-77.443454,Whitesel Rd/Leadbetter Rd
334,37.608632,-77.331747,Brandy Creek Dr/Lark Way
472,37.623571,-77.338057,Kiwi Ln/Snowshed Ln
216,37.660682,-77.341217,Hobbs Crossing Rd/Sentry Station Rd
390,37.758090,-77.483567,Duncan St/Hanover Ave
160,37.608682,-77.394920,Troub Ln/Windsor Dr
160,37.857355,-77.464389,Washington Hwy
185,37.660408,-77.364293,Wrexham Cir
305,37.630628,-77.362672,/Pole Green Rd
160,37.591451,-77.265343,Stewarts Retreat Ln/Rockhill Rd
276,37.686411,-77.464856,Colonial Estates Ln/Colonial Estates Cir
160,37.710239,-77.503113,/Holly Berry Rd
160,37.741152,-77.339953,River Rd
305,37.633810,-77.314176,Midnight Dr/Southern Watch Pl
246,37.668893,-77.204091,/Mechanicsville Tpke
160,37.864762,-77.596005,Smith Land Dr/Annfield Rd
160,37.663174,-77.400510,/Crestfield Dr
216,37.593868,-77.326430,Cold Harbor Rd
160,37.628814,-77.178607,/Flannigan Mill Rd
160,37.653832,-77.415444,Caleb Dr
216,37.604853,-77.338732,Silo Ln
160,37.727158,-77.364989,/Hanover Courthouse Rd
160,37.594289,-77.313153,Creighton Rd
160,37.590720,-77.299836,Old Reflection Cir
246,37.752497,-77.481205,Virginia St/New St
246,37.771585,-77.464397,Haley Rd
185,37.745063,-77.532188,Ashcake Rd/McArdle Way
185,37.789857,-77.646980,Mountain Rd/Waltons Tavern Rd
160,37.614911,-77.372075,Rose Hill Dr
276,37.639618,-77.300012,Pole Green Rd
362,37.632478,-77.342323,Wetherden Dr/Hertfordshire Way
185,37.853917,-77.498577,Doswell Rd
185,37.690616,-77.420720,Kiptopeake Way/Wicomico Trl
160,37.674260,-77.419459,/Atlee Station Rd
185,37.662058,-77.344717,Studley Rd/Shelton Pointe Dr
246,37.620671,-77.337696,Kiwi Ln/Goodfellow Ln
246,37.692779,-77.419237,Susquehanna Trl/Monocan Way
246,37.651056,-77.385327,Starling Creek Ct/Cardinal Creek Dr
1278,37.758327,-77.481390,S Railroad Ave/Robinson St
362,37.672969,-77.410834,Waxcomb Pl
710,37.617533,-77.324618,Woodbridge Rd/Dunwoody Rd
185,37.603835,-77.293762,/Colts Neck Rd
216,37.631814,-77.350729,Oak Branch Pl/Hanover Grove Blvd
276,37.596042,-77.369414,Overlook Dr/Edgewood Rd
276,37.672183,-77.410294,Waxcomb Pl/Harvest Honey Rd/Cool Hive Pl
216,37.658879,-77.392550,Jupiter Dr/Neptune Dr
160,37.754712,-77.635789,Auburn Mill Rd
160,37.680172,-77.349496,Georgetown Rd/Williams St
185,37.562366,-77.262205,Mildale Rd/Wick Rd
160,37.595057,-77.288371,Via Farm Dr
160,37.721083,-77.769245,Saddlewood Ln
276,37.640367,-77.386475,/Atlee Rd
185,37.701067,-77.384824,/Chamberlayne Rd
160,37.606769,-77.336323,Harvest Ln/Walnut Grove Dr
185,37.750155,-77.770856,Bowles Knob Dr
160,37.585773,-77.270657,Cold Harbor Rd
185,37.670438,-77.296626,/Williamsville Rd
216,37.618028,-77.298759,/Walnut Grove Rd
160,37.657981,-77.374786,Swannanoa Trl/Elder Trl
305,37.738753,-77.496782,Heflin Ln
160,37.774266,-77.483200,Carter Forest Dr/N James St
160,37.643358,-77.289174,Pole Green Rd
185,37.681628,-77.280633,Cabin Ct
160,37.628680,-77.159139,Candleberry Dr/Old Church Rd
276,37.593236,-77.322851,/Cold Harbor Rd
160,37.759011,-77.651127,Saint Peters Church Rd/Country Garden Ln
185,37.630560,-77.390679,Summer Walk Pkwy/Silkwood Dr
185,37.743622,-77.395352,/Quail Oak Ct
160,37.598008,-77.338250,Sydnor Ln
276,37.556671,-77.263652,/Cold Harbor Rd
246,37.651956,-77.234268,/Mechanicsville Tpke
160,37.603742,-77.207592,/Parsleys Mill Rd
472,37.631069,-77.382858,Pleasant Grove Rd/
185,37.736768,-77.454967,/Ashcake Rd
658,37.580722,-77.329468,Creighton Rd/I- 295
788,37.604376,-77.343275,Cornfield Ct/Cornfield Ln
445,37.601218,-77.368774,Cold Harbor Rd
276,37.767956,-77.496841,/Thompson St
185,37.637486,-77.266362,Mechanicsville Tpke/Little Florida Rd
160,37.730782,-77.585036,Chewning Rd
390,37.623076,-77.325580,Woodbridge Rd
418,37.702170,-77.421583,Indianfield Dr
276,37.643880,-77.251857,/Mechanicsville Tpke
276,37.615669,-77.370043,Zorbas Ln/Shady Grove Rd
276,37.589743,-77.338155,Brooking Way/Adaline Ln
160,37.733038,-77.644918,/Howards Mill Rd
362,37.635512,-77.300901,/Jeff Dr
160,37.712457,-77.395166,/Stumpy Rd
246,37.689694,-77.455571,Lakeridge Square Ct/Lakeridge Pkwy/Lakeridge Sq Ct
246,37.586559,-77.322377,Powhite Farm Dr/Creighton Rd
216,37.692955,-77.390456,/Whippoorwill Rd
445,37.815525,-77.659559,W Patrick Henry Rd
160,37.604073,-77.313822,Buffridge Dr
276,37.660009,-77.409230,Atlee Station Rd
160,37.669247,-77.382132,Chamberlayne Rd
276,37.746553,-77.485107,Ashcake Rd
185,37.563900,-77.220110,Peace Rd/Longhorn Dr
305,37.621253,-77.379940,Crestline Ln/Landover Dr
276,37.725773,-77.678933,Pouncey Tract Rd/Rockville Rd/Walnut Hill Dr
552,37.760158,-77.471542,N Washington Hwy
185,37.623264,-77.298560,Walnut Grove Rd
246,37.720011,-77.650772,/Pouncey Tract Rd
216,37.675302,-77.420940,Still Creek Ln
216,37.629693,-77.356744,/Bell Creek Rd
160,37.589111,-77.279430,/Cold Harbor Rd
160,37.658088,-77.404256,Atlee Rd/Hollycroft Ct
160,37.840296,-77.750454,Double Cedar Rd
390,37.651157,-77.384348,/Wren Creek Ct
160,37.840398,-77.549607,/Scotchtown Rd
631,37.636903,-77.337476,/Pole Green Rd
185,37.817502,-77.655273,W Patrick Henry Rd
216,37.687559,-77.290976,/Gould Hill Rd
185,37.731843,-77.707247,Underwood Ct
160,37.716324,-77.640026,Howards Mill Rd
160,37.752474,-77.416483,/E Patrick Henry Rd
276,37.593322,-77.344302,Drinkard Ct
160,37.671109,-77.307940,/Buck Trl
390,37.608138,-77.347124,Wynbrook Ln/Meadow Dr
499,37.762330,-77.470125,Omni Rd/W Omni Ct
736,37.652982,-77.400581,Atlee Rd/Barnfield Ln
216,37.594006,-77.352034,Claybird Ln
185,37.631683,-77.394040,Birds Reach Ct
305,37.611748,-77.309525,Indian Trails Ct
305,37.632810,-77.341731,Hertfordshire Way
185,37.648301,-77.391461,/McFaye Ave
605,37.761159,-77.467493,Sweet Tessa Dr
334,37.595249,-77.335858,Civil Rd/Hebner Ln
160,37.646618,-77.399216,Studley Rd
185,37.650534,-77.237373,/Mechanicsville Tpke
160,37.863669,-77.692443,Beaver Dam Rd
160,37.720222,-77.561233,/Greenwood Rd
160,37.687514,-77.360178,Bosher Dr
185,37.789953,-77.740346,/Taylors Creek Rd
216,37.603774,-77.310820,Buffridge Dr/Creighton Rd
160,37.605514,-77.378383,Signal Hill Rd/Strain Ave
185,37.757413,-77.455899,Mechumps Dr/
185,37.690347,-77.349053,/Fire Ln
160,37.656739,-77.380186,Rodeo Dr
246,37.643130,-77.383015,/Shady Grove Rd
160,37.745303,-77.499887,Farmers Inn Ln/Elmont Rd
185,37.606172,-77.376922,Signal Hill Rd/Pickett Ave
334,37.745546,-77.469882,/Ashcake Rd
185,37.679833,-77.419163,Ivy Banks Dr/Ivy Banks Pl
362,37.613028,-77.302404,Old Estates Way/Pond Grass Rd
185,37.604785,-77.302763,Pamela-Louise Rd
185,37.658280,-77.389233,Mercury Ct/Jupiter Dr
160,37.625215,-77.224995,McClellan Rd
246,37.620692,-77.299568,Redvine Ln
185,37.642906,-77.331091,/Rural Point Rd
276,37.703275,-77.424339,State Rte 656/New Ashcake Rd
216,37.724333,-77.639792,/Howards Mill Rd
160,37.593986,-77.265700,/Labrador Ln
216,37.629447,-77.293608,/Mechanicsville Tpke
526,37.690785,-77.457858,Lakeridge Green Dr/Kestrel Dr/Ibis Dr
334,37.621031,-77.339848,Kiwi Ln/Lee Davis Rd
1020,37.688179,-77.451696,Sliding Hill Rd/I- 95
185,37.744724,-77.592477,/Mountain Rd
160,37.792098,-77.658692,Derby Ridge Rd/Derby Ct
276,37.702811,-77.425170,State Rte 656
160,37.769562,-77.482851,Amburn Ln/N James St
185,37.717896,-77.739999,Cedar Glade Ln/Dogwood Trail Rd
472,37.626641,-77.311333,Old Cavalry Dr/Rolling Forest Cir
160,37.627332,-77.392556,Newman Dr/Burnside Dr
445,37.635974,-77.347054,Pole Green Rd/Plum Grove Dr
605,37.647543,-77.407687,Cudlipp Ave/Breezewood Ave/Chamberlayne Rd
160,37.708597,-77.496869,Cedar Ln
216,37.758152,-77.364143,/Hanover Courthouse Rd
276,37.712885,-77.466904,/Old Telegraph Rd
276,37.618253,-77.316789,/Mechanicsville Tpke
160,37.749371,-77.451584,/Glen Carrie Rd
658,37.762221,-77.471577,Omni Rd/N Washington Hwy
160,37.855235,-77.449227,Doswell Rd
305,37.611062,-77.304507,Old Track Ln/Pond Grass Rd
160,37.826445,-77.610936,Countrywood Ln/W Patrick Henry Rd
185,37.702401,-77.435837,/Lickinghole Rd
246,37.684454,-77.393233,Springton Rd/Patrick Henry Blvd
185,37.709388,-77.346229,/Chestnut Church Rd
160,37.686455,-77.281844,Mantilo Creek Rd
160,37.891810,-77.518211,/Verdon Rd
160,37.814732,-77.668063,Mountain Rd
216,37.683264,-77.419495,Charter Point Ct
185,37.562442,-77.227114,McClellan Rd
334,37.721075,-77.450089,/Lewistown Rd
579,37.658677,-77.400917,New Holland Ln
160,37.710120,-77.486515,W Abby Ct/Caruthers Way
526,37.598982,-77.375178,Zip Dr
305,37.686761,-77.418819,Stratford Hall Ct/Kings Charter Dr/Wanchese Way
216,37.614183,-77.325065,/Adams Farm Rd
185,37.695604,-77.408720,Aldingham Pl/Summer Grove Rd
160,37.649477,-77.389072,Rural Crosse Dr
216,37.744533,-77.358471,/Hanover Courthouse Rd
185,37.708106,-77.466104,/Washington Hwy
185,37.623014,-77.273067,Little Florida Rd/Shall Dr
160,37.747658,-77.524211,Ashcake Rd/Deer Crossing Trl
160,37.617173,-77.298722,/Walnut Grove Rd
185,37.623075,-77.298633,/Walnut Grove Rd
276,37.593957,-77.273177,Beulah Church Rd
160,37.842339,-77.585391,Scotchtown Rd/Chiswell Ln
160,37.731267,-77.376268,Cadys Mill Rd
160,37.619640,-77.390344,Ellerson Farm Dr/Carneal Ln
160,37.597449,-77.368693,Jennifer Ln/Edgewood Rd
160,37.722798,-77.767235,Pinhook Rd/Lavaga Dr
246,37.746715,-77.485775,Ashcake Rd
160,37.594991,-77.288256,General Smith Dr//Via Farm Dr
185,37.726211,-77.366844,/Peaks Rd
305,37.676828,-77.431286,Woodglen Dr/Ashking Dr
605,37.713760,-77.447393,Air Park Rd/Barret Park Rd
362,37.698942,-77.424403,Milestone Dr
185,37.708851,-77.443339,Air Park Rd/Leadbetter Rd
362,37.633031,-77.350471,Hanover Grove Blvd/Hanover Grove Ln
216,37.605177,-77.306129,Pamela-Louise Rd
499,37.635629,-77.342275,Rumhill Ct
276,37.588384,-77.335995,Brooking Ct
160,37.700743,-77.488029,Old Washington Hwy
1381,37.758855,-77.481395,England St/Thompson St/S Railroad Ave/N Railroad Ave
185,37.690652,-77.465633,/Cedar Ln
185,37.665925,-77.378192,Kenna Way
160,37.753367,-77.469479,Arbor Oak Dr
246,37.630868,-77.346605,Spicewood Dr
160,37.739232,-77.426716,/Mount Hermon Rd
246,37.635708,-77.390846,/Briarthorn Ct
362,37.631542,-77.378085,/I- 295
160,37.709970,-77.682900,Echo Meadows Rd/Rockville Rd
160,37.696822,-77.399023,/Lincoln Rd
216,37.695372,-77.371158,Smithport Dr/Pine Ridge Rd
216,37.654744,-77.413070,Giles Farm Rd
552,37.601015,-77.368288,Stonewall Pkwy/Stonewall Dr/Cold Harbor Rd
185,37.569623,-77.237464,/Market Rd
305,37.605827,-77.366322,/Mechanicsville Tpke/Mechanicsville Byp
160,37.735941,-77.554278,Ashland Rd
246,37.618747,-77.367665,Lou Ln
160,37.726524,-77.767142,/Pinhook Rd
2977,37.758688,-77.463028,England St/S Carter Rd/E Patrick Henry Rd
246,37.596870,-77.380978,Mechanicsville Tpke
160,37.751581,-77.414237,E Patrick Henry Rd
160,37.638706,-77.415870,Richfood Rd/Old Richfood Rd
185,37.767578,-77.677098,/Estate Ln
185,37.602728,-77.365980,Grant Dr/Park Dr
216,37.602295,-77.329170,Walnut Grove Rd/Bluebird Way
276,37.664583,-77.375118,Crown Colony Pkwy
305,37.632941,-77.288688,/Mechanicsville Tpke
160,37.789508,-77.467137,Washington Hwy
216,37.686026,-77.419439,Stratford Hall Ct
160,37.613968,-77.336393,Calmar Dr/Sujen Ct
160,37.632755,-77.313675,Dillonshire Ct/Southern Watch Pl
160,37.644732,-77.381572,/Academy Dr
160,37.625873,-77.325819,Surry Ct
185,37.826488,-77.597882,Scotchtown Rd/W Patrick Henry Rd
185,37.679156,-77.429172,/Atlee Station Rd
185,37.612665,-77.300438,Old Estates Way/Colts Neck Rd/Walnut Grove Rd
185,37.632153,-77.389015,Ellerson Green Cir
276,37.854813,-77.531825,/Old Ridge Rd
185,37.662382,-77.372320,Saddle Ct
390,37.700040,-77.424019,Winnepeg Ct
160,37.715012,-77.485304,Cobbs Rd
160,37.728605,-77.382908,Cady Ln/
160,37.746925,-77.487310,Hancock Place Ln/Ashcake Rd
362,37.632192,-77.313664,Rosemary Dr/Southern Watch Pl
216,37.770164,-77.371229,Normans Bridge Rd/Hanover Courthouse Rd
362,37.612945,-77.303461,Old Estates Way
334,37.685637,-77.183538,Mechanicsville Tpke
216,37.823672,-77.687993,/Mountain Rd
2061,37.758246,-77.467774,England St
185,37.562558,-77.262650,Wick Rd
1485,37.608242,-77.355026,Battle Hill Dr/Bell Creek Rd
160,37.714390,-77.396980,/Stumpy Rd
472,37.624923,-77.305758,/Mechanicsville Tpke
160,37.723558,-77.368631,/Hanover Courthouse Rd
276,37.615440,-77.366362,Zorbas Ln
160,37.784390,-77.564507,Deer Creek Rd
160,37.704822,-77.519946,/Greenwood Rd
160,37.826570,-77.606472,Country Pines Ln/W Patrick Henry Rd
160,37.634809,-77.302843,/Jeff Dr
216,37.634223,-77.338507,/Lee Davis Rd
160,37.830092,-77.646990,/Goshen Rd
362,37.623139,-77.310652,/Mechanicsville Tpke
362,37.596788,-77.354308,/Ellerson Mill Cir
160,37.628744,-77.161017,/Old Church Rd
216,37.611285,-77.375041,/Fullview Ave
160,37.814505,-77.666783,Mountain Rd
160,37.720700,-77.437981,Virginia Crane Dr/Ashcake Rd
445,37.768164,-77.474357,School St/Berkley St
185,37.632556,-77.306805,Reunion Dr/Old Cavalry Dr
185,37.875429,-77.726161,/Old Ridge Rd
305,37.666951,-77.415504,Honey Meadows Rd/Atlee Station Rd
216,37.720713,-77.450735,Lewistown Rd
160,37.684598,-77.401450,New Britton Rd/New Ashcake Rd
160,37.805385,-77.656822,Mountain Rd/Wild Cherry Ln
160,37.653983,-77.359076,Grantham Dr/Kentford Cir
418,37.625632,-77.303856,Ladiestown Rd/Mechanicsville Tpke
246,37.749244,-77.479020,Slash Dr/Slash Ct
160,37.696127,-77.457569,Old Telegraph Rd
160,37.788173,-77.644731,/Mountain Rd
305,37.694867,-77.383736,Whippoorwill Rd/Chamberlayne Rd
160,37.608487,-77.395732,Thebrix Ct/Windsor Dr
160,37.902777,-77.541919,Verdon Rd
185,37.726128,-77.444667,/Ashcake Rd
246,37.679389,-77.384000,Georgie Ct/Georgie Dr
710,37.700164,-77.464141,Washington Hwy
216,37.605817,-77.139862,Devils Three Jump Dr
334,37.699736,-77.414252,Ridgebrook Dr/Crossover Dr
185,37.616080,-77.397066,Loganberry Ct/Mary Mundie Ln
160,37.777866,-77.658414,Waltons Tavern Rd
276,37.689523,-77.429592,Agecroft Manor Ct/Kings Charter Dr
216,37.582612,-77.296059,Pohite Dr/Gaulding Rd
160,37.610817,-77.398030,Kelshire Trce
160,37.819357,-77.474272,Old Ridge Rd/Washington Hwy
362,37.655382,-77.405994,Atlee Station Rd/Pelot Pl
216,37.698406,-77.431954,State Rte 656/Air Park Rd
246,37.723459,-77.453087,/Sunshade Ln
160,37.687345,-77.408706,Linderwood Dr/Brickerton Dr/Tarleton Dr
160,37.835949,-77.645755,/Goshen Rd
160,37.591172,-77.264479,/Rockhill Rd
216,37.643462,-77.389096,/Atlee Rd
418,37.580320,-77.296512,Camille Cir
160,37.630683,-77.334330,Hawks Hill Ln/Christopher Paul Dr
276,37.639519,-77.267840,Knight Dr/Pole Green Rd
246,37.628773,-77.294607,Mechanicsville Tpke
552,37.761371,-77.467506,Sweet Tessa Dr
160,37.676455,-77.309352,Studley Rd
160,37.558021,-77.256725,/Market Rd
160,37.773096,-77.447675,Ambys Ln/Woodside Ln
839,37.758217,-77.471504,S Washington Hwy
160,37.601877,-77.321946,Merle Smith Ln/Kennedy Ct
185,37.667660,-77.380722,Assembly Way/Evanston Ln
160,37.640252,-77.269915,/Pole Green Rd
276,37.643467,-77.252755,Mechanicsville Tpke
185,37.829720,-77.606914,/Country Pines Ln
362,37.671297,-77.426479,Hope Glen Ct/Fawn Park Ln
246,37.766359,-77.370089,E Patrick Henry Rd/Hanover Courthouse Rd
160,37.597237,-77.310583,Creighton Rd/Sandy Valley Rd
216,37.634380,-77.282753,/Mechanicsville Tpke
499,37.632350,-77.326428,Gemstone Pl/Sherrington Dr
160,37.715839,-77.621180,/Ashland Rd
185,37.708980,-77.344501,Chestnut Church Rd
185,37.753324,-77.488363,Race Course St/Dale Ave
160,37.744638,-77.705848,Pouncey Tract Rd/Bienvenue Rd
418,37.710368,-77.342835,Antler Ln/
160,37.704424,-77.506015,/Holly Berry Rd
160,37.644216,-77.284986,/Pole Green Rd
185,37.732155,-77.360318,Cedarcrest Rd/Hanover Courthouse Rd
160,37.724012,-77.639677,/Howards Mill Rd/Journey Ln
631,37.759730,-77.459427,E Patrick Henry Rd/I- 95
160,37.850603,-77.660750,/Parrish Farm Rd
276,37.751888,-77.485463,Duncan St/W Francis St
276,37.634360,-77.282094,/Mechanicsville Tpke
160,37.738910,-77.674774,/Henley Rd
216,37.713828,-77.483407,Old Scotland Rd/Anne Gate Ct
418,37.703263,-77.420605,Fair Hill Ct
185,37.739093,-77.586650,Mountain Rd/Chewning Rd
185,37.630157,-77.336228,Prism Ct
216,37.723175,-77.607543,/Ashland Rd
160,37.740021,-77.545234,Ashland Rd
185,37.634380,-77.396625,Shady Ridge Ln/Springset Ln
160,37.682336,-77.427643,Ravensworth Ct/Atlee Ridge Rd
216,37.713149,-77.467367,Washington Hwy
185,37.794378,-77.543199,W Patrick Henry Rd
246,37.636517,-77.388216,Marc Gregory Ct
160,37.584582,-77.287397,Cold Harbor Rd
185,37.603672,-77.275474,Cabell Pl/Truex Pl
160,37.886366,-77.465676,Washington Hwy
185,37.657920,-77.334288,Rural Point Rd/Mattawan Trl
185,37.642588,-77.196316,/Old Church Rd
216,37.656499,-77.333478,Rural Point Rd/Springhill Rd
216,37.633767,-77.333703,Christopher Paul Dr/Henrietta Ct
160,37.679626,-77.423819,Drawbridge Rd
160,37.933901,-77.641366,/Beaverdam School Rd
390,37.756064,-77.466958,/Junction Dr
160,37.640102,-77.410603,Barricade Ln
334,37.634502,-77.343330,Ryegate Pl
216,37.610255,-77.380345,Sunshine Ct/Sawyer Ln
160,37.844388,-77.465230,Mount Hope Church Rd/Washington Hwy
185,37.630411,-77.308150,Old Cavalry Dr
185,37.607305,-77.218281,McClellan Rd
160,37.774351,-77.549339,Stagg Trail Rd
185,37.578396,-77.233183,Rockhill Rd
276,37.736515,-77.563058,/Ashland Rd
526,37.610856,-77.348372,Kenmore Dr/Mechanicsville Tpke
185,37.642789,-77.196783,/Old Church Rd
160,37.646921,-77.387831,Winter Spring Dr/Snowstraw Pl
710,37.581109,-77.328763,Creighton Rd/I- 295
605,37.624879,-77.389246,/Atlee Rd
246,37.691549,-77.550821,Overhill Lake Ln
216,37.776693,-77.516641,W Patrick Henry Rd
390,37.697435,-77.424076,Silverthorn Ct
185,37.806542,-77.474116,/Attkisson Rd
160,37.599100,-77.326785,Queens Lace Rd/Lereve Dr
185,37.822578,-77.649824,W Patrick Henry Rd
276,37.643775,-77.389789,Atlee Springs Dr/Atlee Rd/Quailfield Rd
631,37.607540,-77.361148,I- 295/Mechanicsville Tpke
185,37.646528,-77.409440,/Chamberlayne Rd
1200,37.757481,-77.459077,I- 95
216,37.623410,-77.336073,Evergreen Ln/Solitude Ln
445,37.633998,-77.276236,Mechanicsville Tpke
216,37.727244,-77.582397,/Mountain Rd
160,37.639348,-77.261732,/Mechanicsville Tpke
246,37.649729,-77.239705,Mechanicsville Tpke
160,37.764564,-77.367482,/County Complex Rd
246,37.679553,-77.369838,Rural Point Rd/Rolling Stone Ln
276,37.639605,-77.300339,Pole Green Rd
185,37.745995,-77.594307,Mountain Rd
216,37.631101,-77.356530,Bell Creek Rd
160,37.655282,-77.227007,Mechanicsville Tpke/Spring Run Rd
390,37.595184,-77.332159,Harbor Dr/Port Ln
246,37.744508,-77.468799,/Ashcake Rd
276,37.751189,-77.481469,Virginia St/E Francis St
334,37.612743,-77.383247,Strain Ave/Windsor Dr
160,37.704126,-77.483215,Cedar Ln/Old Farmhouse Ln
160,37.656615,-77.374224,Swannanoa Trl/Matedequin Trl
160,37.839038,-77.455752,Binns Rd
865,37.624080,-77.389129,Atlee Rd/Meadowbridge Rd
160,37.822892,-77.635707,W Patrick Henry Rd
160,37.588638,-77.280986,/Cold Harbor Rd
472,37.615673,-77.369227,Zorbas Ln/Windflower Ct
216,37.637670,-77.387569,Atlee Rd/Marc Gregory Ct
865,37.760406,-77.480395,/College Ave
216,37.695334,-77.371056,/Pine Ridge Rd
185,37.632174,-77.388575,Ellerson Green Cir/Ellerson Green Pl
334,37.778663,-77.519807,Blanton Rd/W Patrick Henry Rd
246,37.756612,-77.481911,Maiden Ln/S Center St
160,37.696794,-77.410975,Walnut Spring Pl
160,37.751074,-77.411114,/E Patrick Henry Rd/Tarrers Ln
216,37.677940,-77.424574,/Atlee Station Rd
185,37.736915,-77.488291,/Center Street Rd
216,37.654614,-77.366974,Wrenwood Dr/Studley Rd
185,37.831316,-77.462185,Taylorsville Rd
305,37.707490,-77.439210,/Air Park Rd
390,37.630586,-77.340334,Lee Davis Rd/Meredith Farms Dr
472,37.765364,-77.470842,Holly Green Ct
160,37.709826,-77.418913,State Rte 656/Country Side Ln
362,37.849461,-77.447317,International St
362,37.631396,-77.299103,Green Top Ct
160,37.585525,-77.213993,/Westwood Rd
472,37.689743,-77.413075,Grendel Ct
160,37.754624,-77.423987,E Patrick Henry Rd
160,37.860532,-77.455838,/Doswell Rd
246,37.624384,-77.345959,/Trinity Way Ct
160,37.759030,-77.489092,/S Snead St
185,37.687169,-77.427267,Kings Charter Dr/Perrins Mill Ln
185,37.746959,-77.477656,/Ashcake Rd
334,37.636694,-77.341056,Pole Green Rd
185,37.784335,-77.465999,Washington Hwy
160,37.783196,-77.716426,Janets Ln/Taylors Creek Rd
1877,37.763507,-77.476989,/Henry St
160,37.713944,-77.638846,/Howards Mill Rd
216,37.696247,-77.435026,State Rte 656/
160,37.812565,-77.591785,Three Oaks Ter/Three Oaks Ln
160,37.694691,-77.472438,/Cedar Ln
185,37.843191,-77.541117,Rocketts Mill Rd
390,37.765500,-77.469489,Brigade Ct
160,37.590238,-77.203210,/Westwood Rd
185,37.600751,-77.338415,Pond Way
160,37.714564,-77.397215,/Stumpy Rd
2274,37.761333,-77.477633,Henry St/Caroline St
185,37.601670,-77.177876,Westwood Rd/Flannigan Mill Rd/Hopewell Rd
684,37.758563,-77.474160,England St/Randolph St
160,37.648960,-77.336752,Birchbark Ct/Birchbark Ln
305,37.603396,-77.325089,Walnut Grove Rd/Travellers Way
160,37.621803,-77.224325,McClellan Rd/Crown Hill Rd
185,37.699767,-77.400870,Anderson Ct/Cheraw Rd
160,37.595581,-77.269590,/Crown Hill Rd
552,37.759106,-77.473327,/Louisiana St
917,37.688283,-77.451128,Sliding Hill Rd
390,37.785152,-77.459608,I- 95
160,37.732971,-77.442259,Cheroy Woods Ln/Cheroy Woods Ct
472,37.626330,-77.330966,Tiffany Ln/Bellflower Cir
160,37.701549,-77.456158,Sycamore Dr
160,37.822671,-77.686816,Mountain Rd/Sycamore Tavern Ln
160,37.606783,-77.295881,Colts Neck Rd
579,37.629215,-77.372361,Pole Green Rd/I- 295/Meadowbridge Rd
276,37.623815,-77.355996,/Bell Creek Rd
160,37.698565,-77.283896,Arrowhead Rd/Gould Hill Rd
160,37.844889,-77.664208,/Robert Terrell Rd
276,37.639549,-77.395993,Quailfield Rd
246,37.667680,-77.205878,/Mechanicsville Tpke
160,37.637264,-77.303524,Walnut Branch Dr
418,37.768528,-77.478065,Berkley St/N Center St
305,37.634922,-77.321361,Pole Green Rd
160,37.851295,-77.432358,/Kings Dominion Blvd
418,37.689300,-77.462613,Washington Hwy
160,37.693381,-77.380454,Pine Ridge Rd/Simmons Farm Rd
185,37.667989,-77.379549,Assembly Way
216,37.629028,-77.392150,Reeds Grove Ln/Redberry Ln
246,37.693470,-77.463079,/Washington Hwy
216,37.618282,-77.247288,Beattiemill Ct
160,37.674847,-77.314729,Studley Rd
160,37.765208,-77.533478,/Blanton Rd
160,37.887842,-77.465963,Washington Hwy
185,37.806942,-77.473067,Washington Hwy
185,37.636204,-77.327438,Greenback Dr/Treasure Ct
276,37.625022,-77.301653,Ladiestown Rd
160,37.784248,-77.658251,Waltons Tavern Rd
185,37.707698,-77.405255,Linderwood Dr
1200,37.658279,-77.386347,Shady Grove Rd/Chamberlayne Rd
305,37.601267,-77.362029,East Blvd/Park Dr
472,37.869519,-77.454299,I- 95
305,37.619290,-77.301537,Green Haven Dr/Northfall Creek Pkwy
160,37.644386,-77.220347,/Old Church Rd
216,37.768919,-77.480960,Park Ave/Elm St
1097,37.709969,-77.447574,/Air Park Rd
160,37.777582,-77.526503,Blanton Rd
305,37.849003,-77.442594,Kings Dominion Blvd
185,37.755790,-77.605705,/Mountain Rd
160,37.707331,-77.494428,Cedar Ln
216,37.771506,-77.478121,Vaughan Rd/
160,37.730914,-77.471007,Success St/Washington Hwy
445,37.611929,-77.328375,Washington Arch Dr
185,37.648620,-77.336003,/Birchbark Ln
334,37.617805,-77.304772,Havenview Dr
526,37.606200,-77.341924,Lauralee Cir/Sunnyhill Dr
185,37.623979,-77.211843,/Deep Bottom Rd
185,37.654211,-77.369825,Robin Ridge Dr/Studley Rd
305,37.694958,-77.436704,/State Rte 656
305,37.629783,-77.329864,J David Ln/Brandy Ct
305,37.650339,-77.397129,Ruteland Rd/Alpha St
160,37.737431,-77.549178,/Ashland Rd
390,37.560463,-77.295285,I- 295
246,37.650928,-77.385316,Cardinal Creek Dr/Quail Creek Dr
160,37.716784,-77.460147,Fox Cross Rd
216,37.679631,-77.456306,/Telegraph Rd
526,37.761530,-77.461604,N Carter Rd/
160,37.742953,-77.471246,Washington Hwy
362,37.609243,-77.349467,Colony Dr/Wynbrook Ln
185,37.687641,-77.433486,Aynhoe Ct
185,37.719484,-77.453354,N Lakeridge Pkwy
216,37.630706,-77.292034,/Mechanicsville Tpke
246,37.746433,-77.484624,Ashcake Rd
160,37.819844,-77.685723,/Mountain Rd
160,37.740590,-77.433896,Royal Oak Ln/Mount Hermon Rd
813,37.763280,-77.475108,/Calhoun St
246,37.646793,-77.383352,/Shady Grove Rd
1304,37.761129,-77.476719,/Caroline St
160,37.613975,-77.351337,Colony Dr/Woodberry Dr
160,37.658386,-77.320629,Feather Ln/Pine Slash Rd
445,37.630832,-77.382527,Pleasant Grove Rd/
160,37.815042,-77.577820,Whitewood Ln/Cripple Creek Ln/W Patrick Henry Rd
390,37.649590,-77.345086,Lunette Ln/Gabion Ln
185,37.643520,-77.354573,/Verdi Ln
185,37.634681,-77.333416,Legacy Park Dr/Golden Oak Ln
160,37.723514,-77.407946,Stumpy Rd
216,37.735591,-77.451641,Ashcake Rd/Cheroy Rd
185,37.658690,-77.413460,Coleman Rd/Howard Dr
246,37.670238,-77.420881,Sunny Oak Dr
160,37.662454,-77.404126,/Cool Spring Rd
160,37.611359,-77.371467,Delkin Cir/Arnoka Rd
305,37.635011,-77.343006,Colemanden Dr
788,37.600906,-77.348777,/Bell Creek Rd
160,37.762102,-77.750270,Spring Rd/
185,37.710775,-77.631013,/Two Pond Ln
185,37.719400,-77.453051,/Lewistown Rd
418,37.597750,-77.379746,Mechanicsville Tpke/Mechanicsville Byp
216,37.670735,-77.422897,Deer Stream Dr/Summer Oak Dr
276,37.638569,-77.307435,Pole Green Rd/Fenne Farm Dr
160,37.648527,-77.394156,Sherton Ct
246,37.618525,-77.367161,Darva Glen
185,37.661083,-77.359214,Blagdon Dr
160,37.639657,-77.298997,/Pole Green Rd
160,37.915191,-77.697021,Shiloh Church Rd
160,37.718569,-77.402711,Peaks Rd/Stumpy Rd
579,37.736024,-77.452853,I- 95/Ashcake Rd
216,37.709168,-77.486398,Walsinghamtown Ct
276,37.613709,-77.381757,Moritz Ln/Windsor Dr
160,37.675507,-77.322472,/Studley Rd
185,37.744457,-77.358465,Hanover Courthouse Rd
216,37.601601,-77.381047,Eagle Dr/Elm Dr
160,37.598888,-77.362051,/Cold Harbor Rd
185,37.633661,-77.333121,Henrietta Ct
552,37.759027,-77.483038,Duncan St/Thompson St
216,37.618713,-77.393724,Wonderland Ln/Ellerson Station Dr
185,37.642057,-77.415550,Old Richfood Rd
276,37.647350,-77.244902,/Mechanicsville Tpke
788,37.763449,-77.460458,/I- 95
216,37.646390,-77.355485,/Verdi Ln
160,37.694317,-77.398433,Lincoln Rd/Truman Rd
216,37.771512,-77.477218,Henry St
185,37.711241,-77.394285,/Stumpy Rd
334,37.594653,-77.337869,Ancient Oak Dr/Bartletts Bluff Rd
160,37.610351,-77.382227,Oatman Ct
160,37.601577,-77.252041,Valley Creek Dr/Crown Hill Rd
160,37.708070,-77.702658,Echo Meadows Rd/Rosemont Dr
185,37.607587,-77.384007,Ford Ave/Barnette Ave
1433,37.629583,-77.386284,Grove Rd
160,37.606984,-77.381029,Edgeworth Rd/Oak St
246,37.723703,-77.364172,/Georgetown Rd
160,37.756589,-77.437407,Burleigh Dr/E Patrick Henry Rd
160,37.578374,-77.198577,/Boundary Run Dr
334,37.608227,-77.351731,Croftwood Dr/Hunterbrook Dr
216,37.602628,-77.382494,Elm Dr
334,37.760137,-77.488722,Thompson St/N Snead St/S Snead St
160,37.733872,-77.587134,/Chewning Rd
216,37.693476,-77.388960,/Whippoorwill Rd
276,37.656116,-77.408355,Giles Farm Rd
160,37.599670,-77.314259,/Marimel Ln
526,37.599708,-77.368330,Garden Park Ln
160,37.671975,-77.381259,/Chamberlayne Rd
246,37.635687,-77.269684,Mechanicsville Tpke
305,37.721428,-77.469393,Cobbs Rd/Washington Hwy
185,37.694419,-77.457781,Old Telegraph Rd
160,37.722720,-77.655426,Pouncey Tract Rd
1956,37.608254,-77.355172,Battle Hill Dr/Bell Creek Rd
216,37.719651,-77.682301,Franklin Hills Dr/Rockville Rd
160,37.612225,-77.312985,Silktree Pl/Yellowrose Ln
160,37.619027,-77.245968,Sinclair Rd/Doolittle Dr
216,37.775105,-77.508278,W Patrick Henry Rd
246,37.625986,-77.302108,Ladiestown Rd/Mechanicsville Tpke
362,37.766869,-77.477243,A St/B St
552,37.635004,-77.350606,Pole Green Rd/Hanover Grove Blvd
276,37.603342,-77.325808,/Walnut Grove Rd
160,37.731847,-77.662180,Mlc Ln/S Anna Dr
160,37.659498,-77.324021,Mattawan Trl
216,37.563163,-77.261414,Cold Harbor Rd
390,37.697118,-77.423842,Stone Spring Dr/Silverthorn Ct
160,37.640224,-77.269826,Pole Green Rd
216,37.618442,-77.354258,Lynmar Ln/Alpen Ln
185,37.720435,-77.575689,/Mountain Rd
160,37.957098,-77.699289,Tyler Station Rd
552,37.677715,-77.415516,Ashley Manor Ln/Kings Charter Dr
216,37.633957,-77.397168,Springset Ln
390,37.688207,-77.289841,/Gould Hill Rd
216,37.771550,-77.477591,Vaughan Rd/
185,37.587803,-77.325954,Card Trce/Dairy Dr/Neils Trce
276,37.607522,-77.335359,Lee Davis Rd/Lark Way/Walnut Grove Dr
185,37.694705,-77.386066,/Whippoorwill Rd
276,37.685727,-77.418024,Burkes Garden Pl/Grace Manor Ct/Kings Charter Dr
216,37.680507,-77.189627,Mechanicsville Tpke
216,37.590123,-77.325784,Chance Trce
160,37.754576,-77.423503,/E Patrick Henry Rd
160,37.685534,-77.464150,/Colonial Estates Ct
185,37.753103,-77.487031,Race Course St/S James St
216,37.598222,-77.365996,Tack Room Dr
160,37.648746,-77.372527,Strawhorn Dr
160,37.589081,-77.279536,/Cold Harbor Rd
185,37.681945,-77.258411,Wyngate Ln
160,37.639602,-77.415844,/Old Richfood Rd
1174,37.691513,-77.441612,Crosswhitts Dr/Beechwood Center Dr
185,37.643103,-77.349658,Verdi Ln/Havelock Ln
160,37.791380,-77.680184,Canterbury Rd
246,37.677500,-77.193370,/Mechanicsville Tpke
160,37.719067,-77.401466,Peaks Rd/Stumpy Rd
160,37.710910,-77.485861,Old Scotland Rd
216,37.673890,-77.420587,/Still Creek Ln
160,37.800694,-77.760980,Taylors Creek Rd
552,37.760631,-77.467604,Trotter Mill Close
1304,37.759150,-77.468112,Trotter Mill Close/Cottage Greene Dr
472,37.709743,-77.636694,Pouncey Tract Rd/Ashland Rd
160,37.851616,-77.530241,/Old Ridge Rd
216,37.699078,-77.354716,Brahma Dr/Sugarloaf Dr
185,37.618702,-77.308707,Goodlife Ct
445,37.765293,-77.469774,Kings Arms St/Bruton Parrish Dr/Brigade Ct
276,37.749413,-77.477512,Slash Ct
216,37.598719,-77.361173,Catlin Rd/Cold Harbor Rd
160,37.856687,-77.532277,/Old Ridge Rd
334,37.649815,-77.401756,Chamberlayne Rd
305,37.687777,-77.290596,Gould Hill Rd
216,37.602749,-77.348151,Peach Orchard Ln/Whipper Ln
943,37.617358,-77.319067,Creighton Pkwy/Mechanicsville Tpke
2274,37.762853,-77.477175,E Patrick St/Henry St
390,37.756320,-77.476028,/S Taylor St
362,37.656855,-77.387985,/Chamberlayne Rd
390,37.646753,-77.246206,Studley Rd/Mechanicsville Tpke/Old Church Rd
185,37.746853,-77.481815,Maple St
276,37.941807,-77.659188,/Trainham Rd
276,37.596500,-77.381436,/Mechanicsville Tpke
160,37.743019,-77.443641,Cheroy Rd
216,37.650437,-77.345170,Lunette Ln
160,37.653263,-77.180048,Epps Rd
185,37.732208,-77.429016,Landcastle Dr/Campbell Creek Rd
762,37.687981,-77.453833,Sliding Hill Rd
160,37.645004,-77.249416,Mechanicsville Tpke
418,37.654414,-77.408822,Pelot Pl/Harvey Hollow Dr
160,37.740586,-77.496474,Frederick Ln
185,37.637333,-77.358469,Left Flank Rd
160,37.697875,-77.315232,Blackbear Trl
552,37.677067,-77.417234,Amelia Manor Ct/Kings Charter Dr
160,37.749734,-77.654417,/Howards Mill Rd
160,37.677124,-77.330483,Studley Rd/Studley Acres Ln
276,37.756840,-77.485869,Stebbins St/S James St
216,37.707391,-77.482014,Scots Quarter Rd/Puttinham Ct
160,37.708021,-77.388124,Owl Ln/Waldens Pond Ln
160,37.647899,-77.359315,Academy Creek Ln
658,37.645409,-77.413799,I- 295
390,37.743519,-77.471250,Washington Hwy
3419,37.758470,-77.462969,S Carter Rd
160,37.632959,-77.305128,Old Cavalry Dr/Old Calvary Ct
418,37.683897,-77.383435,Old Lansdown Rd/Fort Myers Rd
334,37.655332,-77.402061,Center Oak Ct
631,37.636647,-77.325143,Pole Green Rd/Sherrington Dr
526,37.890278,-77.457788,I- 95
246,37.674503,-77.433276,N Rinker Ct
684,37.776171,-77.461808,I- 95/Jamestown Rd
160,37.687427,-77.425871,Berkeley Manor Dr/Kings Charter Dr
246,37.641588,-77.392371,Lucord Ln/Quailfield Rd
246,37.792311,-77.540525,W Patrick Henry Rd
185,37.617895,-77.383255,S Mayfield Ln/Atlee Rd
185,37.704394,-77.384230,/Chamberlayne Rd
160,37.648589,-77.396019,Ruteland Rd/Studley Rd
216,37.813734,-77.728441,Bourne Rd
160,37.626153,-77.338743,Bobcat Ln
216,37.705201,-77.384094,/Chamberlayne Rd
418,37.636306,-77.396094,Jane Lee Cir/Holly Ridge Rd
605,37.754971,-77.473856,/Randolph St
216,37.635214,-77.330842,Legacy Park Dr/Midday Ln
160,37.590947,-77.320925,Simpkins Ct
185,37.697439,-77.384331,Chamberlayne Rd
334,37.634832,-77.300903,Hanover Meadow Dr
160,37.679101,-77.384914,Georgie Ct
445,37.690040,-77.412527,Grendel Ct/Minglewood Ln
216,37.746552,-77.473385,Dabney Ln/Ashcake Rd
246,37.597043,-77.343410,Janet Ln
160,37.780579,-77.535362,/Liberty School Rd
246,37.635451,-77.311456,Thyme Dr/Tarragon Dr
216,37.628815,-77.332376,Whiskey Hill Ln/Angela Nicole Ln
334,37.686683,-77.410841,Red Finch Ct/Brickerton Dr
305,37.602940,-77.368772,Ambrose Dr/Early Dr
579,37.657736,-77.407651,Atlee Station Rd
216,37.759905,-77.723696,Big Rock Ln
246,37.658642,-77.356957,Penrith Dr
276,37.733937,-77.631296,W Fork Dr
418,37.622160,-77.349064,/Loralea Dr
160,37.622988,-77.157379,Dressage Way/Candleberry Dr
160,37.783168,-77.603964,/Stone Trace Dr
216,37.737481,-77.658949,S Anna Dr/Loblolly Ln
418,37.596750,-77.354130,/Ellerson Mill Cir
160,37.890630,-77.646546,Circuit Rider Dr/Buckfast Pl
160,37.777946,-77.612413,/Scotchtown Rd
160,37.761767,-77.533650,Blanton Rd
605,37.725161,-77.449853,I- 95
605,37.693990,-77.413004,Morning Dew Ln
160,37.825523,-77.701726,Rockford Rd
276,37.690992,-77.431204,Kings Charter Dr/Rose Garden Path
185,37.814840,-77.728215,/Bourne Rd
276,37.639415,-77.267540,Pole Green Rd
216,37.698977,-77.452936,Cedar Ridge Dr/Lakeridge Pkwy
160,37.665418,-77.395879,Knollwood Ct/Blakeridge Ave
246,37.698970,-77.452649,/Cedar Ridge Dr
160,37.630856,-77.335486,Hawks Hill Ln/Shane Edmonds Ln
246,37.629362,-77.337695,Willdosh Ct
160,37.616208,-77.298861,Walnut Grove Rd
185,37.734613,-77.662334,Birchleaf Cir/Goldmine Ln/Birchleaf Dr
216,37.620732,-77.338838,Kiwi Ln/Cypresstree Ln
334,37.692847,-77.383267,Chamberlayne Rd
160,37.609366,-77.321453,Bunker Hill Dr
246,37.602720,-77.376265,Public Ln/Dogwood Pl
160,37.597162,-77.367805,Jennifer Ln/Jennifer Cir/Brook Way
334,37.610422,-77.369621,Shady Grove Rd/Ridge View Rd
160,37.769855,-77.476660,NW Henry Ln
160,37.643726,-77.394330,Stywalt Ln/Rollins Ln
160,37.759607,-77.735044,Oakdale Ter/Owen Farm Ln
246,37.679052,-77.419354,Ivy Banks Pl
160,37.930911,-77.594274,Verdon Rd
160,37.703490,-77.413821,Greenlake Cir/Tally Ho Dr
160,37.680178,-77.461724,Washington Hwy
216,37.635864,-77.390900,/Briarthorn Ct
160,37.750343,-77.462473,S Hill Carter Pkwy
2623,37.758347,-77.466621,England St
185,37.726200,-77.638802,Shamrock Farms Ct/Abner Church Rd
362,37.692944,-77.391353,/Whippoorwill Rd
185,37.617679,-77.309758,Havenview Dr/Lake Haven Dr
160,37.828717,-77.695680,Mountain Rd/Burnham Davis Rd
185,37.632912,-77.334233,Christopher Paul Dr/Cory Lee Ct
216,37.611050,-77.321562,Lexington Dr
334,37.628219,-77.310192,Old Cavalry Dr/Stronghold Dr
334,37.602965,-77.320528,Cactus Rd/Violet Cir
160,37.588374,-77.281725,Boatswain Ln/Cold Harbor Rd
579,37.591476,-77.344496,I- 295
216,37.683006,-77.419732,Charter Point Ct/Charter Lake Dr
185,37.594996,-77.364257,East Blvd/Matroka Rd
160,37.628429,-77.354777,Pegway Ln/Caraway Ln
305,37.646754,-77.345704,Haversack Ln
160,37.771812,-77.468559,/N Washington Hwy
185,37.678541,-77.371654,Rural Point Rd
216,37.601070,-77.341846,Cold Cove
160,37.609823,-77.381336,Sawyer Ln/Strain Ave
160,37.680023,-77.290241,Santa Maria Dr
526,37.761341,-77.468028,Sweet Tessa Dr
185,37.601600,-77.177837,/Hopewell Rd
185,37.647890,-77.359275,Academy Creek Ln
276,37.627107,-77.311187,Old Cavalry Dr/Barracks Rd
185,37.624814,-77.374844,Shady Grove Rd/Willow Brook Ln
185,37.689727,-77.410340,Linderwood Dr/Little Joselyn Dr
305,37.762513,-77.468895,E Omni Ter/Omni Rd
246,37.658582,-77.411659,Page St
216,37.619368,-77.371123,/Shady Grove Rd
362,37.661938,-77.394398,Hughesland Rd/Colvincrest Dr
160,37.866141,-77.476666,Richards Rd
160,37.603987,-77.282384,/Beulah Church Rd
160,37.823461,-77.639381,W Patrick Henry Rd
160,37.886582,-77.645678,Circuit Rider Dr/Saint Johns Ct
160,37.612694,-77.397671,Kelshire Trce/Shire Pkwy
526,37.632367,-77.329071,Hillstone Ct/Turnage Ln
865,37.857474,-77.453434,/Bullfield Rd
362,37.696837,-77.408652,Linderwood Dr/Auburn Grove Ct
276,37.724649,-77.470193,Boxwood Farm Ln/Washington Hwy
185,37.565384,-77.264613,Country Quay Ln/Cold Harbor Rd
276,37.602232,-77.369896,Fast Ln/Cold Harbor Rd
160,37.677340,-77.330219,/Studley Rd
390,37.623657,-77.341300,Lee Davis Rd/Brooks Farm Rd
160,37.716738,-77.459716,Lewistown Rd/
305,37.650683,-77.404229,/Dickey Dr
185,37.719269,-77.453283,Lewistown Rd/Lakeridge Pkwy
362,37.618600,-77.364789,/Amf Dr
334,37.597176,-77.371925,Stonewall Pkwy/Overlook Dr
160,37.627033,-77.378766,N Mayfield Ln/Holly Ln
362,37.631293,-77.299721,Old Cavalry Dr/Green Top Ct
334,37.600216,-77.335776,Cold Harbor Rd
305,37.654667,-77.391898,/Chamberlayne Rd
216,37.670689,-77.412455,Honey Meadows Rd
185,37.793310,-77.539550,Country Club Ct/Country Club Dr
362,37.605462,-77.349875,Sandy Ln/Hunterbrook Dr
160,37.701549,-77.348690,Cross Dale Ln
185,37.744738,-77.591566,/Farrington Rd
216,37.630074,-77.341587,Spicewood Ct
362,37.695259,-77.410965,Medley Mill Ct/Oak Cottage Dr
1850,37.758194,-77.465784,England St
160,37.749918,-77.508862,Ashcake Rd
216,37.633573,-77.319748,/Banshire Dr
276,37.685908,-77.381650,Chamberlayne Rd
216,37.672287,-77.408352,Colony Bee Pl
160,37.748196,-77.464803,/S Hill Carter Pkwy
185,37.760209,-77.456815,E Patrick Henry Rd
160,37.602503,-77.324725,Mary Ann Ln
334,37.602746,-77.342274,Cornfield Ct/Walnut Grove Dr
216,37.615579,-77.391066,Tangle Pond Ln/Straight Oak Ct
305,37.799149,-77.459367,/Poplar Springs Dr
185,37.603892,-77.363398,Ewell Rd/Ewell Cir
160,37.777707,-77.526079,Oakwood Ln/Blanton Rd
472,37.615934,-77.345335,Peachtree Rd
246,37.719899,-77.650587,/Pouncey Tract Rd
160,37.832629,-77.661483,/Robert Terrell Rd
185,37.648116,-77.359077,Verdi Ln/Academy Creek Ln
160,37.727764,-77.407661,Mount Hermon Rd
276,37.694560,-77.454079,Lakeridge Pkwy
160,37.578676,-77.271932,McGee House Rd
216,37.767610,-77.470580,Berkley St/N Washington Hwy
160,37.591285,-77.146443,Hopewell Rd
390,37.586942,-77.337986,/I- 295
246,37.674579,-77.332861,/Studley Rd
246,37.614409,-77.368089,Markow Ct/Mountain Lily Ln
246,37.667622,-77.205661,/Mechanicsville Tpke
185,37.736433,-77.551772,/Ashland Rd
185,37.622386,-77.388583,Atlee Rd/Wonderland Ln
185,37.663922,-77.337632,Rural Point Rd/Hartford Oaks Dr
246,37.594683,-77.354894,Ann Cabell Ct
216,37.713761,-77.467526,/Washington Hwy
276,37.636247,-77.346236,/Pole Green Rd
216,37.698368,-77.553890,/Mountain Rd
865,37.757224,-77.468010,Cottage Greene Dr/Cottage Green Dr
185,37.661609,-77.213434,/Mechanicsville Tpke
216,37.690846,-77.406807,Morella Pl/Summer Grove Rd
185,37.623455,-77.339420,Chestnut Grove Ln
160,37.846495,-77.620655,Armadillo Ln/Taylor Rd
160,37.683481,-77.357731,Fenholloway Dr/Placida Cir
362,37.587480,-77.332874,Lakevista Dr/Holstein Ln
684,37.766869,-77.461379,I- 95
276,37.653317,-77.394776,Chamberlayne Rd
839,37.651536,-77.397793,Ruteland Rd/Chamberlayne Rd
1407,37.610460,-77.352943,/Mechanicsville Tpke
160,37.697912,-77.395220,/Lincoln Rd
160,37.859191,-77.691845,Beaver Dam Rd
305,37.618443,-77.386960,Ellerson Woods Dr
334,37.699849,-77.420276,Milestone Dr/Indianfield Dr
246,37.633800,-77.318836,Banshire Dr
276,37.628393,-77.295178,Hughes Rd/Mechanicsville Tpke
160,37.665702,-77.338614,/Rural Point Rd
160,37.675110,-77.395683,Cool Spring Rd
246,37.590803,-77.322585,Hall Ct/Bonniefield Dr
362,37.622777,-77.339406,Canyon Ct
246,37.621898,-77.378921,S Mayfield Ln
160,37.791255,-77.680455,Canterbury Rd/Mallorys Ln
160,37.730466,-77.470995,Washington Hwy
216,37.683756,-77.380930,/Chamberlayne Rd
334,37.594259,-77.354974,Ann Cabell Ct/Bruce Academy Ln
246,37.639843,-77.260651,/Mechanicsville Tpke
684,37.772827,-77.462057,I- 95
160,37.724664,-77.367469,/Hanover Courthouse Rd
246,37.631546,-77.304572,Ironclad Dr/Ironworks Ct
160,37.631434,-77.349234,Soft Wind Dr/Spicewood Dr
185,37.682037,-77.433108,Slidingrock Dr/Bayrock Ct
276,37.603329,-77.377007,Public Ln/Carolyn Ln
216,37.615965,-77.399232,Ellerson Dr/Meadowbridge Rd
160,37.747240,-77.499063,/Elmont Rd
160,37.623919,-77.353885,Mayetta Dr
160,37.629932,-77.302121,Dugout Ter
160,37.754385,-77.490519,Beverly Rd/Lee Ave
160,37.736151,-77.561695,Ashland Rd
3142,37.608979,-77.356286,Mechanicsville Tpke
552,37.776202,-77.461304,Nursey Rd/Jamestown Rd
305,37.632592,-77.298544,/Walnut Grove Rd
185,37.623245,-77.328554,Tiffany Ln/Lakeway Dr
185,37.676384,-77.309750,/Studley Rd
305,37.634083,-77.285025,/Mechanicsville Tpke
160,37.755401,-77.605080,Mountain Rd
276,37.645600,-77.394321,McFaye Ave/Atlee Rd
246,37.720147,-77.358299,/Foxal Rd
185,37.636892,-77.267074,/Mechanicsville Tpke
160,37.840324,-77.519666,Old Ridge Rd/Winding Trl
185,37.617359,-77.331126,Vaughan Dr/Crump Dr
631,37.750666,-77.457181,I- 95
185,37.794481,-77.471098,Washington Hwy
160,37.884536,-77.523846,/Sleepy Hollow Ln
185,37.589713,-77.203759,/Westwood Rd
216,37.688172,-77.421565,Kings Charter Dr/Seatoncroft Ct/Smythes Cottage Way
276,37.694297,-77.442741,Leadbetter Rd
160,37.722919,-77.390035,/Peaks Rd
160,37.750312,-77.600306,Mountain Rd
160,37.629338,-77.308933,Old Cavalry Dr/Siege Rd
390,37.598054,-77.368582,Garden Park Ln
736,37.610873,-77.355950,Sandy Ln/Bell Creek Rd
185,37.603586,-77.322028,Merle Smith Ln/Walnut Grove Rd/Highlander Pl
185,37.661237,-77.333773,Count Kristopher Dr/Count Kristopher Ct
160,37.667117,-77.206579,Mechanicsville Tpke
160,37.637870,-77.386095,Lansdowne Rd
160,37.660690,-77.215759,Mechanicsville Tpke
160,37.793377,-77.504348,/Independence Rd
160,37.837161,-77.467608,Washington Hwy
160,37.643595,-77.215597,Old Coach Trl/Old Church Rd
526,37.629797,-77.373215,/I- 295
185,37.858238,-77.464406,/Washington Hwy
160,37.706190,-77.460598,/Old Telegraph Rd
160,37.697075,-77.417627,Emerald Rock Ln
185,37.648711,-77.371743,Fenway Dr/Strawhorn Dr
246,37.631532,-77.347247,Plume Grove Cir/Plum Grove Dr
160,37.843719,-77.540724,/Rocketts Mill Rd
160,37.707092,-77.594792,Big Apple Rd/Cauthorne Rd
185,37.591853,-77.323079,/Bonniefield Dr
160,37.628907,-77.393954,Reeds Grove Ln
160,37.883274,-77.465069,/Washington Hwy
160,37.560300,-77.261580,Cold Harbor Rd
631,37.721614,-77.449135,Lewistown Rd/I- 95
160,37.696200,-77.322179,/Blackbear Trl
276,37.611749,-77.308756,Indian Trails Ct/Sugarpine Rd
418,37.877732,-77.454825,I- 95
160,37.782592,-77.526132,Yankeetown Rd/W Patrick Henry Rd
160,37.690661,-77.372532,Clay Farm Way
160,37.789613,-77.505339,Independence Rd
605,37.755754,-77.470382,/Junction Dr
160,37.746408,-77.591202,/Farrington Rd
418,37.636571,-77.343179,Pole Green Rd/Colemanden Dr
216,37.637236,-77.395634,Colmar Dr/Jane Lee Cir
216,37.645306,-77.348855,Minie Ball Ave/Dress Blue Dr
160,37.659744,-77.375094,Possum Trl
160,37.655397,-77.367261,Wrenwood Dr
334,37.778364,-77.519323,/W Patrick Henry Rd
160,37.805400,-77.676589,/W Crescent Ln
160,37.645347,-77.406678,Studley Rd/Lockwood Blvd
185,37.721223,-77.586022,/Gordons Ln
160,37.671298,-77.412278,Honey Meadows Rd/Cool Hive Pl
160,37.741075,-77.500733,/Elmont Rd
160,37.764346,-77.532306,Long View Ln
160,37.631335,-77.338139,Hawks Hill Ln/Laurel Meadows Dr
160,37.784021,-77.658272,Waltons Tavern Rd
185,37.620108,-77.301978,Gold Pebble Way
216,37.684518,-77.462045,Washington Hwy
160,37.903493,-77.720118,/Parsons Rd
185,37.755729,-77.558205,Greenwood Creek Dr/Greenwood Church Rd
579,37.762053,-77.473331,Randolph Cir
185,37.612629,-77.395532,Timberlake Green Dr/Wistrom Way
736,37.738942,-77.453282,Rest Rd
216,37.644340,-77.389432,Atlee Springs Dr/Woodsage Ct
334,37.752611,-77.483153,New St/S Center St
185,37.610827,-77.263876,Hobby Horse Ct
160,37.665809,-77.387635,Powhickery Dr/Duling Rd
1097,37.824924,-77.455948,I- 95
246,37.601439,-77.321779,Starke Ct
276,37.686635,-77.417128,Radford Mill Ter
160,37.576865,-77.333838,Creighton Rd
246,37.620531,-77.386472,Meadow View Ln/Atlee Rd
445,37.581427,-77.328424,Creighton Rd
160,37.743993,-77.468324,Ashcake Rd
185,37.601885,-77.339000,Walgrove Ct
216,37.713374,-77.507768,Cedar Ln/Karen Dr
160,37.744582,-77.539314,/Ashcake Rd
305,37.690785,-77.410023,Hepburn Ct
472,37.634152,-77.276239,Mechanicsville Tpke
390,37.733528,-77.471077,Success St/Washington Hwy
160,37.644838,-77.369927,/Academy Dr
390,37.756910,-77.476072,S Taylor St/Myrtle St
334,37.688015,-77.412115,Turnout Ct
185,37.642470,-77.291124,Fallman Dr/Pole Green Rd
185,37.634153,-77.333545,Christopher Paul Dr
305,37.634647,-77.272652,Mechanicsville Tpke
185,37.583640,-77.270581,/Cold Harbor Rd
160,37.596937,-77.331212,Hebner Ln/Cold Harbor Rd
160,37.791659,-77.679819,Carlton Jones Ln/Canterbury Rd
246,37.639523,-77.261347,Mechanicsville Tpke
605,37.769481,-77.461855,I- 95
160,37.712595,-77.624879,State Rte 623
276,37.654078,-77.392997,Chamberlayne Rd
160,37.588712,-77.325267,Neils Trce
185,37.661926,-77.404372,/Cool Spring Rd
160,37.626711,-77.376148,/Shady Grove Rd
246,37.600021,-77.340290,Oakley Hill Ln/Cold Harbor Rd
472,37.621189,-77.323400,Ridge Ln
472,37.682613,-77.456684,Telegraph Rd/King Acres Rd
246,37.754972,-77.478031,/Arlington St
276,37.652374,-77.233948,Mechanicsville Tpke
246,37.708542,-77.636424,/Pouncey Tract Rd
160,37.589112,-77.259005,Confederate Hill Dr/Rockhill Rd
418,37.848379,-77.443953,Kings Dominion Blvd/Doswell Rd
185,37.842545,-77.541425,/Rocketts Mill Rd
216,37.816931,-77.456233,/Old Ridge Rd
390,37.622109,-77.340178,Cypresstree Ln/Foxlair Dr/Lee Davis Rd
160,37.604906,-77.379681,Signal Hill Rd/Edgeworth Rd
160,37.607274,-77.309111,/Walnut Grove Rd
160,37.829567,-77.502198,/Old Ridge Rd
160,37.630591,-77.318620,Fieldshire Dr
185,37.694023,-77.342022,Swindale Rd
526,37.631584,-77.332244,Pimlico Dr/Angela Nicole Ln
418,37.619123,-77.312160,Garden Creek Ct
185,37.661277,-77.397023,Kiblercrest Dr/Colincroft Dr
246,37.693424,-77.447015,Leadbetter Pl
160,37.611832,-77.315677,/Creighton Pkwy
160,37.687953,-77.258977,Scots Landing Rd/Wormleys Ln
160,37.638269,-77.345413,Verdi Ln
246,37.690035,-77.456093,Caracara Dr/Kestrel Dr
334,37.594306,-77.327188,Cold Harbor Rd
276,37.759187,-77.476223,/N Taylor St
185,37.613246,-77.394452,Johnsonville Way/Timberlake Green Dr
445,37.629536,-77.370463,/Pole Green Rd
160,37.684756,-77.275335,Summer Hill Rd
246,37.629216,-77.312260,Stronghold Dr
185,37.760498,-77.454478,E Patrick Henry Rd/Mount Hermon Rd
160,37.705284,-77.540611,/Winns Church Rd
160,37.797149,-77.713884,/Millfield Ln
160,37.716978,-77.363030,/Georgetown Rd
276,37.706459,-77.636157,Pouncey Tract Rd
185,37.656902,-77.361022,Rochdale Ct/Penrith Dr
160,37.841011,-77.686794,/Beaver Dam Rd
160,37.722001,-77.680189,/Rockville Rd
160,37.644158,-77.307370,/Fenne Farm Dr
185,37.672098,-77.287380,Revolutionary Pl/Studley Site Dr
160,37.619429,-77.298831,Walnut Grove Rd/Northfall Creek Pkwy
216,37.610143,-77.367683,Ridge View Rd/Deborah Dr
160,37.688789,-77.460143,/Lakeridge Pkwy
246,37.652168,-77.233803,Mechanicsville Tpke
185,37.625297,-77.330320,Lantana Ln/Tiffany Ln
305,37.678833,-77.359726,/Rural Point Rd
216,37.696449,-77.474405,Cedar Ln/Elmont Woods Dr
160,37.577648,-77.225857,McClellan Rd
160,37.710057,-77.483866,Parsons Chapel Rd/Tudor Rose Ct
658,37.611005,-77.347169,Mechanicsville Tpke/Meadow Dr
839,37.630754,-77.365082,/Antique Ln
246,37.617849,-77.348416,Kenmore Dr
305,37.695018,-77.445274,Sliding Ridge Rd/Leadbetter Pl
185,37.610308,-77.303738,Walnut Grove Rd
160,37.823024,-77.636575,Terry Rd/W Patrick Henry Rd
499,37.763415,-77.471605,N Washington Hwy/W Omni Ct
1798,37.758401,-77.468099,England St/Cottage Greene Dr/Cottage Green Dr
160,37.664578,-77.396349,Blakeridge Ave
1381,37.758881,-77.481196,England St/S Railroad Ave/N Railroad Ave
160,37.697567,-77.355228,Georgetown Rd/Sugarloaf Dr
1046,37.758161,-77.481740,S Railroad Ave
305,37.601694,-77.361780,General Dr/East Blvd
418,37.617034,-77.301841,Pond Place Way
185,37.717923,-77.468530,Vermeer Pl/Washington Hwy
362,37.645206,-77.412500,/Chamberlayne Rd
579,37.607538,-77.339411,Brandy Hill Trl
390,37.632469,-77.299242,Dugout Ter
160,37.705955,-77.415922,Bugle Ln/Harpe Ct
276,37.640307,-77.391563,Kaye Dr/Wanda Dr
160,37.588741,-77.328920,Marie Ln/Selby Ln
276,37.639091,-77.262866,/Mechanicsville Tpke
526,37.586955,-77.327827,Chenault Way/Birch Tree Trce
185,37.702096,-77.384442,Hanover Wayside Rd
276,37.700607,-77.416941,Seward Way
160,37.698142,-77.463662,/Washington Hwy
390,37.702877,-77.421913,New Ashcake Rd
160,37.716179,-77.640017,Howards Mill Rd
968,37.856591,-77.453997,I- 95/Doswell Rd
160,37.607382,-77.319466,Lexington Dr
216,37.658211,-77.403340,Hollycroft Ct
246,37.599319,-77.340181,Sydnor Ln/Oakley Hill Ln
276,37.615145,-77.394261,Thistleberry Ct
216,37.814085,-77.664293,Mountain Rd
160,37.694904,-77.435247,Totopotomoy Trl/
160,37.730914,-77.585225,Chewning Rd
160,37.815664,-77.673655,/Mountain Rd
276,37.626576,-77.300001,/Mechanicsville Tpke
185,37.790798,-77.504299,Blunts Rd/Independence Rd
185,37.677596,-77.423191,Atlee Station Rd
160,37.758722,-77.532860,Yowell Rd
160,37.810015,-77.601086,/Scotchtown Rd
160,37.605345,-77.291147,Crossing Oaks Trl/Sandy Valley Rd
891,37.599499,-77.345667,/Cold Harbor Rd
216,37.666057,-77.413366,Atlee Station Rd
246,37.685830,-77.381405,Chamberlayne Rd
185,37.695066,-77.407634,Marl Branch Ct/Summer Grove Rd
160,37.653097,-77.356226,Cranwell Cir
160,37.603653,-77.179045,/Flannigan Mill Rd
276,37.611822,-77.333711,Brandy Creek Dr
445,37.761118,-77.474163,Randolph Cir/Caroline St
185,37.660196,-77.365492,Wrexham Cir
246,37.734467,-77.471096,/Washington Hwy
216,37.760302,-77.455539,E Patrick Henry Rd
631,37.582036,-77.332462,I- 295
276,37.678133,-77.428665,Locust Ln/Wilmore Dr
762,37.644181,-77.413452,I- 295
185,37.744859,-77.358508,/Hanover Courthouse Rd
552,37.761390,-77.466850,Sweet Tessa Dr
160,37.824029,-77.682965,Woodman Hall Rd/
334,37.845747,-77.451501,Kings Dominion Blvd
334,37.599143,-77.342946,Sydnor Ln/Daffodil Rd
246,37.706881,-77.383796,Chamberlayne Rd
472,37.650248,-77.383572,Shady Grove Rd/Old Oaklawn Dr
390,37.763368,-77.480853,Mullen Dr
185,37.630593,-77.291920,/Mechanicsville Tpke
552,37.687361,-77.462385,/Washington Hwy
579,37.762237,-77.470816,Omni Rd/W Omni Ter
2569,37.758448,-77.464004,England St/N Hill Carter Pkwy/S Hill Carter Pkwy
305,37.735813,-77.576398,Ashland Rd
160,37.771346,-77.474977,/Archie Cannon Dr
160,37.743680,-77.358462,/Hanover Courthouse Rd
160,37.642503,-77.184476,/Piping Tree Ferry Rd
160,37.763796,-77.376190,/E Patrick Henry Rd
160,37.641844,-77.275069,/Pole Green Rd
736,37.628422,-77.377022,Shady Grove Rd/Meadowbridge Rd
526,37.628387,-77.378347,Pleasant Grove Rd/Meadowbridge Rd
334,37.579905,-77.295554,Camille Dr/Camille Cir
185,37.728022,-77.596709,Ashland Rd
418,37.632217,-77.379563,Shady Grove Rd/I- 295
160,37.803190,-77.484985,Haven Way Ln
216,37.630440,-77.344744,Spicewood Pl
185,37.678140,-77.358017,Rural Point Rd
185,37.706864,-77.523744,/Greenwood Rd
276,37.694648,-77.407333,Little Garden Way/Summer Grove Rd
160,37.601767,-77.251644,Crown Hill Rd
160,37.891927,-77.665527,Parsons Rd/Beaverdam Rd/Beaver Dam Rd
160,37.710838,-77.393484,/Stumpy Rd
246,37.761206,-77.492179,Thompson St/Chapman St
185,37.627912,-77.311548,Stockade Ct/Skirmish Ln
276,37.684307,-77.384866,/Fort Myers Rd
216,37.848748,-77.464214,Washington Hwy
246,37.683899,-77.411139,Stephens Manor Dr/Cedarview Ct
246,37.693240,-77.434096,Windsor Shade Dr/Charter Creek Dr
631,37.601319,-77.331656,/Cold Harbor Rd
390,37.689515,-77.382490,/Chamberlayne Rd
185,37.818408,-77.582812,W Patrick Henry Rd
160,37.677373,-77.383810,/Georgie Dr
185,37.586354,-77.329531,Freel Trce
526,37.887420,-77.457427,I- 95
216,37.589184,-77.318922,Creighton Rd/Bonniefield Dr
216,37.703075,-77.422959,New Ashcake Rd
160,37.827405,-77.470812,Breedens Rd/Washington Hwy
160,37.825822,-77.618381,Pinehurst Forest Dr/W Patrick Henry Rd
305,37.654909,-77.392824,/Shannon Rd
160,37.592062,-77.355064,Ann Cabell Ct/Ann Cabell Ln
246,37.681152,-77.416307,Kings Charter Dr
160,37.753233,-77.496769,/Hanover Ave
788,37.809468,-77.460118,I- 95
216,37.701716,-77.464524,/Washington Hwy
1097,37.605315,-77.355477,/Bell Creek Rd
160,37.767556,-77.619340,Mountain Rd/Scotchtown Rd
216,37.767978,-77.470404,N Washington Hwy/Quarles Rd
1381,37.760124,-77.478858,College Ave
160,37.831980,-77.688843,Beaver Dam Rd
160,37.881889,-77.590311,Old Ridge Rd
216,37.618576,-77.306837,Falling Water Ct
160,37.591155,-77.333710,Hanna Dr/McCauley Ln
185,37.765581,-77.473323,Berkley Woods Dr
362,37.761108,-77.484564,Henry Clay Rd/S James St/N James St
246,37.585827,-77.335226,Lakevista Dr/Luther Bosher Ln
185,37.589698,-77.327921,Dairy Dr/Marie Ln
185,37.702673,-77.417733,Fair Hill Pl
160,37.663404,-77.398497,Hughesland Rd
160,37.768343,-77.587657,Farrington Rd
276,37.939236,-77.651054,/Beaverdam School Rd
552,37.744192,-77.471247,/Washington Hwy
246,37.604997,-77.326539,Red Cloud Ct
390,37.653291,-77.409486,Jeans Grove Ln/Graff Ct
362,37.595426,-77.341444,Cedar Berry Rd/Daffodil Rd
605,37.600907,-77.355682,I- 295
246,37.672189,-77.342971,/Rural Point Rd
246,37.673286,-77.422417,Still Creek Ln/Stags Leap Dr
418,37.651091,-77.412131,Ebaugh Ln/Cool Autumn Dr
160,37.602253,-77.367601,Stonewall Dr/Ambrose Dr
334,37.625776,-77.311255,Winding Hills Dr/Old Cavalry Dr
390,37.649331,-77.344200,Barbette Ct
334,37.611957,-77.304164,Old Track Ln
445,37.761563,-77.468210,/Cottage Greene Dr
216,37.687054,-77.421217,Penningcroft Ln
160,37.610682,-77.183152,/Flannigan Mill Rd
305,37.626938,-77.385153,/Meadowbridge Rd
3308,37.608340,-77.355865,Battle Hill Dr
216,37.613118,-77.349873,Wynbrook Ln/Cherry Ln
362,37.585920,-77.327452,Birch Tree Trce
390,37.814123,-77.663240,/Mountain Rd
185,37.729823,-77.362440,Hanover Courthouse Rd
246,37.707069,-77.412075,/Wychwood Dr
160,37.614194,-77.368609,Mountain Lily Ln/Dutch Lily Ct
305,37.606477,-77.345420,Sunnyhill Dr
160,37.643820,-77.234712,/Oak Hill Camp Rd/Old Church Rd
246,37.635489,-77.339554,Wetherden Dr
160,37.736902,-77.565136,/Ashland Rd
216,37.620538,-77.393557,/Meadowbridge Rd
160,37.781677,-77.610924,Scotchtown Rd
160,37.609209,-77.379076,Pickett Ave
185,37.605558,-77.311003,/Creighton Rd
276,37.745376,-77.530182,/Ashcake Rd
216,37.765253,-77.446794,Woodside Ln
160,37.714122,-77.623026,Ashland Rd
305,37.587378,-77.328555,Freel Trce/Chenault Way/Shedd's Lake Rd
943,37.617328,-77.319151,Creighton Pkwy/Mechanicsville Tpke
762,37.761101,-77.474792,Calhoun St/Caroline St
160,37.700774,-77.384866,Chamberlayne Rd
246,37.596465,-77.345537,Hyacinth Ct
216,37.678054,-77.385000,Suzanne Dr
390,37.560448,-77.295280,I- 295
552,37.607364,-77.360241,/I- 295
216,37.761786,-77.366519,Hanover Courthouse Rd
160,37.686019,-77.430801,Cloverlea Ct
185,37.662128,-77.311728,/Pine Slash Rd
185,37.824087,-77.679558,/Indian Springs Ln
216,37.620968,-77.387012,Atlee Rd/Franklin Ln
334,37.675537,-77.352221,Rural Point Rd
276,37.644039,-77.349796,Hardtack Rd/Havelock Ln
216,37.620708,-77.321519,Creekside Meadow Way/Creekside Village Dr
499,37.623834,-77.309069,Pebble Path Pkwy/Mechanicsville Tpke
185,37.647922,-77.405099,Times Dispatch Blvd
160,37.699637,-77.359694,/Georgetown Rd
160,37.780033,-77.611165,/Scotchtown Rd
160,37.703186,-77.594269,Cauthorne Rd
216,37.716755,-77.569469,/Mountain Rd
160,37.656631,-77.254920,/Studley Rd
160,37.763429,-77.364925,/Library Dr
736,37.856209,-77.454691,I- 95
216,37.628241,-77.381205,Meadowbridge Rd
185,37.814741,-77.584750,/King Rd
160,37.677590,-77.285322,Summer Hill Rd/Santa Maria Dr
216,37.620377,-77.248453,Sinclair Rd/Beattiemill Dr
552,37.761138,-77.466847,Sweet Tessa Dr
246,37.634370,-77.312289,Tarragon Dr/Dijon Dr
216,37.670740,-77.421992,Deer Stream Dr/Red Deer Ct
160,37.708928,-77.481336,Parsons Chapel Rd/Crutchfields Ct
185,37.734782,-77.578141,/Ashland Rd
160,37.714224,-77.653156,Annie Laura Ln
160,37.656708,-77.329812,Salem Creek Pl/Pine Slash Rd
1589,37.691402,-77.440016,State Rte 656/Sliding Hill Rd/Atlee Station Rd/Leadbetter Rd
736,37.628502,-77.377233,Shady Grove Rd/Meadowbridge Rd
362,37.683815,-77.432205,Slidingrock Dr/Atlee Station Rd
246,37.693105,-77.548675,Overhill Lake Ln/Mountain Rd
305,37.598722,-77.365246,Walking Horse Dr
160,37.633312,-77.298599,/Walnut Grove Rd
160,37.746231,-77.462188,Business Ln
499,37.763284,-77.471601,Macon Cir/N Washington Hwy
160,37.727315,-77.407859,Clay Springs Dr/Mount Hermon Rd
445,37.628905,-77.306839,Campaign Trl
631,37.631163,-77.331209,Melinda Kay Ct
1304,37.746032,-77.471265,S Washington Hwy/Ashcake Rd
579,37.640444,-77.407978,/I- 295
185,37.699682,-77.354875,Sugarloaf Dr
160,37.717288,-77.458626,Knox Dr/Lewistown Rd
160,37.746740,-77.602247,Stone Horse Creek Rd
160,37.825384,-77.644592,Goshen Rd
160,37.691361,-77.546927,/Mountain Rd
362,37.611948,-77.369001,Shady Grove Rd
216,37.633139,-77.323509,Woodbridge Rd/Harbour Mist Ln
216,37.628607,-77.295138,/Mechanicsville Tpke
160,37.771283,-77.700310,Taylors Creek Rd
160,37.640813,-77.415768,Barricade Ln/Old Richfood Rd
334,37.602631,-77.342413,/Walnut Grove Dr
185,37.711299,-77.381540,Hanover Courthouse Rd
185,37.654517,-77.414208,Giles Farm Rd
160,37.804544,-77.472798,Attkisson Rd/Washington Hwy
160,37.627837,-77.349346,Mintawood Ln/Bellspring Dr
185,37.678473,-77.432984,Littlerock Ct
160,37.910037,-77.661058,Beaver Dam Rd
1071,37.605379,-77.355355,/Bell Creek Rd
160,37.640613,-77.293448,/Pole Green Rd
185,37.752119,-77.591443,/Farrington Rd
605,37.630213,-77.331421,Joshua Aaron Ct
185,37.648149,-77.359163,/Verdi Ln
418,37.799023,-77.461057,I- 95/Hickory Hill Rd
276,37.631244,-77.300865,Dugout Ter/Saber Ct
160,37.667667,-77.402065,Cool Spring Rd
472,37.757208,-77.471482,S Washington Hwy
216,37.590656,-77.331030,Tammy Ln/Dairy Dr
246,37.595322,-77.382800,Mechanicsville Tpke
185,37.674493,-77.344881,Lindsay Meadows Dr/Constance Hill Ln
160,37.758757,-77.534496,/Yowell Rd/Blanton Rd
305,37.632267,-77.358726,Pole Green Rd
216,37.623930,-77.374206,/Shady Grove Rd
472,37.766271,-77.477438,B St
334,37.707017,-77.418535,Trumpet Ct
216,37.765730,-77.474475,Berkley Woods Dr/Old Station St
160,37.734743,-77.586910,Chewning Rd
160,37.643083,-77.175469,Sesuit Ln/Piping Tree Ferry Rd
246,37.762524,-77.468237,E Omni Ter/Omni Rd/Cottage Greene Dr
185,37.694404,-77.463186,Washington Hwy
185,37.704286,-77.419966,Country Side Ct
579,37.631563,-77.329556,Pimlico Dr
185,37.754268,-77.421345,E Patrick Henry Rd
185,37.690622,-77.396394,Charleston Rd/Wheeling Rd
472,37.696975,-77.405006,Ashcake Station Pl/Forest Haze Ct
276,37.587656,-77.312024,/Cold Harbor Rd
246,37.617429,-77.394820,Mike Mundie Ln/Mary Mundie Ln
160,37.674189,-77.428437,Aragon Dr
216,37.610795,-77.383379,Elvira Ct
185,37.804023,-77.656487,Mountain Rd
246,37.682798,-77.392720,Springton Rd
334,37.685107,-77.433812,/Atlee Station Rd
246,37.705845,-77.493030,Cedar Ln
216,37.826267,-77.595440,Tower Rd/W Patrick Henry Rd
246,37.758444,-77.364336,Hanover Courthouse Rd
160,37.743211,-77.436089,Mount Hermon Rd
160,37.664220,-77.396654,Carywood Ct
1824,37.758208,-77.465533,England St
445,37.613962,-77.329272,Mechanicsville Tpke
185,37.621257,-77.320058,Creekside Bluffs Ln/Creekside Village Dr
276,37.643805,-77.288106,Pole Green Rd/Williamsville Rd
390,37.588246,-77.323218,Draperfield Rd/Shedd's Lake Rd
2221,37.609202,-77.354488,Sandy Ln
160,37.629795,-77.351770,Lone Cedar Dr
552,37.762413,-77.367001,Library Dr/Hanover Courthouse Rd
160,37.745191,-77.652689,/S Anna Dr/Howards Mill Rd
160,37.759736,-77.366250,/Depot Rd
160,37.600570,-77.310227,/Creighton Rd
605,37.759679,-77.459679,E Patrick Henry Rd/I- 95
160,37.613475,-77.380288,Rie-Bob Ln
445,37.708917,-77.446270,/Air Park Rd
160,37.804998,-77.656805,/Mountain Rd
185,37.646653,-77.409741,/Chamberlayne Rd
305,37.656613,-77.406862,Atlee Station Rd/Giles Farm Rd
334,37.760592,-77.461582,/N Carter Rd
160,37.720126,-77.357109,/Foxal Rd
160,37.728700,-77.644673,Stone Horse Creek Rd/Howards Mill Rd
579,37.627356,-77.330826,Joshue Tree Ln
390,37.636550,-77.396880,Holly Ridge Rd
160,37.642445,-77.347343,Verdi Ln/Brigadier Rd/Bell Creek Rd
160,37.720206,-77.769769,/Oilville Rd
160,37.826589,-77.605333,/W Patrick Henry Rd
216,37.704078,-77.415060,Hunters Chase Dr/Hunters Chase Ct
418,37.700434,-77.413978,New Ashcake Rd/Ridgebrook Dr
305,37.601035,-77.343280,Peach Orchard Ln/Walnut Grove Dr
185,37.702526,-77.442294,/Lickinghole Rd
185,37.691221,-77.467391,Cedar Ln
216,37.608016,-77.307628,/Walnut Grove Rd
160,37.591279,-77.270931,Beulah Church Rd/Rockhill Rd/Cold Harbor Rd
246,37.602670,-77.362966,General Dr/West Blvd
185,37.676879,-77.382419,/New Ashcake Rd
160,37.602586,-77.326597,Eula St/Mary Esther Ln
160,37.676634,-77.288040,/Summer Hill Rd
160,37.758633,-77.768252,Vontay Rd/Lea Anna Ln
246,37.618172,-77.370679,Shady Grove Rd
160,37.718750,-77.468732,Sadisco Dr/Washington Hwy
362,37.636753,-77.340118,/Pole Green Rd
390,37.767714,-77.481324,Park St/Linden St
216,37.614386,-77.299380,Walnut Grove Rd/Christian Field Dr
185,37.615048,-77.308970,Empresstree Ln
160,37.633962,-77.298646,Walnut Grove Rd
418,37.819606,-77.458895,Taylorsville Rd
160,37.759054,-77.579785,/Spring Branch Ln
943,37.617017,-77.339758,Lee Davis Rd/Stonewall Middle Dr
362,37.598754,-77.352061,I- 295/Cold Harbor Rd
390,37.768357,-77.475671,Berkley St/Henry St
160,37.560165,-77.261628,Cold Harbor Rd
160,37.693929,-77.364109,Knightly Rd
160,37.659664,-77.396219,Braden Pl
160,37.583626,-77.294579,Camille Dr/Robin Rd
216,37.630241,-77.344854,Spicewood Pl/Spicewood Dr
472,37.704173,-77.447451,Whitesel Rd
710,37.650700,-77.419420,/I- 295
185,37.772372,-77.362103,/Normans Bridge Rd
552,37.817340,-77.458899,I- 95/Old Ridge Rd
216,37.615071,-77.386346,Lake Terrell Dr/Lucille Rd
246,37.687788,-77.429993,Charter Xing/Still Spring Ct
185,37.606442,-77.330932,Quail Way/Brandy Creek Dr/Thrasher Way
276,37.685545,-77.418445,Burkes Garden Pl
160,37.701878,-77.593750,Cauthorne Rd
160,37.713607,-77.396152,Stumpy Rd
160,37.616360,-77.310313,Green Haven Dr
160,37.696301,-77.394127,Lincoln Rd/Truman Rd
246,37.676910,-77.419942,Rose Cottage Ln
185,37.564159,-77.219847,/Longhorn Dr
216,37.612248,-77.315957,/Creighton Pkwy
390,37.651159,-77.383671,/Shady Grove Rd
185,37.620947,-77.355747,Lynmar Ln/Bell Creek Rd
3559,37.609735,-77.355048,Sandy Ln/Mechanicsville Tpke/Bell Creek Rd
526,37.692405,-77.410850,Linderwood Dr
185,37.688126,-77.463896,Colonial Estates Cir
185,37.896218,-77.532831,Narrow Path Trl/Verdon Rd
160,37.754414,-77.421973,/E Patrick Henry Rd
160,37.671513,-77.381624,Chamberlayne Rd
334,37.610912,-77.327646,Marshall Arch Dr
305,37.687755,-77.417533,Bracey Mill Pl/Wanchese Way
276,37.611344,-77.330025,Jackson Arch Dr
246,37.632567,-77.332133,Turnage Ln/Angela Nicole Ln
579,37.817265,-77.458516,Old Ridge Rd/I- 95
216,37.686590,-77.543482,/Mountain Rd
276,37.567496,-77.303182,I- 295
216,37.722432,-77.578811,Mountain Rd/New Farrington Ct
160,37.643165,-77.396266,Track Rd
2542,37.758557,-77.464133,England St
658,37.656940,-77.384669,Hanover Crossing Dr//Shady Grove Rd
160,37.659376,-77.406153,Cool Spring Rd
334,37.624361,-77.338447,Catwalk Ct
631,37.846890,-77.447826,Kings Dominion Blvd/Theme Park Way
472,37.848310,-77.444159,Kings Dominion Blvd
185,37.633334,-77.344323,Mendenhall Pl
710,37.603289,-77.373102,Jackson Ave/Mechanicsville Tpke
160,37.809439,-77.682068,/Bethany Church Rd
160,37.783254,-77.716926,Taylors Creek Rd
246,37.582874,-77.327126,/Creighton Rd
185,37.629743,-77.300016,Muzzle Ct
160,37.684336,-77.424618,Falcon Dr/Thor Ln
362,37.605363,-77.372999,Atlee Rd/Lee Ave
160,37.850884,-77.658367,/Parrish Rd
160,37.583538,-77.289744,/Cold Harbor Rd
276,37.635795,-77.314571,Oxfordshire Pl/Dijon Dr
445,37.612511,-77.343445,Sherwood Crossing Pl/Old Hickory Dr
891,37.613531,-77.330744,Mechanicsville Tpke/Jackson Arch Dr
362,37.653990,-77.402257,Rutland Commons Dr/Center Path Ln
445,37.684896,-77.456547,/State Rte 782
160,37.642013,-77.275965,/Pole Green Rd
160,37.810042,-77.681957,Bethany Church Rd/Pryor Ln
160,37.665854,-77.402909,Cool Spring Rd
631,37.759516,-77.459635,E Patrick Henry Rd/I- 95
216,37.606458,-77.311259,Walnut Grove Rd/Creighton Rd
216,37.694443,-77.421147,Greyhawk Ct
1071,37.613047,-77.334089,/Brandy Creek Dr/Mechanicsville Tpke
160,37.814264,-77.577977,/Whitewood Ln
579,37.690470,-77.394228,/Wheeling Rd
160,37.866993,-77.729961,Mahogany Grove Ln/Gun Barrel Rd
160,37.758944,-77.651594,Saint Peters Church Rd
185,37.874046,-77.740431,Old Ridge Rd
216,37.757291,-77.485728,Hanover Ave/Cox Ln/S James St
499,37.764853,-77.469016,Silversmith Ct
160,37.715944,-77.377244,/Hillcrest Rd
246,37.624497,-77.347477,Bradford Cottage Ct
216,37.591273,-77.362930,River Pine Dr/River Valley Rd
160,37.602590,-77.207924,Parsleys Mill Rd/
362,37.611020,-77.351290,Colony Dr/Mechanicsville Tpke
736,37.598999,-77.347384,Brooking Way/Flag Ln
185,37.850579,-77.661328,/Parrish Farm Rd
160,37.739681,-77.630608,/Stone Horse Creek Rd
276,37.716663,-77.468233,/Washington Hwy
579,37.635833,-77.397846,I- 295
216,37.687188,-77.431620,Charter Xing
216,37.613147,-77.378866,/Atlee Rd
526,37.608065,-77.360681,/I- 295
185,37.852270,-77.592984,/Chiswell Ln
216,37.635733,-77.381590,Shady Grove Rd
160,37.582671,-77.205931,/Boundary Run Dr
472,37.641847,-77.420405,Richfood Rd/Chamberlayne Rd
185,37.599984,-77.323271,/Queens Lace Rd
160,37.654441,-77.404203,Center Oak Ct/Rutland Center Blvd
185,37.755037,-77.479387,Arlington St/Maple St
305,37.696447,-77.434712,State Rte 656/
865,37.695284,-77.449996,I- 95
276,37.653260,-77.376581,Wyattwood Rd/Studley Rd
160,37.720842,-77.769104,Pinhook Rd/Oilville Rd
160,37.631371,-77.238514,/Peppertown Rd
305,37.692004,-77.383072,Chamberlayne Rd
472,37.758853,-77.479973,England St/Virginia St
418,37.602524,-77.374020,/Hanover Green Dr/Mechanicsville Tpke
305,37.646318,-77.246554,/Mechanicsville Tpke
216,37.692335,-77.454783,Stony Run Ln/Lakeridge Pkwy
216,37.752820,-77.465596,Round Oak Cir/Brown Bark Pl
246,37.694153,-77.407123,Coolwater Ln/Summer Grove Rd
276,37.698412,-77.471152,Elmont Glen Dr/Elmont Woods Dr
160,37.813738,-77.656772,Mountain Rd/Greenwood Church Rd
160,37.659862,-77.405661,Cool Spring Rd
276,37.651626,-77.384386,Wren Creek Ct
631,37.629099,-77.372200,I- 295
160,37.745283,-77.728806,Bienvenue Rd
160,37.831813,-77.660017,/Robert Terrell Rd
362,37.626020,-77.342463,Lee Davis Rd
579,37.766220,-77.471168,/N Washington Hwy
160,37.722018,-77.784451,Pony Farm Rd
216,37.626962,-77.340084,Wesbeam Dr/Redgate Ln
305,37.702879,-77.418621,Great Meadows Dr/Fair Hill Pl/Fair Hill Ct
160,37.726028,-77.631351,Edgelake Ct/Abner Church Rd
216,37.605564,-77.383562,Ford Ave/Oak St
185,37.721163,-77.586167,/Gordons Ln
160,37.613976,-77.352464,Woodberry Dr/Hunter Dr
185,37.872388,-77.639003,Old Ridge Rd/Goshen Rd
185,37.623561,-77.169173,Brian Ct/Christian Ridge Dr
160,37.631064,-77.302161,Saber Ct
305,37.682402,-77.380861,Patrick Henry Blvd/Chamberlayne Rd
160,37.673528,-77.330422,/Bird Dog Dr
445,37.625016,-77.305436,/Mechanicsville Tpke
160,37.747123,-77.418579,Mechumps Creek Ln
246,37.591026,-77.339396,Brooking Way/Hanna Dr
216,37.630960,-77.388490,Ellerson Green Ct
246,37.844596,-77.456926,Kings Dominion Blvd
216,37.823963,-77.688340,Clazemont Rd/Mountain Rd/Beaver Dam Rd
160,37.840884,-77.672138,Woodman Hall Rd/Connie Hall Rd
246,37.687301,-77.409529,Mead Hall Ct
160,37.880725,-77.580624,Old Ridge Rd
185,37.602395,-77.178291,/Flannigan Mill Rd
216,37.589766,-77.320081,Simpkins Ct/Bonniefield Dr
185,37.590529,-77.337219,Harriet Ln/Adaline Ln
445,37.602714,-77.345082,Walnut Grove Ct
185,37.647177,-77.394263,Ruteland Rd/Sherton Dr
362,37.677595,-77.373000,Rural Point Rd
160,37.643528,-77.198713,Wendellshire Way/Old Church Rd
246,37.647479,-77.244018,/Mechanicsville Tpke
185,37.691550,-77.367615,Clay Farm Way
160,37.609448,-77.321203,Bunker Hill Dr
276,37.649510,-77.345959,Haversack Ln/Gabion Ln
2009,37.758283,-77.464782,England St
865,37.617594,-77.318415,/Mechanicsville Tpke
334,37.633958,-77.341042,Wetherden Dr/Thornham Ln
334,37.620956,-77.377898,Glenbrook Ct
185,37.629164,-77.389975,Ellerson Green Pl
839,37.846015,-77.452842,/I- 95
160,37.860356,-77.464797,/Doswell Rd
160,37.722206,-77.600993,Cauthorne Rd
160,37.688344,-77.260091,Leaf Ln
160,37.750441,-77.462380,S Hill Carter Pkwy
160,37.571856,-77.209470,Jayto Dr/Black Creek Dr
362,37.624457,-77.386567,N Run Medical Dr
276,37.645453,-77.394125,Atlee Rd/Dorothy Ln
246,37.753203,-77.467085,Amber Oak Ln/Winter Oak Dr
390,37.592498,-77.321384,Cold Harbor Rd
185,37.691075,-77.422092,Rappahannock Trl/Parahunt Pathway
160,37.684133,-77.328151,/Pollard Creek Rd
160,37.757773,-77.373898,Nelsons Ridge Dr
185,37.623718,-77.330858,Wedgewood Rd
390,37.620452,-77.339916,/Lee Davis Rd
276,37.639557,-77.301632,Pole Green Rd
160,37.711167,-77.561044,/Mountain Rd
246,37.636150,-77.330719,Rustic Ln
160,37.618421,-77.310294,Shady Woods Ln/Lake Haven Dr
216,37.693778,-77.410594,Linderwood Dr
710,37.628960,-77.344173,Cinnamon Ct
276,37.688002,-77.428936,Charter Xing/Kings Charter Dr
160,37.736067,-77.559602,/Ashland Rd
390,37.632281,-77.304134,Ironclad Dr/Shiloh Pl
390,37.710031,-77.635811,Ashland Rd
305,37.764108,-77.366823,/County Complex Rd
185,37.755101,-77.480688,Virginia St/Arlington St
160,37.801511,-77.545193,Riverside Ct
276,37.644589,-77.385080,Mann Dr/Dell-Ray Dr
305,37.685613,-77.183254,Mechanicsville Tpke
276,37.768190,-77.481175,Park St/Park Ave
445,37.629104,-77.341083,Lee Davis Rd/Spicewood Dr
160,37.742185,-77.358540,Margel Dr/Hanover Courthouse Rd
185,37.630477,-77.308977,Siege Rd
305,37.626976,-77.385082,/Meadowbridge Rd
160,37.775798,-77.677687,Canterbury Rd/Rollingwood Ln
276,37.687332,-77.419503,Matthews Grove Ln/Kings Charter Dr
276,37.675352,-77.351445,Georgetown Rd/Rural Point Rd
160,37.733966,-77.661135,/S Anna Dr
185,37.603080,-77.318751,Violet Cir
160,37.794617,-77.464995,/Homebound Rd
185,37.659933,-77.386455,Windmill Watch Dr/Laurel Grove Rd
216,37.631315,-77.311019,Poppy Seed Ln
160,37.609706,-77.299714,Ridgehill Ln
160,37.641011,-77.350766,Bell Creek Rd
472,37.591894,-77.345001,I- 295
813,37.649509,-77.402472,Chamberlayne Rd
276,37.606383,-77.338378,Lark Cir/Walnut Grove Dr
276,37.661091,-77.401284,Combs Dr
160,37.923270,-77.702247,Belsches Rd
472,37.605934,-77.339171,Walnut Grove Dr/Sunnyhill Dr
246,37.636408,-77.345606,Pole Green Rd
276,37.634706,-77.272489,/Mechanicsville Tpke
160,37.594568,-77.191273,Cattail Run Dr
160,37.633336,-77.331435,Angela Nicole Ln
185,37.760144,-77.456370,E Patrick Henry Rd
216,37.597451,-77.361794,Aquarius Dr/Catlin Rd
216,37.751967,-77.464742,Round Oak Cir
216,37.677389,-77.390949,/New Ashcake Rd
472,37.616818,-77.304821,Deep Creek Dr/Green Haven Dr
185,37.645766,-77.392305,Fayemont Dr/Ruteland Rd
390,37.625541,-77.303636,Mechanicsville Tpke
246,37.705925,-77.493170,Elmont Rd/Cedar Ln
160,37.894485,-77.663684,/Beaver Dam Rd
499,37.755277,-77.473498,Short St
160,37.585687,-77.285616,Cold Harbor Rd
276,37.634470,-77.272512,Mechanicsville Tpke
305,37.664482,-77.377735,Braxton Way/Crown Colony Pkwy
160,37.686701,-77.466414,Colonial Estates Cir
160,37.832691,-77.661596,Robert Terrell Rd
160,37.776367,-77.483306,Mayers Run Dr/N James St
160,37.804404,-77.473717,Attkisson Rd
216,37.567796,-77.269901,/Cold Harbor Rd
526,37.764621,-77.469686,Kings Arms St
305,37.633240,-77.324147,Harbour Mist Ln/Trudi Pl
631,37.598157,-77.376516,/Elm Dr E
216,37.673958,-77.422215,Crescent View Dr/Stags Leap Dr
526,37.633097,-77.392409,Silkwood Ct
160,37.719170,-77.526398,Cedar Ln
160,37.621214,-77.160521,Dressage Way
160,37.801974,-77.655273,Mountain Rd
276,37.655285,-77.397996,Sedgehill Ct/Hollyhedge Ln
552,37.610878,-77.349714,Wynbrook Ln/Mechanicsville Tpke
160,37.683855,-77.424968,Thor Ln/Plymouth Pl
390,37.689598,-77.417514,Chotank Trl/Wanchese Way
160,37.695550,-77.551105,/Mountain Rd
160,37.769974,-77.464435,/Haley Rd
160,37.753850,-77.468471,Amber Oak Ln
185,37.638325,-77.392306,Colmar Dr/Wanda Dr
