Estimated daily crossings,Latitude,Longitude,Name
631,36.706131,-76.236061,Battlefield Blvd S/Stadium Dr
276,36.711541,-76.225690,/Great Brg Byp
160,36.758033,-76.241691,Kingsway Dr
334,36.802240,-76.230468,Lindbergh Ave/Milby Dr
472,36.814524,-76.270561,Jefferson St/Seaboard Ave
185,36.760986,-76.329624,Levee Ct/Levee Ln
246,36.736465,-76.353429,Flying Star Ct/Appaloosa Trl
160,36.774462,-76.266833,Carolyn Dr/Howard Rd
185,36.754411,-76.280896,Costa Ave
160,36.754737,-76.283205,Mains Creek Rd
160,36.716142,-76.256242,Albemarle Dr
246,36.797664,-76.246238,Lloyd Dr/Shoemaker Dr
390,36.821207,-76.406015,Wedgewood Dr/Dock Landing Rd
362,36.741729,-76.229313,Long Brooke Ct/Hagenspring Rd
160,36.723917,-76.246418,Locks Rd
362,36.773098,-76.224908,Saddleback Lndg
839,36.755214,-76.211927,Copper Stone Cir
160,36.732047,-76.355295,Black Bear Ct
276,36.766632,-76.273323,Keats Lndg
276,36.752342,-76.264831,Huntly Dr/Huntly Ct
216,36.760247,-76.197191,Shortleaf Ln/Nandina Dr
216,36.841319,-76.430186,Pheasant Way
160,36.772700,-76.327602,Oklahoma Dr/S Military Hwy
276,36.797942,-76.391883,Rowlock Rd/Valley Point Cres
185,36.781079,-76.329548,Canal Dr/Geneva Ave
276,36.712858,-76.284204,Whisper Walk/Bridge Dr
160,36.758190,-76.243882,Birchwater Ave/S Monterey Dr/Birch Water Arch
390,36.750777,-76.266850,Huntly Dr/Sutherland Dr
185,36.811782,-76.279758,Park Ave/Porter St
334,36.800235,-76.247258,Lloyd Dr/Providence Rd
216,36.710707,-76.198112,Rosebud Ln/Towle Dr
526,36.777547,-76.222511,Eden Way N
334,36.680171,-76.228764,Great Brg Byp
160,36.741805,-76.305098,Rockwood Dr/Kaywood Ln
160,36.704761,-76.212869,Fentress Rd/Mount Pleasant Rd
216,36.704456,-76.252141,Southern Oaks Dr/Foxgate Quarter
390,36.819445,-76.279612,Boundary St/Buchanan St
334,36.748360,-76.234655,Green Tree Cir
2301,36.776975,-76.230499,Greenbrier Pkwy//Crossways Blvd
276,36.706112,-76.256227,S Lake Cir/Long Pt
185,36.618647,-76.211313,/Battlefield Blvd S
390,36.819485,-76.255231,Berkley Ave
216,36.784230,-76.221303,Kelly Run
334,36.746444,-76.237385,/Oak Grove Rd
160,36.768182,-76.264419,McCosh Dr/Kincaid Ter
185,36.754101,-76.238674,Chesterfield Ter
552,36.743797,-76.255394,Great Brg Byp
418,36.852114,-76.419735,Meadows Way/Pampus Ln
185,36.735617,-76.207523,Gilchrist Ct
246,36.737024,-76.242049,/Great Brg Byp
160,36.743029,-76.265194,Sandcastle Way/Dissdale Ln
526,36.728041,-76.345091,Andiron Arch
418,36.726659,-76.329515,Lynnfield Ct/Lynnfield Rd
246,36.697363,-76.213723,Oakford Crst
684,36.837430,-76.432733,Big Bend Ct
216,36.777514,-76.275825,Shell Drake Ct/Canadian Dr
526,36.852996,-76.415387,Peppercorn Dr/Taylor Rd
160,36.784180,-76.268696,Peartree St
216,36.742963,-76.206250,Poquoson Xing/Great Marsh Ave
445,36.708956,-76.225982,/Great Brg Byp
276,36.758701,-76.285902,Ray Ave
276,36.767073,-76.254245,/Red Cedar Ct
185,36.693559,-76.238824,Gallenway Ter/Unser Dr
362,36.697283,-76.243482,Flintlock Rd/Remington Dr
334,36.752004,-76.275452,Pine Harbor Ct/Pine Valley Run
390,36.807207,-76.224347,Clipperton St/Lockard Ave
185,36.771535,-76.220932,Mabry Mill Pl
160,36.717035,-76.297573,Dunning Ln
216,36.821697,-76.241105,Oaklette Dr/Indigo Rd
362,36.734510,-76.316186,Millville Rd
418,36.782631,-76.221173,Lake Point Dr
334,36.795564,-76.281652,I- 464
605,36.813612,-76.277456,Jefferson St/Hull St
216,36.844740,-76.403530,Duke of Gloucester Ct/Duke of Gloucester Dr
631,36.795768,-76.394850,Trailwood Ct/Scotchwood Ct/Maplefield Dr
390,36.756317,-76.280492,Channel Pl/Harbour Pl/Harbour North Dr
185,36.789944,-76.336420,Misty Ct
362,36.714240,-76.183051,Mount Pleasant Rd
334,36.747051,-76.263742,Great Bridge Blvd
445,36.802976,-76.269384,Chesapeake Ave/Jerome St
160,36.684169,-76.268367,Cantor St
216,36.772790,-76.264045,McCosh Dr/Duffield Pl
631,36.794663,-76.395809,Rhonda Cres/Brookfield Ln
185,36.568990,-76.252193,Starling St
160,36.691574,-76.282031,Pecan Forest Ct
160,36.696382,-76.269953,Southwood Dr/Parker Rd
185,36.705934,-76.268915,Ferrum Ln/Montebello Cir
968,36.809462,-76.219151,/S Military Hwy
305,36.784795,-76.222215,Keeter Run
160,36.683728,-76.217616,Palomino Ct
305,36.856573,-76.412074,Dunedin Dr/Bomar Dr
526,36.821011,-76.279286,Butt St/Bainbridge Blvd
185,36.735343,-76.189667,Vance Cir/Telfon Cir
305,36.747434,-76.265071,Great Bridge Blvd
362,36.712035,-76.241345,Newberry Dr/Horse Run Dr
472,36.858327,-76.409698,Radford Cir/Bruin Dr
445,36.758171,-76.339445,Trent Ave
185,36.746309,-76.357327,Georgie Ct
160,36.856545,-76.403747,Kindlewood Cres/Kindlewood Ct
362,36.697390,-76.200102,Camellia Ct/Weeping Willow Dr
605,36.728785,-76.304004,Lancing Way/Lancing Crest Cir/Lancing Crest Ln
216,36.835237,-76.234061,Commonwealth Ave
334,36.759817,-76.252995,Basswood Ct
710,36.796868,-76.395738,Foxglove Ct/Maplefield Dr
710,36.762875,-76.202319,Volvo Pkwy/Plantation Xing
305,36.777146,-76.277967,Canadian Dr/Bufflehead Dr
246,36.743740,-76.268303,Shenandoah River Rd/Pamunkey River Ct/New River Ct
160,36.815307,-76.236443,Lilac Ave/Cornick Ave
445,36.754717,-76.269155,Blake St
160,36.559547,-76.217422,Ballahack Rd
305,36.851464,-76.404708,/Hawksley Dr
276,36.759176,-76.277216,Tennyson St
276,36.786813,-76.273913,4th St/Freeman Ave
362,36.764160,-76.218231,Fairway Reach/Quail Creek Hollow
276,36.778099,-76.279497,Goldeneye Dr
246,36.686275,-76.219948,/Jule Dr
305,36.744757,-76.251423,/Medical Pkwy
185,36.819841,-76.276570,Decatur St/Buchanan St
246,36.695979,-76.198616,Jamaica Ln/Stockleybridge Dr
160,36.715136,-76.297133,Thornton Ln/Eagle Pointe Way
605,36.755858,-76.239765,Chesterfield Ter
185,36.821430,-76.250487,Wingfield Ave/Oaklette Dr
418,36.691018,-76.237681,Churchill Dr/Leicester Ct
276,36.684828,-76.195976,Lingale Arch/Old Coach Rd
334,36.763475,-76.284763,Joyner Rd/Grant St
552,36.817456,-76.443090,Jolliff Rd/Old Gum Rd
362,36.709620,-76.270336,Middle Oaks Dr/Faire Chase
160,36.762777,-76.217722,/Crooked Stick Xing
185,36.754912,-76.184481,Centerville Tpke N
246,36.731183,-76.301722,Lancing Way/Vinton Cir
390,36.690443,-76.248707,Orchard Trail Rd
185,36.759444,-76.256291,Volvo Pkwy/Byron St
185,36.786473,-76.293891,Foley St/Freeman Ave
658,36.795059,-76.216356,Keswick Cir
276,36.744602,-76.229715,Winterwater Ct
216,36.642223,-76.147214,/Carolina Rd
631,36.823797,-76.264010,Berkley Ave
276,36.792194,-76.404991,River Dr/Spring Rd
445,36.657461,-76.229562,/Great Brg Byp
185,36.571926,-76.247688,Ballahack Rd/Cardinal St
160,36.644928,-76.237459,Saint Brides Rd W
276,36.711861,-76.282186,Lands End Dr/Landmark Ct
185,36.832196,-76.235700,Sparrow Ln
418,36.703970,-76.202019,Amanda Ct
160,36.716205,-76.297647,Linton Cir
160,36.714660,-76.233343,Lee Ct
160,36.721324,-76.331251,Pitchback Ln
276,36.779895,-76.356010,Moat Ln/Archery Dr
185,36.691325,-76.185087,/Centerville Tpke S
246,36.765041,-76.283955,Joyner Rd/Jones St
305,36.793854,-76.251297,Lloyd Dr/Allison Dr
362,36.832637,-76.426025,Deerfield Cres/Deerfield Ct
334,36.776553,-76.339493,Elkhart St/George Washington Hwy N
334,36.845450,-76.402697,/Terry Dr
160,36.713097,-76.171453,Berndale Dr/Fall Ridge Ln/Fall Ridge Ct
276,36.810666,-76.250782,/Stalham Rd
736,36.792511,-76.329142,/George Washington Hwy N
305,36.822921,-76.249923,Salton Dr/Wingfield Ave
418,36.816049,-76.260678,Atlantic Ave
362,36.762460,-76.225118,Greenbrier Pkwy/Saint Andrews Reach
445,36.780520,-76.272767,Opal St
579,36.842282,-76.433076,Old Fox Trl
334,36.846470,-76.418205,Epping Ct
499,36.822569,-76.233582,Indian River Rd/Myrtle Ave
1097,36.769392,-76.222701,Volvo Pkwy/Brookside Lndg
276,36.807386,-76.276972,Orville Ave/Bainbridge Blvd
160,36.852479,-76.390811,Saunders Ln
160,36.606166,-76.252717,Taft Rd
160,36.787589,-76.293869,Foley St
160,36.703900,-76.101807,/Blackwater Rd
1563,36.773598,-76.254352,Battlefield Blvd N/I- 64
305,36.706436,-76.219824,Bridgefield Blvd/Mount Pleasant Rd
472,36.759771,-76.364093,Mostiler Pl/Mostiler Ct
1355,36.822191,-76.419353,Portsmouth Blvd/Jester Ct
276,36.712072,-76.280805,Whisper Walk
305,36.767677,-76.223971,Brigantine Ct/Eden Way S
246,36.848992,-76.416819,Coleshill Ln/Bentham Ln
160,36.830606,-76.408110,Knox Ct
390,36.758507,-76.248506,/Essex Dr
216,36.797106,-76.410711,Pine Grove Ln/Dock Landing Rd
216,36.735899,-76.279341,Fern Quay
160,36.743895,-76.335028,Bells Lndg
334,36.722954,-76.186301,Centerville Tpke S
160,36.767447,-76.333595,Hopewell Dr/Roundtree Cir
185,36.671723,-76.230284,Great Brg Byp
390,36.767647,-76.235808,Volvo Pkwy/Executive Blvd
185,36.819785,-76.236658,Oleander Ave/Davis Ave
526,36.842678,-76.431681,Big Bend Dr
362,36.809261,-76.253270,Malcolm Ct/Sunrise Ave
305,36.847396,-76.436820,John St
160,36.791234,-76.336560,/Deep Creek Blvd
276,36.688537,-76.213091,Linkenborough Dr/Ravenstone Ct/Ravenstone Dr
334,36.825788,-76.225520,Lusk St
160,36.733673,-76.311143,Angler Ct
185,36.754290,-76.199547,Winchester Way/Claytor Ct
362,36.819349,-76.270925,Liberty St/Guerriere St
305,36.844739,-76.415357,Scotsman Run
160,36.792739,-76.439494,Goose Creek Ct
185,36.691813,-76.184796,Centerville Tpke S
185,36.767187,-76.272583,Keats Station/Keats St
216,36.691446,-76.196001,Denham Arch/Sydenham Blvd
390,36.775524,-76.281751,/S Military Hwy
160,36.772874,-76.214263,Sand Trap Ct
160,36.730129,-76.279810,Inland Rd/Deepwater Dr
418,36.808158,-76.429191,Mooring Ct
216,36.695706,-76.276486,Scenic Blvd/Denver Ave
160,36.839464,-76.402944,Meadow Forest Ct/Meadow Forest Rd
160,36.628573,-76.268396,/Benefit Rd
684,36.765537,-76.221071,Ivy Trl/Ivy Brg
276,36.699965,-76.234143,Luray Ter/Clover Dr/Battlefield Blvd S
160,36.805695,-76.241117,Whitehaven Cres/Whitehaven Ct
185,36.686878,-76.273401,Chateau Cir/Old Vintage Rd
362,36.685484,-76.196799,Beacon Hill Pl/Beacon Hill Rd/Old Coach Rd
160,36.808778,-76.267942,Pocahontas Ave/Hines Ave
160,36.708372,-76.191144,Currituck Dr/Oregon Xing
185,36.738884,-76.170817,/Elbow Rd
216,36.755491,-76.354439,Morris Ct/Troy Ln
185,36.699636,-76.264272,Keeling Dr/Flax Mill Dr
445,36.837141,-76.421352,Taylor Rd
658,36.756960,-76.246506,Oak Leaf Ct
246,36.821295,-76.403873,Wedgewood Cir/Wedgewood Dr
216,36.762152,-76.322215,Wilson Spruce Ct/Woods Way
185,36.694880,-76.183424,Centerville Tpke S
160,36.762400,-76.292955,Precon Dr
246,36.760327,-76.338769,Glen Oak Xing/Fenway Ave
246,36.799142,-76.268629,Chesapeake Ave/Buff St
813,36.847815,-76.426892,Station House Rd
276,36.698343,-76.230384,W Hill Ln
445,36.848325,-76.410773,Sugar Run
160,36.749444,-76.329732,Shorebird Ln/Shorebird Ct
185,36.774201,-76.318854,State St/Chapel Ave
334,36.767101,-76.270564,/I- 464
246,36.751422,-76.237705,Oak Lake Run/Oak Lake Way
276,36.745452,-76.268598,Shenandoah River Rd/River Walk Pkwy
246,36.706437,-76.245408,Briarfield Dr/Woodbridge Dr
160,36.758318,-76.211249,Placid Ct
160,36.694865,-76.209543,Gladesdale Dr/Bisham Ct
658,36.759767,-76.324131,I- 64
305,36.691735,-76.200236,Beckley Ln/Launton Ct
216,36.569230,-76.250671,Cardinal St
390,36.720514,-76.274651,Alexander Ln/Ricks Ct
185,36.763055,-76.222894,Aint Andrews Reach/Saint Andrews Reach
160,36.731783,-76.313215,Moses Grandy Trail Sr165
185,36.787657,-76.296292,Vera St
185,36.695345,-76.269363,Amberline Ct/Amberline Dr
276,36.815614,-76.248911,Wagon Rd/Border Rd
185,36.816708,-76.416909,Christopher Dr/Genoa Cres
710,36.787125,-76.264738,Waverton Pkwy
334,36.794039,-76.276874,Arlie St/Edgewood Ave
276,36.734893,-76.280271,River Strand
246,36.733231,-76.209591,Greystone Ln
334,36.690225,-76.239342,/Wildcat Pkwy
216,36.786513,-76.345682,Breeze Ave
445,36.760442,-76.323049,Wye Oak Way
160,36.599631,-76.278553,/Bunch Walnuts Rd
216,36.776739,-76.257009,Rainbow Ln/Debaun Ave
276,36.679569,-76.229525,/Kegman Rd
305,36.692111,-76.218626,Cherie Ct/Jo Anne Cir
216,36.793366,-76.414059,Burrowin Dr
276,36.800161,-76.407371,Mariner Dr
160,36.678931,-76.200111,Redding Ct
276,36.804022,-76.254904,Cedar Xing/Roadside Ln
276,36.750164,-76.237333,Green Tree Rd/Oak Grove Rd
216,36.807945,-76.414014,Rollis Rd
160,36.716597,-76.296714,Granton Ter/Dunning Ln
216,36.768453,-76.209698,Otterbourne Cir/Aldershot Ln
445,36.807776,-76.279529,I- 464
246,36.785029,-76.278033,Franklin St/Portlock Rd
1563,36.768404,-76.230817,/Volvo Pkwy/Progressive Dr
445,36.842666,-76.433608,I- 664
891,36.809409,-76.219019,/S Military Hwy
334,36.780979,-76.283866,I- 464/Bainbridge Blvd
418,36.809460,-76.262565,Pocahontas Ave/Oliver Ave
499,36.757302,-76.222606,Clear Springs Ct/Cross Creek Quay
246,36.788080,-76.338457,Darley Ln/Spencer Ln
246,36.775005,-76.336087,Livesay Rd/Baugher Ave
185,36.811000,-76.408511,Raleigh Rd/Dock Landing Rd
334,36.744420,-76.259602,Willow Point Arch
605,36.698580,-76.199476,Weeping Willow Dr/Peachtree Dr
246,36.804927,-76.230012,Bloom Ave/Paramont Ave
1174,36.566344,-76.246856,Northwest Blvd
605,36.791520,-76.219245,I- 64
160,36.707190,-76.200884,Priscilla Ln/Loretta Ln
185,36.688368,-76.213086,Ravenstone Ct
185,36.624452,-76.340888,Wild Horse Ridge
276,36.742770,-76.228606,Hagenspring Rd/King Maple Ct
246,36.790227,-76.228890,/Greenbrier Cir
334,36.808652,-76.427613,Dock Harbour Dr/Woodland Dr/Frederick Ct
216,36.852281,-76.405328,Jonquil Ct
160,36.711285,-76.323270,/West Rd
216,36.747904,-76.230865,Silk Tree Ln
305,36.754140,-76.268763,Hunters Quay
246,36.739371,-76.270081,Honey Locust Way/Elderberry Ct
160,36.686688,-76.184212,/Murray Dr
185,36.709046,-76.300037,Forest Glade Dr
276,36.794096,-76.281269,Edgewood Ave
813,36.822610,-76.261014,Berkley Ave
160,36.772214,-76.355308,S Military Hwy
246,36.632337,-76.216025,Great Brg Byp/Benefit Rd
160,36.713457,-76.275028,Doe Run Ct/Doe Run Dr
216,36.839284,-76.410035,Meadowview Rd/Greenwood Rd
276,36.817507,-76.258155,Drayton Rd
216,36.553396,-76.194719,Great Brg Byp
445,36.786591,-76.423051,W Military Hwy/I- 664
334,36.694112,-76.243051,Whitney Ct
246,36.685940,-76.229795,/Battlefield Blvd S
445,36.799954,-76.400315,Holly Cove Dr
276,36.706608,-76.281326,Cathedral Dr/Granada Dr
246,36.748353,-76.264515,Helmsdale Ct/Helmsdale Way/Sutherland Ct/Sutherland Dr
185,36.706708,-76.178951,School House Rd/Kettle Creek Ter
390,36.786416,-76.222128,Logans Mill Trl/River Birch Run N
246,36.692202,-76.258886,Lincolnshire Ct
185,36.739764,-76.275756,Cross Quay
246,36.692086,-76.280952,Poplar Forest Ct
160,36.644085,-76.150703,/Carolina Rd
185,36.580179,-76.256012,Ballahack Rd
246,36.776624,-76.353544,Parapet Rd/Sir Meliot Dr
185,36.852350,-76.405801,Bruin Dr/Jonquil Ct
276,36.820068,-76.275538,/20th St
216,36.706252,-76.250392,Thorn Rose Ct
185,36.820327,-76.256797,Berkley Ave/Ruritan Blvd
185,36.746291,-76.329584,Grace St
362,36.685629,-76.200564,Etheridge Manor Blvd/River Gate Ct/River Gate Rd
246,36.800746,-76.420344,Travelers Way
160,36.726767,-76.341154,Sawyers Arch/Red Rider Ln
390,36.774028,-76.221742,Golden Cypress Ct/Cypress Pl
160,36.714167,-76.142571,Mount Pleasant Rd
499,36.822703,-76.417018,/Portsmouth Blvd
185,36.716112,-76.269285,Bay Laurel Ct
418,36.770033,-76.226274,Turtle Rock Trce/Sugar Tree Ct
160,36.743529,-76.338547,Wharfs Lndg
160,36.763340,-76.223005,Aint Andrews Reach
246,36.772766,-76.329745,/S Military Hwy
362,36.803402,-76.427370,/Dock Landing Rd
499,36.793205,-76.259795,Campostella Rd
185,36.677962,-76.194342,Harwich Dr/Laurel Ridge Ln
362,36.711127,-76.209616,Downing Dr/Kensington Way/Kensington Ct
362,36.837864,-76.428927,Deer Trl/Squirrel Run
334,36.683181,-76.235827,Kingsbury Ct/Avonlea Dr/Kingsbury Dr
579,36.775608,-76.224536,Merchants Ct
445,36.818953,-76.432604,Portsmouth Blvd/I- 664
276,36.762527,-76.274871,Shelley St
160,36.740609,-76.281398,Driftwood Dr
334,36.792333,-76.252760,Foster Ct
160,36.804627,-76.437709,Manning Ct/Jolliff Rd/Goshawk Dr
160,36.687549,-76.193154,Carey Ct
305,36.743063,-76.257116,/Great Bridge Blvd
2274,36.824902,-76.404088,Portsmouth Blvd
736,36.788424,-76.232234,Greenbrier Cir
305,36.697562,-76.201878,Weeping Willow Dr/Red Bay Ln
160,36.792178,-76.395998,Wyant Ct
1020,36.865631,-76.407196,Tejo Ln/Churchland Blvd
362,36.703803,-76.228890,Caravelle Ct N/Caravelle Dr
334,36.843661,-76.402709,Prince of Wales Ct
160,36.783949,-76.253869,Pvt 12 Rd
445,36.817458,-76.275430,Poindexter St
160,36.795300,-76.318981,Victory Blvd
334,36.706968,-76.238646,Glovers Ct
276,36.759773,-76.342907,Garnes Ave
390,36.689914,-76.278821,Spruce Forest Ct
579,36.848271,-76.408621,/Bruin Pl
362,36.821730,-76.246579,Oaklette Dr/Stalham Rd
362,36.819395,-76.265146,Westgate Ct
362,36.772590,-76.337840,/S Military Hwy
160,36.752354,-76.348358,Blanche Ct
216,36.749251,-76.354068,Grain Way
246,36.762880,-76.210873,Rellen St/Blair Ct
710,36.814865,-76.267975,Hoover Ave/Jefferson St
362,36.797190,-76.438669,Pittway Ct
246,36.804675,-76.280578,Cora St
390,36.703771,-76.228570,Caravelle Ct N
160,36.786835,-76.379768,Lakeview Dr/Daytona Dr
418,36.824143,-76.238674,Indian River Rd/Oaklette Dr
185,36.688265,-76.195237,Denham Arch/Bourbon Ct
710,36.721723,-76.240279,Battlefield Blvd N/Locks Rd
160,36.735271,-76.355146,Holly Ridge Dr
552,36.792911,-76.219037,Upton Cir/Eaton Way
276,36.695785,-76.214364,Aston Pl
185,36.823876,-76.228714,Neptune Ln
160,36.637000,-76.327792,Curling Ct
917,36.791895,-76.230791,Greenbrier Cir
552,36.801536,-76.243366,Dunbarton Dr/Providence Rd
334,36.742877,-76.287391,Monarch Reach
813,36.799856,-76.399587,Schooner Trl/Holly Cove Dr
216,36.712717,-76.267672,Seabrook Ln
246,36.759808,-76.336620,Wooddale Ct
216,36.673040,-76.176019,/Land of Promise Rd
276,36.744995,-76.268917,River Walk Pkwy
658,36.783872,-76.227849,Elysian Pl
246,36.685708,-76.203645,Etheridge Manor Blvd/Sydenham Blvd
334,36.814675,-76.411392,Monaco Cir
246,36.742157,-76.233014,Spring Maple Ct
736,36.824756,-76.251967,Petre Rd/Gracie Rd
246,36.792967,-76.269893,Pelham St/Kay Ave
276,36.785931,-76.330383,Briarcliff Pl/Battery Park Rd
362,36.815448,-76.261212,Atlantic Ave/Liberty St
276,36.712398,-76.205094,Picadilly Ct
160,36.808115,-76.257199,Munden St/Emmerson St
390,36.787423,-76.399842,/I- 264
246,36.787798,-76.363882,Cavalier Blvd
552,36.728803,-76.332895,Fleming Cir
160,36.699083,-76.211846,Etheridge Rd/Edenbridge Dr
334,36.754577,-76.237953,Oak Gate Dr/Whispering Oak Cir
334,36.858354,-76.417301,Portobello Ct
362,36.813787,-76.265047,Old Atlantic Ave/Park Ave
276,36.706787,-76.199552,Glenda Cres
1149,36.741960,-76.345433,/George Washington Hwy N
418,36.748436,-76.225135,Broad Reach Rd/Lee Shore Ct
276,36.749049,-76.247431,Knells Ridge Blvd
418,36.717189,-76.235216,Woodford Dr
216,36.761978,-76.344439,/George Washington Hwy N
216,36.768523,-76.329145,Southern Pines Dr/Pinehurst Dr
276,36.835040,-76.228085,Glen Ct
246,36.843710,-76.394521,Stratford Dr/Woodmoor Ct
246,36.784436,-76.341703,Old Deep Creek Blvd
605,36.707819,-76.226108,/Mount Pleasant Rd/Great Brg Byp
185,36.849011,-76.419533,Crossings Dr/Birsay Ct
362,36.738702,-76.216411,Brandon Way/Arcadia Rd
334,36.760448,-76.281955,Booker St/Charles St
160,36.735343,-76.191549,Vance Cir/McKinzie Ct
246,36.764631,-76.210639,Rellen St/Debbs Ln
185,36.738331,-76.266028,/River Walk Pkwy
160,36.708192,-76.267058,Wessex Dr/Montebello Cir
362,36.724345,-76.338776,Sawyers Mill Xing/Bear Creek Ln
445,36.774670,-76.277933,I- 464/S Military Hwy
216,36.709152,-76.248753,Bartell Dr/Blackberne Ct
362,36.718843,-76.293899,Hawick Ter
526,36.733751,-76.238168,Snowberry Ln
526,36.734073,-76.235850,Taxus St
445,36.757851,-76.277210,Libertyville Rd
334,36.795677,-76.219155,Drake Cir
276,36.738668,-76.206909,Butts Station Rd/Clearfield Ave
362,36.703591,-76.247345,Wickwood Dr
216,36.707666,-76.262477,Warrick Rd
276,36.809761,-76.246798,Welcome Rd/Pvt 3 Rd
788,36.793422,-76.219298,Upton Cir
185,36.857479,-76.419448,Challis Ct/Challis Dr
445,36.813325,-76.264426,Old Atlantic Ave/Martin Ave/Atlantic Ave
185,36.631976,-76.208083,Battlefield Blvd S/Benefit Rd
684,36.808474,-76.430513,I- 664
605,36.828799,-76.410710,Chesapeake Square Access Rd/Taylor Rd
445,36.771544,-76.275846,E Eva Blvd
276,36.682446,-76.201496,Blackthorne Ct/Blackthorne Dr
276,36.846003,-76.408926,Bruin Dr/Arundel Ln
418,36.842911,-76.431239,Gum Rd
185,36.791879,-76.277611,Ellsworth Ave/Elco St
185,36.816265,-76.448774,/Portsmouth Blvd
445,36.758002,-76.267710,Dominion Blvd N
499,36.792762,-76.219301,Orford Cir/Eaton Way
362,36.737757,-76.216668,Pecan Point Ct
160,36.715115,-76.309490,Shillelagh Rd
216,36.744864,-76.268711,Meherrin River Ct
305,36.724796,-76.335500,Noggin Cir/Millhouse Ln
499,36.757490,-76.287853,Bainbridge Blvd/I- 64
216,36.704587,-76.334039,Drumcastle Ln
216,36.686547,-76.228161,Great Brg Byp
445,36.812962,-76.270792,Park Ave
445,36.756122,-76.220333,Woodsmans Ct
579,36.740985,-76.344508,Hinton Ave/Cedar Rd
216,36.750578,-76.313290,Windrose Ln/Sunsprite Loop
362,36.763345,-76.284309,Pile Ave/Grant St
305,36.700085,-76.208840,Brandermill Ct
216,36.695437,-76.198752,Jamaica Ln/Seagull Ct
160,36.802248,-76.253043,Holly Point Blvd
185,36.754019,-76.240008,Mathews Dr/Knells Ridge Dr/Mathews Ct
216,36.744997,-76.225552,Hunters Bridge Dr/Greenbrier Rd
472,36.703236,-76.247717,Hearndon Ct/Wickwood Dr
762,36.725877,-76.297845,Cedar Rd
246,36.693319,-76.232095,Battlefield Blvd S
305,36.844646,-76.434604,Old Pughsville Rd
246,36.784932,-76.279730,Portlock Rd/Bernard St
305,36.758947,-76.330539,Wood Duck Ln/Firman St
216,36.715878,-76.176113,Cicero Ct/Vespasian Cir
216,36.743508,-76.271205,Broadleaf Xing/Hardwood Dr
710,36.785428,-76.412501,/I- 664
472,36.707902,-76.198897,Merle Ct/Priscilla Ln
216,36.716820,-76.289559,Rio Dr
334,36.776634,-76.245345,Crossways Blvd
2114,36.790056,-76.237579,Greenbrier Pkwy/Woodlake Dr
185,36.688070,-76.348311,Herring Ditch Rd
216,36.689836,-76.206342,Donnington Dr
362,36.807360,-76.246705,Sir Lance Dr
334,36.701619,-76.241559,Remington Ct/Remington Dr
390,36.756233,-76.206320,Windom Blvd
362,36.713669,-76.229837,White Dogwood Dr/Pepper Tree Ln
579,36.755528,-76.249141,/Red Oak Trl
390,36.815754,-76.262584,Liberty St
362,36.791687,-76.282737,Lamont St
418,36.743786,-76.258815,Willow Point Arch
185,36.765355,-76.323054,Shell Rd
216,36.717831,-76.250803,Holt Dr/Albemarle Dr
246,36.733244,-76.209851,/Greystone Ln
246,36.751339,-76.207510,Steelman Ln
185,36.727209,-76.324653,Lottie Rd
216,36.781910,-76.326997,/Hawkes Ave
276,36.745029,-76.214992,Keri Ct
605,36.746940,-76.247418,/Kingsborough Sq
276,36.762240,-76.222611,St Andrews Way/Saint Andrews Way
246,36.748180,-76.313737,/Sunsprite Loop
1563,36.864677,-76.408018,Western Branch Blvd
246,36.797381,-76.255743,Dexter St E/Mendel Ct
305,36.725199,-76.244916,Tilden Ave
216,36.803814,-76.248095,Crown Cres
390,36.700480,-76.204563,Willow Oak Dr/Weeping Willow Dr
445,36.710521,-76.239967,Battlefield Woods Ct/Johnstown Rd
605,36.740565,-76.251492,Corlew Ct/Jake Ln
362,36.744094,-76.269969,Needlerush Ct
684,36.754997,-76.345203,George Washington Hwy N/Margaret Booker Dr
390,36.767847,-76.277682,S Eva Ct
185,36.713835,-76.140953,Mount Pleasant Rd
160,36.669924,-76.205452,Forest Mills Rd
216,36.804577,-76.221320,Main St/Lockard Ave
552,36.747933,-76.262233,Blossom Arch/Nesting Pl
418,36.760038,-76.286072,Booker St/Ray Ave
185,36.851329,-76.425134,Moneta Dr
362,36.691962,-76.201396,Grantham Ln/Beckley Ln
305,36.768067,-76.214961,Turnberry Ct
334,36.774839,-76.275265,/S Military Hwy
334,36.689995,-76.228119,Great Brg Byp
390,36.723036,-76.284290,Sivills Farm Dr/New Mill Dr
276,36.775428,-76.245821,Crossways Blvd
246,36.714731,-76.293087,Club House Dr/Greens Edge Dr
1693,36.741561,-76.243078,/Battlefield Blvd N
390,36.767365,-76.204020,Longparish Way/Kempsville Rd
216,36.809073,-76.275208,Chamberlain St/Byrd Ave
631,36.784399,-76.233474,Greenbrier Pkwy/I- 64
160,36.807158,-76.259704,Nicholas St/Myers Rd/Higgins St
499,36.778076,-76.328042,Cox Ave/Gilmerton Rd
334,36.708217,-76.237947,Williamsburg Sq/Williamsburg Dr
160,36.746890,-76.204366,Miriam Dr
246,36.608218,-76.211463,Toll Plaza Rd/Battlefield Blvd S
631,36.788658,-76.333762,Shamrock Garden Rd
160,36.761066,-76.315918,Aleck Way/Richwood Ave
390,36.709920,-76.265424,Mill Landing Rd/Pines of Warrick Dr/Cedar Rd
246,36.724123,-76.313329,Rio Mar Ct
334,36.777960,-76.266167,Pvt 5 Rd
276,36.719175,-76.326307,Cedar Rd/Artisan Ave
276,36.762821,-76.323114,Water Birch Ct
526,36.755870,-76.211279,Aspen Arch/Copper Stone Cir
445,36.818280,-76.273765,Jackson Ave/Poindexter St
160,36.634953,-76.254910,Two Gates Cir/Gray Rock Rd
185,36.854312,-76.425370,Annandale Dr/Calverton Way
160,36.705369,-76.248408,Caleb Dr/Woodbridge Dr
684,36.735002,-76.236300,Kempsville Rd/Great Brg Byp
276,36.713218,-76.188993,Pamlico Blvd/Huron Pl
216,36.711216,-76.186607,Windsor Rd/Corapeake Dr
160,36.808255,-76.228276,Elm Ave/McNeal Ave
472,36.819290,-76.439255,Old Jolliff Rd
334,36.761063,-76.337782,Cypress Wood Cove
865,36.785276,-76.255056,Robert Hall Blvd/S Military Hwy
216,36.687121,-76.262219,Holbrook Trce
246,36.737182,-76.241601,/Battlefield Blvd N
160,36.833726,-76.234694,Rollingswood Rd/Rolling Ct
418,36.708038,-76.292165,Van Buren Ct
362,36.785154,-76.267602,Homecrest Blvd
216,36.734242,-76.191433,Butts Station Rd/Blue Moon Cres
305,36.841189,-76.418657,McCaan Quay
185,36.750738,-76.207185,Knotty Pine Dr
160,36.802177,-76.276149,Bainbridge Blvd
160,36.850822,-76.401007,Woodcroft Ln//Oak Dr
418,36.795637,-76.217804,Haverford Dr/Exeter Cir/Farington Cir
276,36.776235,-76.276214,Teal Ct/Snow Goose Dr
160,36.818777,-76.229598,Davis Ave/Laurel Ave
185,36.832900,-76.235416,Sparrow Ln/Sparrow Rd
390,36.736728,-76.191223,Vance Cir/McRowland Way
362,36.694167,-76.241282,Flintlock Ct
160,36.737508,-76.202820,Butts Station Rd/Crossland Dr
276,36.748773,-76.234329,Green Tree Rd/Green Tree Cir
891,36.783352,-76.258614,Battlefield Blvd N
305,36.804609,-76.252967,Holly Point Blvd
160,36.612398,-76.209746,Indian Creek Rd
185,36.712973,-76.269098,Bells Mill Rd
246,36.733746,-76.280477,Marina Reach
185,36.741338,-76.267196,Water Hickory Ct
334,36.800519,-76.409479,Mariner Dr/Dock Landing Rd
160,36.705537,-76.231865,Arch Rd/Melonie Dr
185,36.810635,-76.225427,/Sparrow Rd
305,36.758972,-76.286960,Tuskegee Ave
579,36.861384,-76.399112,Western Branch Blvd
994,36.823001,-76.262071,Berkley Ave
185,36.759622,-76.209031,Placid Way/Sydney Ct
160,36.798892,-76.275581,Kinglet Ave/Westwood Dr
579,36.704552,-76.227315,Scarborough Dr
216,36.825231,-76.244130,Dunwich Rd/Furnace Rd/Ormer Rd
185,36.761831,-76.189832,Mill Pond Arch Rd
160,36.630353,-76.163013,Peoples Rd/Long Ridge Rd
334,36.823134,-76.279462,D St
160,36.796616,-76.222335,Hartwell Ct
246,36.842141,-76.413254,Ashwood Dr
185,36.737818,-76.174324,/Elbow Rd
160,36.758290,-76.317119,Firman St
305,36.753245,-76.348862,Willowwood Dr/Blanche Dr
445,36.716586,-76.177109,/Trajan Reach
246,36.777473,-76.276731,Scoter Ct
246,36.816550,-76.420700,Armada Dr S/Armada Dr E/Isabella Dr
362,36.805716,-76.433074,Arrowhead Ct
160,36.705739,-76.277154,Bells Hollow Ct
362,36.747758,-76.222247,Austin Dr
276,36.786712,-76.282834,Miles St
185,36.753447,-76.213936,Norcova Dr/Cogliandro Dr
246,36.840439,-76.399646,Taylor Acres Ct
185,36.856035,-76.419539,Mornington Dr
216,36.652927,-76.240751,Water View Cir/Justin Quay
684,36.819936,-76.271957,Poindexter St/Liberty St
246,36.688394,-76.192736,Helen Ave/Thaddeus Ct
968,36.864208,-76.420706,Dunedin Dr
160,36.795948,-76.436506,Burkett Ct
276,36.764701,-76.320595,Bramblewood Ct
305,36.711592,-76.283433,Landmark Ct
160,36.810933,-76.251864,Welcome Rd
185,36.828111,-76.244124,Canton Ave
390,36.850660,-76.411089,Clove Ct/Peppercorn Way
276,36.713168,-76.251276,Briarfield Dr/Old Dr
418,36.736718,-76.265144,Seahorse Run
216,36.785074,-76.220474,Logans Mill Trl/Kelly Run
362,36.769625,-76.203574,Kempsville Rd
216,36.849205,-76.414807,Bayford Ct/Crossings Dr
160,36.672344,-76.203339,Fordsmere Rd
305,36.746840,-76.313657,Twilight Arch
334,36.809900,-76.247541,/Welcome Rd
246,36.818148,-76.268435,Nelson Ave/Hoover Ave/Liberty St
499,36.828038,-76.402132,Lakweood Cir/Lakewood Ln
160,36.719380,-76.269889,Avebury Way
418,36.732069,-76.352561,White Cedar Dr
160,36.739716,-76.311211,Reefwood Rd/Burson Dr
390,36.820508,-76.266657,Quail Ave/Westgate St
216,36.768996,-76.206975,Thornwood
362,36.813727,-76.276581,Stewart Ave/Jefferson St
216,36.757295,-76.273153,Finck Ln/Great Bridge Blvd
216,36.743951,-76.268956,Holston River Ct
160,36.767543,-76.315681,/Marlboro St
276,36.690305,-76.196237,Sydenham Blvd
216,36.797691,-76.250087,Rock Creek Dr/Redbrick Dr
552,36.821135,-76.253609,Harling Dr/Bethel Rd
160,36.831889,-76.232247,Commonwealth Ave/Sparrow Rd
552,36.721075,-76.226233,Great Brg Byp
390,36.754341,-76.354369,Boyette Ct E
472,36.744277,-76.218841,Railway Ct/Tunnel Ct/Locomotive Ln
160,36.806232,-76.272551,Rodgers St/Seaboard Ave
216,36.706729,-76.278006,Bells Hollow Ct
246,36.752852,-76.240800,Westmoreland Ct/Buckingham Dr
362,36.770460,-76.463398,W Military Hwy
276,36.714970,-76.271517,Fox Ridge Trl
160,36.738325,-76.191630,Vance Cir
185,36.759012,-76.207890,Nicholson Ct
216,36.751001,-76.206598,Briars Lndg
160,36.735694,-76.278858,Fern Quay/Marina Reach
276,36.696468,-76.260333,Reardon Ct
362,36.697191,-76.268636,Waterfall Way/Stream Arch
362,36.711991,-76.172563,Fair Oak Dr/Whippoorwill Trce
305,36.822255,-76.244438,Oaklette Dr/Dunwich Rd
445,36.716668,-76.177160,Ravenna Arch
216,36.789072,-76.324312,Boxwood Dr/Wintergreen Dr
305,36.814964,-76.426668,River Pearl Way
160,36.815945,-76.224888,Cromwell Ct
216,36.709078,-76.282189,San Pedro Dr/Country Club Blvd
552,36.735457,-76.245527,/Great Bridge Blvd
499,36.770506,-76.258860,/I- 64
305,36.785332,-76.217314,Dawnee Brook Trl N
276,36.712421,-76.192986,Currituck Dr/Pamlico Blvd
185,36.843024,-76.413664,Evergreen Ct
362,36.852312,-76.417241,Oneford Pl
418,36.723703,-76.274822,Watsons Glen Ct/Watsons Glen Dr
185,36.701792,-76.209826,Rutherford Dr/Rutherford Ct
445,36.755387,-76.208667,Hunningdon Lakes Blvd/Killington Arch/Copper Stone Cir
334,36.804692,-76.269743,Chesapeake Ave/Able St
185,36.701246,-76.257132,Meridian Dr
185,36.746097,-76.358497,Louise James Ct
216,36.746019,-76.232663,Crescent Trce/Hidden Falls Ln
246,36.702989,-76.204017,Fentress Rd
362,36.760415,-76.357653,Hancock Dr/Dietz Dr
390,36.763097,-76.208841,Pebble Rock Ct
246,36.759615,-76.340169,Bond Ave/Garnes Ave
305,36.711699,-76.253865,Old Dr
305,36.749912,-76.267077,Montrose Ct
579,36.742340,-76.249381,Henley Ct/Wimbledon Chase
216,36.810851,-76.407767,/Ames Cir W
305,36.780558,-76.284032,Yager Ct/Bainbridge Blvd
276,36.695882,-76.230583,Sinclair Ln/Samantha Ln
762,36.786034,-76.407699,Ridgeway Ave/
216,36.823339,-76.269797,Landsworth St/Wilson Rd
276,36.703520,-76.255809,Millpike Ct/Foxgate Quarter
552,36.740853,-76.241174,Gainsborough Cir/Rose Ash Way
160,36.772262,-76.347852,/S Military Hwy
390,36.863950,-76.409106,Executive Center Dr
736,36.767574,-76.227020,/Greenbrier Pkwy
276,36.823741,-76.240658,Saint Lawrence Dr/Furnace Rd
160,36.686286,-76.258231,Hillside Trce
160,36.732344,-76.354580,Black Bear Ct/Willow Bend Dr
276,36.766901,-76.255152,Tintern St
246,36.802160,-76.425163,/Dock Landing Rd
334,36.698014,-76.218807,Hawkhurst Dr/Broadwinsor Cres
305,36.838135,-76.396822,Whitechapel Arch/Sir Francis Drake Dr
160,36.784975,-76.264543,Portlock Rd/Leyte Ave
276,36.691427,-76.256923,Loxley Ct/Yorkshire Trl
276,36.782521,-76.268468,Coral Ave
710,36.799702,-76.398737,/Holly Cove Dr
216,36.711872,-76.197024,Chantilly Ln
185,36.744591,-76.234768,Bluewater Ct/Hidden Falls Ln
216,36.683447,-76.197451,Noelle Ct/Old Coach Rd
276,36.737498,-76.228767,Clydes Way
185,36.772169,-76.263592,McCosh Dr
472,36.815174,-76.428111,Feldspar Quay/River Pearl Way
216,36.714857,-76.150484,Wenger Rd/Mount Pleasant Rd
185,36.769779,-76.385677,Jessie St/Colony Manor Rd
185,36.768308,-76.208381,Selborne Pl/Penton Mews
305,36.860699,-76.402015,Poplar Hill Rd
246,36.738459,-76.283673,Fernwood Farms Ct
305,36.684609,-76.230299,Kegman Rd/Kegman Rd W
276,36.758595,-76.258788,/Byron St
246,36.758459,-76.206097,Alexandria Ln/Nicholson Ct
185,36.634359,-76.124849,/Carolina Rd
185,36.801409,-76.222365,Philadelphia Ave/Rokeby Ave
305,36.770799,-76.271418,Burns Ct
390,36.764645,-76.336734,Meiggs Rd/Treemont Ct
710,36.811821,-76.263875,Martin Ave/Culpepper St
276,36.804013,-76.408994,Dock Landing Rd
160,36.692973,-76.279114,Forest Lakes Dr/Forest Lakes Cir
305,36.711357,-76.274510,Cedar Rd
334,36.822142,-76.278255,Stewart Ave/D St
305,36.805445,-76.435107,Wampler Pl
472,36.708120,-76.227427,/Mount Pleasant Rd
246,36.759474,-76.281803,Charles St
362,36.814569,-76.250991,Windy Rd/Bill Reid Ct
216,36.642527,-76.209411,/Hickory Rd E
185,36.741947,-76.334537,Piers Lndg/Shipyard Rd
2194,36.773623,-76.229298,/Greenbrier Pkwy
305,36.692141,-76.203754,Donnington Dr
185,36.755596,-76.214534,Copper Stone Cir/Cogliandro Dr
305,36.789674,-76.255985,Ike St
334,36.741745,-76.211926,Warrington Blvd
526,36.751268,-76.246607,Battlefield Blvd N
445,36.687469,-76.197090,Clover Hill Ct
160,36.696898,-76.263562,Hedgerow Ct
334,36.780797,-76.283745,I- 464
445,36.791868,-76.246765,Georgetown Blvd/Colonial Way
418,36.813595,-76.248460,Flower Ln/Shady Rd
276,36.776790,-76.344223,Noble Ct
390,36.738968,-76.256305,Susan Dr
185,36.683773,-76.208247,Aspinock St/Rixtown Ct/Sherborn Trce
246,36.721300,-76.312502,Dominion Blvd S
216,36.774948,-76.296788,S Military Hwy
276,36.783936,-76.355974,Aaron Ct/Aaron Dr
160,36.856766,-76.421382,Kinsington Dr
160,36.739492,-76.213837,Bowling Green Trl
246,36.788235,-76.337473,Hillbrook Dr/Garrison St
160,36.771027,-76.425979,/Sunray Ave
631,36.762843,-76.267909,I- 464/I- 64/Dominion Blvd N
246,36.858986,-76.414206,Brandywine Dr/Dunedin Dr
472,36.780023,-76.239087,/Crossways Blvd
160,36.705924,-76.269506,Ferrum Ln
276,36.781246,-76.262125,/S Military Hwy
526,36.781621,-76.275575,2nd St
185,36.762446,-76.291434,Precon Dr
362,36.822250,-76.231452,Indian River Rd/Hazel Ave/Hazel Ct
246,36.746216,-76.224191,Willow Bridge Ct/Hunters Bridge Dr
185,36.778620,-76.220474,Lake Point Ct/Lake Point Dr
362,36.788082,-76.335909,Bexhill St/Circlewood Dr
216,36.833973,-76.228862,Trilby Ct
445,36.728747,-76.305837,Sebriell Way
334,36.737657,-76.284102,Fernwood Farms Rd/Shore Side Rd
305,36.711436,-76.281642,Lands End Dr/Whisper Walk
185,36.815882,-76.248307,Keith Ct/Stalham Rd
160,36.778071,-76.359419,Sir Meliot Dr/Merlin Ct
499,36.699795,-76.248785,Shadowfield Ct/Hollygate Ln
216,36.748751,-76.328478,Bishop St
445,36.690863,-76.236973,Leicester Ct
305,36.797251,-76.220659,Alton Cir
160,36.772407,-76.209306,Peyton Ln/Simon Dr
216,36.819895,-76.269190,Portland St/Wellington Ave
445,36.759537,-76.325782,I- 64
552,36.721067,-76.226350,Great Brg Byp
160,36.774060,-76.327652,Oklahoma Dr/Broadmoor Ave
334,36.724518,-76.341225,Bear Creek Ln
305,36.822748,-76.234776,Indian River Rd/Lilac Ave
305,36.787885,-76.258231,/Ike St
334,36.775872,-76.275737,Gadwall Ct
276,36.725811,-76.280659,Deepwater Dr
276,36.826543,-76.225814,Lusk St/Hoffman Ave
216,36.698667,-76.270391,Gatefield Ln
246,36.738187,-76.172971,/Elbow Rd
813,36.823684,-76.252118,Butrico Rd
185,36.787942,-76.285818,Godwin Ave
160,36.653305,-76.235625,/Edinburgh Pkwy
418,36.770293,-76.258572,/I- 64
276,36.783679,-76.219160,Dawnee Brook Trl S
276,36.700704,-76.201179,Weeping Willow Dr/Peachtree Dr
185,36.734577,-76.266429,Seahorse Run
160,36.597337,-76.279247,/Bunch Walnuts Rd
185,36.704328,-76.196449,Gloss St
160,36.688431,-76.260392,Rockland Ter/Fairhaven Rd
216,36.790399,-76.257504,Ike St
390,36.746025,-76.261561,Great Bridge Blvd
185,36.777593,-76.391597,/S Military Hwy
185,36.806449,-76.259558,Pleasure St/Higgins St
445,36.700146,-76.247290,Pinecliffe Ct/Pinecliffe Dr
246,36.812053,-76.281341,I- 464
185,36.713236,-76.276307,Country Club Blvd/Stonegate Way
788,36.756509,-76.248647,Battlefield Blvd N/Gibson Dr
526,36.806833,-76.228479,Providence Rd/Rokeby Ave
216,36.702363,-76.282774,/Washington Dr
334,36.806109,-76.432877,Arrowhead Ct
246,36.763639,-76.219151,Fairway Reach/Shoal Creek Trl
160,36.790025,-76.326331,Springdale Rd/Battery Park Rd
418,36.736086,-76.241002,Battlefield Blvd N
362,36.734970,-76.245804,Saint Lukes Church Rd/Nicholas Ct
160,36.857063,-76.402088,Mapleton Cres/Belvedere Dr
1641,36.767170,-76.252555,/Red Cedar Ct
246,36.807932,-76.272897,Rodgers St/Orville Ave
216,36.584773,-76.204353,/Battlefield Blvd S
160,36.683644,-76.261345,Cutspring Rd/Cottage Pl
185,36.795351,-76.268655,Bassett St/Southport Ave
246,36.690935,-76.206479,Donnington Dr/Gloria Dr
160,36.727006,-76.341560,Sawyers Arch/Nicked Pin Pl
160,36.685540,-76.264261,Fairhaven Rd
185,36.743099,-76.337556,Locks Landing Cres/Locks Lndg
2247,36.768497,-76.252164,Wal Mart Way/Battlefield Blvd N
390,36.743367,-76.228625,Woodspring Arch/Hagenspring Rd
160,36.708106,-76.222875,Montevale Dr/Beauregard Dr
276,36.701472,-76.192848,Colony Dr/Fentress Rd
445,36.725035,-76.312839,Miami Dr
362,36.700012,-76.243268,Flintlock Rd/Franconia Dr
334,36.771468,-76.310660,Alice St
736,36.794370,-76.238813,Woodview Ln/S Military Hwy
160,36.828781,-76.228608,Little Beaver Rd/Harway Ave
216,36.738975,-76.277851,Driftwood Dr
160,36.601323,-76.133891,/Sanderson Rd
216,36.766573,-76.225036,Ketch Ct
445,36.803866,-76.279108,Beech Dr
246,36.764249,-76.360344,Yadkin Rd/I- 64
160,36.811815,-76.404822,Ames Cir N/Raleigh Ct
246,36.699218,-76.228399,Connie Ln
362,36.822044,-76.428566,/Gum Rd
579,36.754170,-76.345340,George Washington Hwy N/Wesley Rd
579,36.759311,-76.324243,Southway St
276,36.821663,-76.226179,Nautilus Ave/Sparrow Rd
160,36.589909,-76.269516,Riverwood Cres
276,36.789603,-76.255392,Ike St
216,36.761504,-76.321325,Almond Ct
185,36.697687,-76.270153,Southwood Ct
160,36.814651,-76.434519,Old Jolliff Rd
160,36.776769,-76.437828,Snowden St
472,36.842626,-76.433608,I- 664
334,36.767060,-76.220640,Ivystone Way/Eden Way S
276,36.764195,-76.223901,Still Harbor Cir
246,36.706683,-76.247315,Oakwell Ct
390,36.755814,-76.238572,/Knells Ridge Dr
362,36.807809,-76.220376,Hayward Ave/S Military Hwy
216,36.616316,-76.211796,Delia Dr/Battlefield Blvd S
362,36.839912,-76.411183,Meadowgreen Ct/Greenwood Rd
390,36.809350,-76.263357,Pocahontas Ave/Martin Ave
185,36.688138,-76.261476,Rockland Ct/Fairhaven Rd
305,36.689891,-76.205361,Hempstead Ct/Chalbourne Dr
362,36.778596,-76.240242,/Crossways Blvd
185,36.753139,-76.347079,Willowwood Ct/Willowwood Dr
390,36.736934,-76.312994,Harton Cir/Harton Ln
246,36.759542,-76.197390,Tigertail Dr
160,36.818438,-76.275664,/Grady St
305,36.818997,-76.415979,Christopher Dr/Lisbon Rd
276,36.767057,-76.253856,/Red Cedar Ct
160,36.712331,-76.137485,/Lockheed Ave
185,36.592728,-76.207943,/Battlefield Blvd S
736,36.771166,-76.344751,Deep Creek Blvd
526,36.785253,-76.410615,I- 664
334,36.718177,-76.100054,Mount Pleasant Rd
185,36.684715,-76.199517,Brookside Ct
246,36.778218,-76.281457,I- 464
216,36.844162,-76.416552,Scotsman Run/Miars Green/Tartan Arch
160,36.759504,-76.189043,Brier Cliff Cres/Shady Cove Ct
334,36.770080,-76.386717,Jessie St/Dana Dr
1407,36.773820,-76.254681,/I- 64
246,36.852850,-76.428330,Lynnhurst Blvd/Rochelle Ct
362,36.794165,-76.212882,I- 64
216,36.707856,-76.204593,Back Rd/Mount Pleasant Rd
334,36.740180,-76.314960,Lemonwood Rd/Burson Dr
246,36.848299,-76.390042,Stratford Ct
216,36.840574,-76.417529,Foxxglen Run
605,36.787260,-76.265029,Waverton Pkwy/Campostella Rd
276,36.748427,-76.233671,/Green Tree Rd
305,36.689069,-76.256754,Fairhaven Rd/Carriage Ct
994,36.755152,-76.248646,Hollywood Dr/Red Oak Trl
418,36.803427,-76.262110,Narrow St/Weaver St
185,36.830207,-76.245162,Springfield Ave
1824,36.778691,-76.232378,/Jarman Rd
160,36.737598,-76.238240,Hunter Green Ct/Stillwater Dr
305,36.771893,-76.258969,/Technology Dr
160,36.772936,-76.321564,/S Military Hwy
658,36.785136,-76.224476,Montauk Ln/River Birch Run N
160,36.761239,-76.329138,Levee Ct
246,36.781454,-76.270064,Buttonwood St
472,36.836392,-76.433769,I- 664
526,36.778211,-76.266498,Pvt 5 Rd
631,36.770851,-76.257388,Bulldog Dr/Tintern St
736,36.785862,-76.413500,Airline Blvd/I- 664
185,36.779129,-76.326420,Deaton Ct
305,36.795538,-76.237204,S Military Hwy
736,36.740431,-76.254322,Tiger Dr/Telfyan Dr/Great Bridge Blvd
445,36.741500,-76.344211,Hinton Ave
276,36.845673,-76.438540,Wise St
445,36.801924,-76.422860,Lindenwood Dr/Emerald Woods Dr/Spincaster Ln
684,36.798873,-76.253584,Holly Point Ln
246,36.763709,-76.343778,Trade St/Fenway Ave
216,36.836512,-76.406124,Meadow Ct
445,36.760607,-76.254740,Crosswinds Dr
160,36.675735,-76.188886,Land of Promise Rd
445,36.823429,-76.279725,Bainbridge Blvd
418,36.821168,-76.278089,Stewart Ave/Butt St
185,36.734346,-76.348093,Mayapple Ct/Willow Bend Dr
579,36.807216,-76.253590,Arbor Glen Dr/Applewood Ln
160,36.826685,-76.431843,Gum Tree Ct/Gum Rd
160,36.683973,-76.217697,Palomino Ct/Trotters Ln
185,36.782374,-76.269617,Iris St
160,36.755532,-76.359280,Ferncliff Ct/Honey Flower Ct
334,36.818439,-76.434718,Portsmouth Blvd
246,36.697060,-76.237822,Unser Ct
160,36.850355,-76.396276,Oak Dr E
160,36.717376,-76.246076,Shea Dr/Albemarle Dr
334,36.793442,-76.260806,Atlantic Ave
246,36.736374,-76.226471,Clearfield Ave/Janes Way
276,36.721172,-76.329485,Flume Ct/Sawyers Mill Xing
605,36.775886,-76.446136,W Military Hwy/Bisco St
160,36.786459,-76.376250,Lakeview Ct
305,36.723929,-76.243734,Wayne Ave
334,36.793705,-76.404653,Quailshire Arch
246,36.792091,-76.326582,Sherbrooke Rd/Old Manor Rd
160,36.675566,-76.243257,Tiki Way/New Zealand Reach
216,36.783493,-76.342950,Excalibur Ct
472,36.740177,-76.344258,/George Washington Hwy S
445,36.685634,-76.197804,Beckley Ln/Hawley Ct/Old Coach Rd
185,36.692904,-76.259862,Lincolnshire Ct/Orkney Ct
334,36.780534,-76.270531,Persimmon Ct
246,36.804514,-76.415567,Cully St
160,36.698277,-76.210898,Rutherford Cir
185,36.816263,-76.228074,Cromwell Ave
276,36.721167,-76.299480,/Eagle Pointe Way
305,36.700389,-76.185361,Blue Ridge Rd/Centerville Tpke S
552,36.741789,-76.346991,Westonia Rd/Old Mill Rd
216,36.782204,-76.358243,Bruno Dr/Sir Kay Dr
216,36.691140,-76.242871,Sutherlyn Ct
216,36.800998,-76.444493,Harlequin Way/Curlew Ct
185,36.720070,-76.280759,Rountree Dr/New Mill Dr
216,36.767253,-76.345923,Gavin Rd
658,36.820592,-76.272697,22nd St/Liberty St
246,36.758987,-76.253026,Corkwood Cir
418,36.827178,-76.275367,Industrial Ave/Obendorfer Rd
160,36.673391,-76.099789,Blackwater Rd
160,36.839793,-76.395487,Stratford Dr/Cannon Point Dr
185,36.675845,-76.203779,/Woodards Ford Rd
246,36.734669,-76.336086,Admiralty Ct
160,36.655799,-76.244778,Thistley Ln
216,36.726338,-76.337013,Running Stone Way
418,36.810094,-76.256276,Campostella Rd/Gideon Cres/Sunrise Ave
305,36.791455,-76.404376,Airline Blvd/Sunnybrook Ter
185,36.714809,-76.211597,Downing Dr/Trafalgar Ct
160,36.708989,-76.221893,Summit Ridge Dr/Beauregard Dr
390,36.775472,-76.272705,Kelland Dr/S Military Hwy
216,36.695369,-76.269874,Southwood Dr/Amberline Dr
185,36.788757,-76.337571,Graham St
390,36.810108,-76.246244,Shelter Rd/Farmer Ln
362,36.851345,-76.420573,Clover Rd/Sawgrass Way
160,36.753388,-76.216878,Vanderploeg Dr/Norcova Dr
160,36.776507,-76.352708,Jousting Ct/Sir Meliot Dr
605,36.814946,-76.431944,/I- 664
334,36.828929,-76.404886,Raintree Ct
305,36.844504,-76.396358,Sir Walter Cres/Sir Walter Cir
216,36.762873,-76.223019,/Saint Andrews Reach
185,36.810764,-76.275951,Holly Ave/Stewart Ave
362,36.803109,-76.418861,Eagle Hill Dr
276,36.570332,-76.247555,Meadowlark St/Redwing St
305,36.811773,-76.423496,Waterfern Cove/Seastone Trce
246,36.794648,-76.400414,Airline Blvd/Keaton Way
552,36.763147,-76.268098,/I- 464/I- 64
216,36.773073,-76.315166,S Military Hwy
216,36.800292,-76.218764,English Ave
216,36.752070,-76.195483,Shenandoah Pkwy
185,36.819502,-76.251234,Wingfield Ave/Mayon Dr
160,36.614071,-76.208936,/Great Brg Byp
276,36.819772,-76.275864,/D St
160,36.808161,-76.270458,Chesapeake Ave/Seaboard Ave
334,36.787955,-76.281090,Bainbridge Blvd/Godwin Ave
185,36.706169,-76.195950,Priscilla Ln/Nugent Dr
160,36.799042,-76.273489,Kinglet Ave/Eastwood Rd
216,36.761650,-76.337704,Lake Ridge Xing/Cypress Wood Cove
160,36.802940,-76.439149,Jolliff Rd/Jolliff Woods Dr
445,36.687657,-76.198302,Grantham Ln/Beckley Ln
276,36.797023,-76.267789,Thurman St/Virginia Ave
216,36.693560,-76.283198,Bluebird Dr
185,36.640648,-76.272310,Johnstown Rd
305,36.694043,-76.189399,Morven Ct
216,36.739455,-76.267569,Supplejack Ct
305,36.770361,-76.204144,Birkie Ct
216,36.758044,-76.260182,Byron St
216,36.795959,-76.252550,Holly Berry Ln/Burford Ln
185,36.813365,-76.434635,Moore Cir/Old Jolliff Rd
160,36.761420,-76.201789,Sasparilla Ct/Plantation Woods Way
362,36.781373,-76.267361,Midway Ave/Wake Ave
334,36.771490,-76.310886,Alice St/Leegate St
160,36.839687,-76.439254,Bromay St
246,36.818114,-76.278073,Grady St
334,36.709205,-76.292268,Country Club Blvd
526,36.704223,-76.200987,Priscilla Ln/Erik Paul Dr
418,36.849172,-76.411964,Peppercorn Way/Cinnamon Ct
216,36.692677,-76.227179,Etheridge Rd
390,36.796218,-76.249362,Georgetown Blvd/Printers Pl
418,36.753264,-76.244981,Springbrook Ln/Oak Grove Rd
445,36.772631,-76.335974,Baugher Ave/S Military Hwy
246,36.707515,-76.245840,Briarfield Dr/Vanette Dr
160,36.770055,-76.277092,Saul Dr/Anthony Dr
445,36.818814,-76.265361,Latham Ave
216,36.746953,-76.211421,/Long Beeches Ave
334,36.762851,-76.214643,Fairway Dr/Club Pines Ct
305,36.713068,-76.277844,Brookrun Chase
246,36.715582,-76.290059,Aguila Dr
160,36.806955,-76.403409,Raleigh Rd
472,36.784804,-76.258946,/Battlefield Blvd N
160,36.668447,-76.301176,/Beatrice Ln
246,36.777894,-76.277849,Bufflehead Dr
526,36.806466,-76.222336,Sparrow Rd/S Military Hwy
246,36.738092,-76.177136,Elbow Rd
160,36.790172,-76.327563,Springdale Rd/Sherbrooke Rd
276,36.825968,-76.274134,Industrial Ave
631,36.762673,-76.267808,Great Brg Byp/Dominion Blvd N
160,36.700595,-76.258761,Sandy Hill Way/Sand Drift Ct
362,36.858818,-76.410649,Radford Cir/Bruin Dr
246,36.709273,-76.243853,Jana Ct
246,36.745620,-76.228647,/Green Tree Rd
499,36.786292,-76.255914,/Robert Hall Blvd
334,36.757662,-76.291095,I- 64
246,36.788384,-76.274061,Villanova Ave/4th St
246,36.826081,-76.244134,Tatemstown Rd
246,36.689855,-76.208306,Linkenborough Dr/Mildenhall Dr
334,36.813256,-76.252956,Parkside Dr
305,36.757944,-76.207440,Killington Arch/Killington Sq
246,36.766782,-76.285308,Lincoln Ct/Lincoln Rd
160,36.813426,-76.254295,Algona Dr
305,36.697793,-76.285882,/Washington Dr
160,36.816511,-76.238601,Chestnut Ave
334,36.811474,-76.270477,/Holly Ave
216,36.787050,-76.240562,Lambert Ct/Woodlake Dr
216,36.836146,-76.426902,Cornet St/Trumpet Rd
185,36.714557,-76.272839,Streamside Ct
160,36.777271,-76.319845,Michael Dr
160,36.734708,-76.210526,Greystone Ln
160,36.778879,-76.284695,Bainbridge Blvd
526,36.751809,-76.273826,Pine Valley Run
160,36.738384,-76.226428,Janes Way/Ians Way
246,36.766150,-76.194932,Coker Pl/Veranda Way/Debreck Way
185,36.691151,-76.185161,/Centerville Tpke S
305,36.734343,-76.296650,Dominion Blvd S
246,36.845725,-76.437432,Queen St
472,36.808124,-76.223096,Weber Ave/Clipperton St
160,36.750591,-76.356328,Barn Way
276,36.778174,-76.274006,Egret Ct
216,36.797078,-76.244704,/Tudor Pl
362,36.823074,-76.244372,Indigo Rd/Dunwich Rd
276,36.739606,-76.252422,Cuthrell Ln/Great Bridge Blvd
305,36.863728,-76.415273,Berkshire Dr/Helensburgh Dr
160,36.815209,-76.404598,Parkway Rd
276,36.703149,-76.275889,Boston Ave/Flint St
334,36.802336,-76.232279,Smith Ave/Osborn Ave
216,36.738577,-76.225860,Ians Way
246,36.711126,-76.195356,Corapeake Dr/Pamlico Blvd
305,36.817689,-76.429782,Peek Trl/Waterstone Way
445,36.781208,-76.350703,/Roundtable Dr
246,36.850449,-76.397291,Oak Dr E/Oak Dr/Tyre Neck Rd
160,36.816219,-76.407410,Pinta Dr/Dock Landing Rd
185,36.778910,-76.269056,Snow Goose Dr/Canvasback Ct
185,36.778744,-76.355568,Guenevere Dr/Archery Dr
917,36.778209,-76.267297,Campostella Rd/S Military Hwy
185,36.700070,-76.190659,Crestwynd Cir
334,36.763899,-76.286424,Lincoln Rd/Grant St
185,36.805513,-76.220093,Weber Ave/Main St
276,36.801858,-76.421594,Lindenwood Dr/Tattinger Trl
276,36.704990,-76.238589,Allen Dr/Fresno Dr
276,36.711535,-76.251873,Bartell Dr/Bartell Ct
334,36.760420,-76.254547,Basswood Ct/Byron St/Crosswinds Dr
334,36.719686,-76.178357,Milano Ct
362,36.701953,-76.191871,Captain Cooke Way
160,36.786706,-76.220910,Woodgate Arch/River Birch Run N
246,36.717833,-76.324973,Cedar Rd
246,36.795147,-76.437488,Captain Carter Cir/Glemmings Ct
216,36.708320,-76.186678,Corapeake Dr/Buxton Dr
334,36.701490,-76.245043,Arena Ct
526,36.698044,-76.227208,Great Brg Byp
185,36.694597,-76.198638,Jamaica Ln/Glades Ct
305,36.775085,-76.343776,Lambert Trl/Deep Creek Blvd
362,36.827358,-76.399954,Millgrove Ct/Watermill Grove
445,36.683458,-76.210232,Whistle Town Rd/Fernham Ln
865,36.820560,-76.223156,Macdonald Rd
658,36.793668,-76.238079,Woodview Ln/Parkview Dr
185,36.777055,-76.264988,Gould Ave
994,36.832501,-76.415303,White Manor Ln/Taylor Rd
276,36.735115,-76.266881,Inlet Quay/Esplanade Pl
185,36.723717,-76.310713,Shillelagh Rd/Cedar Rd
305,36.715697,-76.210233,Downing Dr/Edgeware Ct
216,36.781252,-76.358946,Sir Lancelot Dr/Camelot Blvd
334,36.822654,-76.268255,Crystal Ave/Landsworth St
605,36.785224,-76.414422,S Military Hwy
684,36.768497,-76.222232,Ivystone Sq/Ivy Trl
160,36.696578,-76.349582,Number Ten Ln/Rams Horn Ln
552,36.736057,-76.265621,Inlet Quay/Seahorse Run
305,36.777908,-76.338447,/George Washington Hwy N
579,36.842004,-76.434308,I- 664
499,36.743438,-76.352799,/Old Mill Rd
160,36.696770,-76.228503,Sinclair Ln/Coinbrook Ln
160,36.840757,-76.414844,Miars Green
305,36.778194,-76.280741,I- 464
305,36.803821,-76.234903,Old Greenbrier Rd/Angora Dr/Providence Rd
216,36.550596,-76.376634,Dismal Swamp Canal Trl
334,36.732730,-76.244918,Acorn Grove Ln
445,36.742318,-76.248699,/Wimbledon Chase
390,36.692203,-76.195991,Sydenham Blvd
305,36.710517,-76.175784,Burton Pl/Burton Ct
305,36.799992,-76.413272,Stowaway Ct/Devon Dr
390,36.781948,-76.339294,Gilmerton Rd
216,36.788674,-76.280810,Bainbridge Blvd/McKinley Ave
216,36.738067,-76.282455,Saltwood Ct/Driftwood Dr
216,36.791014,-76.396846,Spring Meadow Cres/Cedar Grove Cres
185,36.653416,-76.246833,Prince Edward Dr/Sir Raleigh Dr
362,36.811886,-76.278891,Park Ave/Perry St
305,36.831491,-76.229832,Ridgewood Ct/Ridgewood Rd
305,36.763427,-76.190403,Veranda Way
185,36.801518,-76.418682,Eagle Hill Dr/Copperfield Dr
334,36.750261,-76.267746,Montrose Ct
418,36.848758,-76.411104,Pepper Ridge Ct/Sugar Run
160,36.625436,-76.279109,/Bunch Walnuts Rd
246,36.772957,-76.315563,/Willis St/S Military Hwy
216,36.693658,-76.252910,Greenway Dr/Royal Grant Dr
579,36.777012,-76.269450,Canadian Dr/S Military Hwy
605,36.784066,-76.234179,I- 64
710,36.802233,-76.261028,Bard Cir
246,36.697220,-76.257639,Dunwood Ct/Cheshire Forest Dr
160,36.858953,-76.423377,Christie Ct/Christie Ter
1304,36.764800,-76.249006,Volvo Pkwy/Sam's Dr
390,36.765082,-76.247765,Volvo Pkwy/Bray Dr
160,36.713972,-76.276760,Brookrun Chase
390,36.760346,-76.282996,Booker St/Laura St
684,36.762467,-76.268111,/Dominion Blvd N
305,36.799100,-76.257305,Broad St/Campostella Rd/Vicker Ave
216,36.712205,-76.252642,Bartell Dr/Old Dr
185,36.837995,-76.409667,Greenview Rd/Meadowview Rd
160,36.715109,-76.297090,Thornton Ln
160,36.716134,-76.232490,Royal Oak Dr/Bridgeview Cir
160,36.727914,-76.305687,Sebriell Way/Cedar Rd
160,36.752600,-76.202367,Cumberland Ct
334,36.697457,-76.198149,Jamaica Ln/Bahama Way
526,36.840264,-76.427570,Drum Point Ln
216,36.841596,-76.428712,Drum Point Cres/Drum Point Ln
579,36.809235,-76.430115,Woodland Dr
526,36.766007,-76.246385,Queens Ct/Coventry Close/Kingston Way
185,36.687592,-76.205389,Chalbourne Ct
185,36.772730,-76.331341,/S Military Hwy
185,36.738470,-76.263993,/River Walk Pkwy
185,36.713022,-76.191490,Fairfield Dr/Pamlico Blvd
216,36.779000,-76.265190,Pvt 5 Rd
418,36.820118,-76.264769,Westgate St/Kennedy St
246,36.689915,-76.210109,Walbury Ct/Sherringfield Ter
499,36.798656,-76.254718,Carnation Ln/Holly Point Ln
185,36.717544,-76.265848,Kingdom Way/Bells Mill Rd
185,36.679841,-76.219956,Mill Run/Mill Stone Rd
552,36.772661,-76.324390,/Canal Dr
160,36.834709,-76.238086,Sandpiper Ln
216,36.640151,-76.203268,/Head of River Rd
246,36.696536,-76.255166,Yorkshire Trl
216,36.749673,-76.231526,Sweet Leaf Pl/Mulberry Cres
418,36.781503,-76.279431,Mary Ellen Ave/Bernard St
305,36.782765,-76.358258,Gaston Dr/Sir Kay Dr
788,36.707729,-76.241584,S Kingsbridge Pl/Johnstown Cres
160,36.739427,-76.190149,Windy Pine Ln/Elbow Rd
216,36.854545,-76.406524,Mapleton Cres/Bruin Dr
276,36.797069,-76.252671,Holly Berry Ln/Holly Glen Dr
1485,36.825419,-76.402751,Prindle Ct
418,36.768218,-76.278983,Saul Ct/Saul Dr/S Eva Blvd
305,36.739823,-76.252989,/Great Bridge Blvd
472,36.813370,-76.431693,I- 664
216,36.740879,-76.315902,Burson Dr/Rockwood Dr
334,36.643819,-76.216014,/Battlefield Blvd S
445,36.721039,-76.274187,Sullivan Ln/Alexander Ln
160,36.831489,-76.237218,Herrington Ln
185,36.806459,-76.440368,Larkwood Ct
185,36.813184,-76.223840,Cromwell Ave/Fontana Ave
216,36.851940,-76.429243,Chipada Ct/Mardean Dr
160,36.652711,-76.200976,/Centerville Tpke S
305,36.747272,-76.356914,Raytee Dr/Old Mill Rd
185,36.714672,-76.147614,/Mount Pleasant Rd
305,36.766894,-76.206013,Titchfield Dr/Leckford
160,36.738770,-76.263513,/River Walk Pkwy
362,36.689343,-76.275713,E St/Washington Dr
472,36.751743,-76.278358,Dominion Blvd N
216,36.802465,-76.432933,Goose Creek Flyway/Swan Lake Cres
276,36.736151,-76.331733,Twin Cedar Trl
160,36.780992,-76.361925,Koppens Way
216,36.692026,-76.216838,Frances Ct/Jo Anne Cir
390,36.771904,-76.224657,Turtle Rock Trce/Quarter Path Trl
276,36.784343,-76.219082,Logans Mill Trl/Dawnee Brook Trl S/Dawnee Brook Trl N
160,36.769550,-76.334573,Devonshire Ct
160,36.758210,-76.261473,Kings Cross Quay
216,36.691867,-76.282882,Forest Lakes Cir/Pecan Forest Ct
216,36.762535,-76.181578,Stacey Pl
276,36.760346,-76.262980,Kings Gate/Duchess of York Quay
390,36.711767,-76.185403,Centerville Tpke S
390,36.739116,-76.230258,Kempsville Rd/Hidden Falls Ln
160,36.747444,-76.214322,Deer Path
185,36.703777,-76.264983,Esmont Ct
362,36.746571,-76.285354,Dominion Blvd N
276,36.680054,-76.201418,Woodstream Ct
160,36.720200,-76.238491,/Basin Rd
305,36.683156,-76.228211,Great Brg Byp/Battlefield Blvd S
526,36.816022,-76.270849,Ohio St/Seaboard Ave
499,36.785517,-76.268865,Williamson St/Portlock Rd
246,36.804099,-76.447080,Blue Jay Ct
216,36.667072,-76.238770,Bankbury Way/Castle Forbes Way
276,36.800617,-76.389888,Bosun Dr
185,36.786501,-76.287342,Hanes St/Freeman Ave
762,36.806564,-76.255851,Campostella Rd
334,36.689212,-76.198729,Beckley Ln/Sydenham Blvd
390,36.742790,-76.249255,Henley Ct
334,36.724882,-76.333081,Sawblade Cir
390,36.754450,-76.266166,Great Brg Byp
334,36.569780,-76.248497,Hummingbird St
160,36.792328,-76.250857,Allison Ct
246,36.793606,-76.248261,Georgetown Blvd/Cherryhill Ln
216,36.735174,-76.279222,Pepperwood Ct/Marina Reach
216,36.750620,-76.313378,/Sunsprite Loop
710,36.823075,-76.263875,Partridge Ave
246,36.790617,-76.256455,Halsey St/Patch St
160,36.636906,-76.327962,/Curling Ct
160,36.801876,-76.402380,Cutter Ct/Schooner Trl
185,36.829599,-76.245723,Princeton Ave
185,36.643447,-76.149508,/Carolina Rd
390,36.742398,-76.248836,Wimbledon Chase
1589,36.824164,-76.405212,Dock Landing Rd
216,36.696786,-76.337564,Number Ten Ln/Capehart Dr
445,36.741687,-76.253265,Telfyan Dr/Jake Ln
334,36.712288,-76.225391,/Great Brg Byp
276,36.700922,-76.207164,High Point Ln
246,36.789788,-76.406837,Airline Blvd/Goodman St
185,36.819054,-76.426895,/Peek Trl
390,36.765064,-76.333509,Hopewell Dr/Meiggs Rd
499,36.810167,-76.255382,Sunrise Ave
160,36.719165,-76.295879,Dundee Ln
160,36.811109,-76.267219,Hoover Ave
160,36.844076,-76.404222,Duke of Gloucester Ct
160,36.798783,-76.414084,Devon Dr/Castaway Ct
552,36.692623,-76.247377,Country Trail Ct
216,36.808104,-76.251008,Garrett St/Doris Ave
390,36.820936,-76.277030,18th St/D St
185,36.697250,-76.253527,Dickens Pl
762,36.797812,-76.257145,Tapscott Ave/Providence Rd
631,36.814703,-76.269186,Jefferson St/Commerce Ave
216,36.731319,-76.328136,Staley Crest Way/Cedar Rd
246,36.763349,-76.318379,Rivers Edge Trce
160,36.767322,-76.241531,/Volvo Pkwy
1200,36.776228,-76.226502,Eden Way N
362,36.757526,-76.290252,I- 64
216,36.651801,-76.242871,Thistley Ln/Falls Brook Run
390,36.853252,-76.420815,/Clover Meadows Rd
160,36.713475,-76.211150,Downing Dr/Northwood Dr
246,36.805877,-76.229974,Providence Rd
445,36.782947,-76.224654,Boulder Ln
160,36.744284,-76.261207,Willow Point Dr
305,36.753294,-76.238469,Oak Hill Way/Oak Lake Ter
305,36.762914,-76.205828,Hamill Ln
160,36.714825,-76.297844,Strathmore Ln
246,36.826127,-76.243478,Indian River Rd/Ormer Rd
216,36.791164,-76.250957,Coachman Dr/Allison Dr
362,36.858650,-76.406978,Stafford Dr
334,36.813105,-76.251560,Windy Rd/Parkside Dr
185,36.789391,-76.401486,Sun Valley Cres/Sunnybrook Ter
362,36.654686,-76.228256,/Great Brg Byp
246,36.724158,-76.273670,Bells Mill Rd/Ash Hill Lndg
390,36.772644,-76.343978,Deep Creek Blvd
526,36.782669,-76.349415,Kenelm Dr/Kenelm Ct
418,36.685052,-76.203627,Sydenham Blvd/Woodcott Dr
216,36.831994,-76.408691,Hanover Ln/Quail Ridge Ct
276,36.803185,-76.223221,Miller Ave/Main St
216,36.765261,-76.353158,Yadkin Rd
185,36.710133,-76.185443,Centerville Tpke S
334,36.855538,-76.412294,Taylor Ct/Taylor Rd
160,36.711944,-76.210305,Downing Dr/Charing Cross
216,36.861173,-76.418290,Maori Dr/Dunedin Dr
390,36.764615,-76.225907,Greenbrier Pkwy/Professional Pl
246,36.843907,-76.417496,Lear Close/Tartan Arch
246,36.736812,-76.349904,Grey Fox Ct/Quail Meadow Dr
160,36.712174,-76.186582,Corapeake Dr/Norlina Dr
185,36.757885,-76.261564,Kings Bishop Ct/Battlefield Cmns
418,36.812987,-76.245690,Border Rd
390,36.788478,-76.259685,Battlefield Blvd N/Ike St
246,36.784086,-76.402100,Rotunda Ave/S Military Hwy
246,36.776427,-76.274832,Snow Goose Dr/Grebe Ct
362,36.686632,-76.202492,Yateley Ct/Chalbourne Dr/Sundon Ct
185,36.670417,-76.193824,Centerville Tpke S
185,36.745785,-76.283951,Spruce Ln/Monarch Reach
246,36.845209,-76.408815,Midhurst Ln/Bruin Dr
185,36.765993,-76.194662,Coker Pl/Veranda Way
246,36.776486,-76.266866,Pvt 5 Rd
185,36.746667,-76.340861,Luray St
246,36.803900,-76.415648,Maple Dr/Cully St
334,36.788654,-76.248838,Allison Dr/S Military Hwy
216,36.779368,-76.220967,Forest Point Dr/Lake Point Dr
160,36.787632,-76.218331,River Birch Run N
185,36.803804,-76.240240,Dent Pl/Longdale Cres
216,36.794804,-76.222321,Haverford Dr
216,36.692069,-76.256945,Yorkshire Trl/Cheshire Forest Dr
185,36.715112,-76.152240,/Mount Pleasant Rd
160,36.710225,-76.217113,Brockenbraugh Rd/Hartswood Ter
472,36.845065,-76.400376,Princess Anne Cres/Terry Dr
362,36.813757,-76.249142,Stalham Rd/Shady Rd
160,36.747394,-76.327843,Grace St
246,36.715070,-76.229888,White Dogwood Dr
276,36.799907,-76.268749,Chesapeake Ct/Chesapeake Ave
305,36.676065,-76.226396,/Hillwell Rd
160,36.774852,-76.320942,Michael Dr/Broadmoor Ave
334,36.865679,-76.402578,Churchland Blvd/Joyce Ct
160,36.683857,-76.193423,Fentress Loop
658,36.780840,-76.336181,George Washington Hwy N/Gilmerton Rd
216,36.793118,-76.254400,Fincham Ct/Hemple St
246,36.813212,-76.268902,Park Ave/Commerce Ave
362,36.839322,-76.397437,Sir Thomas Dr/Sir Thomas Ct
334,36.686790,-76.202320,Yateley Ct
246,36.761927,-76.262049,/Independence Pkwy
276,36.699069,-76.208557,Weatherby Ct
216,36.793648,-76.269835,Rodgers St/Anne Ave
216,36.700196,-76.272796,Waters Rd/Calico Ct
1123,36.724875,-76.295489,/Cedar Rd
605,36.853939,-76.417528,Bangor Ct
246,36.779287,-76.219173,Bayberry Ct N
1149,36.550553,-76.193146,Old Battlefield Blvd S
216,36.792884,-76.269028,Southport Ave/Kay Ave
334,36.801893,-76.400928,Schooner Trl/Main Sail la
185,36.782345,-76.274666,3rd St
246,36.815877,-76.250481,Windy Rd/Border Rd
185,36.687547,-76.359628,Dismal Swamp Canal Trl
362,36.821593,-76.265949,Quail Ave/Landsworth St
305,36.750697,-76.223964,/Baylor Ct
390,36.706209,-76.242433,Parker Rd/Johnstown Rd
216,36.695365,-76.198256,Seagull Ct
499,36.720854,-76.240106,Battlefield Blvd N
160,36.759427,-76.357667,Quinby Ct/Andrews Dr
160,36.767524,-76.323536,Meta St/Canal Dr
445,36.741402,-76.229961,Hagenspring Rd/Mountain Stone Way
362,36.762005,-76.282344,Outlaw St/Laura St
276,36.755555,-76.207519,Calvert Ct/Alexandria Ln
305,36.689745,-76.207354,Mildenhall Dr
305,36.757862,-76.265389,Queens Gate/Prince John Ct
499,36.799182,-76.232247,/S Military Hwy
305,36.718143,-76.282231,Rountree Ct
160,36.810596,-76.414067,Valencia Rd
994,36.827428,-76.408677,Hanover Ln/Raintree Rd
362,36.756951,-76.222585,Clear Springs Ct
276,36.739286,-76.206636,Limestone Ct/Flatrock Ln
185,36.559564,-76.217012,Ballahack Rd
185,36.817550,-76.253588,Amick Rd/Cayce Dr
185,36.837294,-76.417192,N Bugle Dr/Drum Creek Rd
334,36.866448,-76.407141,Tejo Ln
418,36.569758,-76.246819,Relay Rd/Redwing St
216,36.686487,-76.228385,Great Brg Byp
246,36.726414,-76.338546,Pinmaul Arch/Sawyers Mill Xing
160,36.854001,-76.411007,Columbus Ln
445,36.857193,-76.412618,Dunedin Dr/Woodbaugh Dr
246,36.720713,-76.326986,Sawyers Mill Xing/Cedar Rd
185,36.818007,-76.412258,Coffman Blvd/San Salvadore Dr
216,36.694022,-76.216048,Winscott Ct
334,36.723969,-76.337684,Undershot Ct/Millhouse Ct/Millhouse Ln
605,36.822403,-76.262446,Keel St/Spadina Ave
216,36.707878,-76.243618,Vanette Dr
246,36.840340,-76.429734,Drum Point Cres/Beretta Ct/Browning Cir
246,36.698121,-76.265535,Keeling Dr/Edgewood Arch
160,36.814340,-76.225876,Towanda Rd/Towanda Ct
216,36.765835,-76.279308,River Creek Rd/Neal St
362,36.798599,-76.229344,Smith Ave/Live Oak Dr
276,36.778276,-76.274600,Shearwater Ct
418,36.814466,-76.282632,Ohio St
579,36.712712,-76.255828,/Cedar Rd
246,36.788050,-76.412361,Flintfield Cres/Westborough Dr
160,36.695232,-76.249790,Robin Ct
305,36.796139,-76.257526,Hook St/Dexter St E
160,36.708425,-76.263342,Elberon Ct
160,36.758450,-76.231323,Yupo Ct/Executive Blvd/Corporate Ln
276,36.703831,-76.225334,Rebel Rd/Hillwell Rd
246,36.795985,-76.218165,Exeter Cir
684,36.838726,-76.433094,Hunt Trl/Tracker Ln
276,36.800751,-76.430100,Old Dock Landing Rd
160,36.798146,-76.275521,Westwood Dr/Avalon Ave
362,36.741010,-76.227284,Midlands Ln
216,36.818945,-76.230775,Davis Ave/Elder Ave
276,36.784606,-76.216728,Logans Mill Trl/Shepherds Gate
246,36.769892,-76.335021,Devonshire Ct/Devonshire Dr
362,36.815384,-76.248527,Border Rd/Stalham Rd
216,36.754006,-76.355232,Boyette Ct W
185,36.736299,-76.219303,Clearfield Ave/Whitehurst Lndg
305,36.712041,-76.208746,Kensington Way/Paddington Ct
334,36.805450,-76.269007,Chevy St/Ardmore Ave
305,36.775797,-76.220835,Scarlet Oak Ct
305,36.682301,-76.205870,Winterberry Ct
160,36.627476,-76.279254,/Bunch Walnuts Rd
552,36.809839,-76.220438,Scott Ave
276,36.735849,-76.314003,Aldrich Ct
160,36.718786,-76.329276,Lanphier Cir/Chesterfield Loop
160,36.786827,-76.339480,Thomas St/Spencer Ln
334,36.726953,-76.345855,Iron Bridge Ln/Sawyers Arch
526,36.786471,-76.262627,Waverton Ct/Brookland Dr
390,36.776596,-76.249797,/I- 64
160,36.579434,-76.201946,/Battlefield Blvd S
305,36.770647,-76.225118,Sugar Tree Ct
552,36.749504,-76.268377,Elgin Ct
216,36.776508,-76.274690,Snow Goose Dr/Brant Ct
276,36.780835,-76.269795,Dahlia Ct/Homecrest Blvd
605,36.769431,-76.259637,I- 64
362,36.742177,-76.254133,Jake Ln
246,36.699646,-76.191405,Fentress Loop/Clearwater Ln
160,36.709414,-76.297353,Forest Glade Dr
160,36.605956,-76.263225,Rebecca Dr/Barbara Ct
305,36.753909,-76.277469,Malbon Dr/Mullen Rd
246,36.714539,-76.145979,Mount Pleasant Rd/Maxwell St
526,36.787399,-76.402370,I- 264
276,36.790772,-76.277476,Ellsworth Ave/Country Rd
552,36.788953,-76.231548,/Sara Dr
185,36.577039,-76.249233,Cypress Mill Ct/Cypress Mill Rd
160,36.809758,-76.272006,Richmond St/Jackson Ave
160,36.625163,-76.275384,Horseshoe Dr/Blacksmith Trl
526,36.748010,-76.266829,River Walk Pkwy/Helmsdale Way/Great Bridge Blvd
185,36.804842,-76.226242,Highland Pl/Rokeby Ave
216,36.825901,-76.247706,Wingfield Ave/Gracie Rd
185,36.836869,-76.427505,Trumpet Rd/River Oaks Dr
160,36.708137,-76.287096,Country Club Ct/Pescado Ct
185,36.708550,-76.249618,Bartell Dr/Caleb Dr
362,36.815389,-76.250656,Windy Rd/William Clarke Ct
445,36.736770,-76.294399,Dominion Blvd N
334,36.764563,-76.337160,Meiggs Rd
334,36.797741,-76.279943,Harvard Dr
472,36.774804,-76.278066,I- 464/S Military Hwy
246,36.776305,-76.274723,Grebe Ct
246,36.718482,-76.175601,Vespasian Cir/Ravenna Crse
160,36.747868,-76.214989,Grover Ct
216,36.709916,-76.197272,Althea Ct
305,36.860447,-76.402149,/Poplar Hill Rd
334,36.702485,-76.190504,Deland Ct/Tallahassee Dr
216,36.739019,-76.338643,Shipyard Rd/Moses Grandy Trail Sr165
160,36.571816,-76.127045,Baum Rd
185,36.762745,-76.316373,Anabranch Trce/Ferguson Cove
362,36.792476,-76.283113,I- 464
185,36.801655,-76.231924,Smith Ave/Milby Dr
160,36.630734,-76.272985,/Benefit Rd
305,36.771892,-76.365149,I- 64/S Military Hwy
246,36.777411,-76.248614,I- 64
160,36.850369,-76.395666,Oak Dr E
445,36.791791,-76.283500,I- 464
185,36.693823,-76.205890,Red Bay Ln/Amberdale Dr
185,36.800298,-76.415730,Hydenwood Cres/Lindenwood Dr
246,36.742677,-76.348748,Westonia Rd/Old Mill Rd
305,36.852116,-76.403685,/Meadowbrook Ln/Hawksley Dr
246,36.759403,-76.349514,Annaka Loop/Happy Acres Rd
1149,36.711890,-76.277012,Country Club Blvd/Cedar Rd
305,36.711148,-76.280142,San Roman Dr/San Roman Ct
185,36.789061,-76.258493,Ike St/Faye St
631,36.727555,-76.344681,Andiron Arch/Sawyers Arch/Big Pond Ln
334,36.728798,-76.283917,Waterfront Dr/Sunlight Dr
185,36.676792,-76.211353,Mill Stone Rd
362,36.758868,-76.324351,Southway St/Firman St
334,36.759404,-76.265344,Lord Byron Ct
710,36.784047,-76.233307,Greenbrier Pkwy/
418,36.783640,-76.223824,Stoney Creek Arch/Rocky Point Run
160,36.699507,-76.275255,Boston Ave/Chattanooga St
445,36.773728,-76.324557,Canal Dr/Broadmoor Ave
160,36.760748,-76.202062,Stillwood St/Woodgrove St
1407,36.746588,-76.244902,Sherington Dr/Battlefield Blvd N
305,36.800243,-76.387760,Lockspar Ct
276,36.689588,-76.233265,Hanbury Rd W
246,36.791923,-76.336043,Deep Creek Blvd
246,36.821349,-76.402546,Wedgewood Dr
216,36.782121,-76.280602,Maryview Ave
216,36.811721,-76.280351,Park Ave
185,36.762401,-76.207022,Placid Way
216,36.804176,-76.277316,McLain St/Beech Dr
390,36.744156,-76.217640,Trolley Xing/Track Xing
160,36.767962,-76.320809,Meta St
160,36.767246,-76.327174,Oak Manor Dr
185,36.748914,-76.230683,Silk Tree Ln/Sweet Leaf Pl
390,36.768919,-76.272405,I- 464
246,36.781255,-76.282817,Falcon Ave
216,36.738984,-76.339151,Cedar Rd
362,36.776470,-76.330452,/Geneva Ave
246,36.807618,-76.418153,Woodland Dr
736,36.749066,-76.241248,Sussex Ct/Nottaway Dr
526,36.815675,-76.427356,Feldspar Quay
185,36.793429,-76.445962,Askew Rd/Lake Shore Dr
579,36.788297,-76.333762,Shamrock Garden Rd
526,36.853487,-76.417250,Clover Rd E/Clover Rd/Bangor Dr
216,36.817128,-76.224282,Santeetlah Ave/Emporia Ave
472,36.752236,-76.277149,Mullen Rd/Dominion Blvd N
160,36.833242,-76.410611,Norris Ln/Denning Ln
185,36.784935,-76.346376,King Arthur Dr/Knight Rd
334,36.757474,-76.224065,Greenbrier Pkwy/Cross Creek Quay
362,36.785250,-76.273798,4th St/Portlock Rd
631,36.777703,-76.259140,Thoroughbred Crown Cir/Triple Crown Cir
362,36.719091,-76.293830,Hawick Ter/
418,36.713399,-76.283141,Club Point Rd/Bridge Dr
418,36.790844,-76.219711,I- 64
216,36.762345,-76.278619,Booker St/Great Bridge Blvd
216,36.745231,-76.268109,Shenandoah River Rd/Rapidan River Ct
762,36.837788,-76.432757,Big Bend Ct/Big Bend Dr
216,36.806323,-76.448746,Barn Swallow Dr/Oriole Dr
185,36.842642,-76.410530,Meadowridge Dr/Greenwood Rd
362,36.692058,-76.231705,Battlefield Blvd S
160,36.814264,-76.285132,Halifax Ln/Ohio St
334,36.756556,-76.210039,Breckenridge Ct
472,36.813496,-76.221097,Tamer Ave/Macdonald Rd
160,36.760667,-76.333194,Shell Rd
276,36.734962,-76.333262,Bayhaven Ct
305,36.753023,-76.235865,Oak Lake Dr/Towering Oak Ct
160,36.742090,-76.284325,Cherrytree Ln/Dominion Lakes Blvd
216,36.739990,-76.268332,Dahoon Ct
305,36.848229,-76.397684,Wythe Ln/Grant Ct/Tyre Neck Rd
246,36.744311,-76.268249,Shenandoah River Rd/Nottoway River Ct
160,36.742891,-76.334541,Moss Lndg
160,36.648487,-76.223710,Great Brg Byp
185,36.817166,-76.404869,Branch Dr/South Rd
305,36.818566,-76.228422,Davis Ave/Willow Ave
160,36.782578,-76.398839,S Military Hwy
246,36.735698,-76.357889,Saddle Ct/Bridle Ct
334,36.742995,-76.207365,Timber Neck Mall/Great Marsh Ave
445,36.769944,-76.272714,Campostella Rd/I- 464
276,36.802003,-76.233126,Osborn Ave
160,36.784825,-76.286452,Hanes St
362,36.741980,-76.256192,/Great Bridge Blvd
160,36.714914,-76.275545,Larkspur Ct
276,36.831323,-76.430555,Deerfield Cres/Gum Rd
185,36.857470,-76.419957,Challis Ct
445,36.834786,-76.411324,Schiemann Ct
305,36.818585,-76.255273,Cayce Dr/Cayce Cir
305,36.719153,-76.294042,/Mulligan Ct
891,36.848252,-76.426527,Lynnhurst Blvd/Pughsville Rd/Taylor Rd
216,36.802690,-76.424547,Biddle Ln/Spincaster Ln
160,36.747362,-76.230904,Blue Beech Way/Silk Tree Ln
160,36.686723,-76.184425,Murray Dr
276,36.808755,-76.251231,Hilton Ave/Garrett St
276,36.798431,-76.419462,Dock Landing Rd
334,36.772695,-76.239257,Eden Way N/Executive Blvd/Kristina Way
499,36.760533,-76.253414,Alder Ct
276,36.851122,-76.418700,Oneford Pl
445,36.783256,-76.276716,Eugenia Ave/1st St
216,36.764852,-76.334772,Meiggs Rd/Lovegrove Ave
445,36.785516,-76.226388,Coveside Ln/Pantigo Ln
216,36.706334,-76.253136,Yancy Ct
305,36.740335,-76.218270,Arondale Ct
185,36.796400,-76.218969,Corby Cir
334,36.684821,-76.198248,Beckley Ln/Harwich Dr/Etheridge Manor Blvd
216,36.825999,-76.237460,Riverstone Way/Oaklette Ave
185,36.717152,-76.183632,Waterway Ct
276,36.737863,-76.284407,Fernwood Farms Rd/Fernwood Farms Ct
276,36.722598,-76.285620,New Mill Lndg/New Mill Dr
390,36.817610,-76.249449,Windy Rd/Elbyrne Dr
362,36.688947,-76.210728,Linkenborough Dr/Loxdell Ct
362,36.709750,-76.240420,Johnstown Cres/N Kingsbridge Pl
246,36.697838,-76.244090,Union Forge Ln/Flintlock Rd
305,36.737935,-76.263828,Sailfish Quay
305,36.784235,-76.285216,/I- 464
160,36.697154,-76.286010,/Washington Dr
362,36.759688,-76.267421,/Dominion Blvd N
276,36.817973,-76.250873,Mooney Rd/Elbyrne Dr
276,36.736888,-76.314061,Angler Ln/Millville Rd
160,36.672266,-76.203110,Fordsmere Rd
445,36.844373,-76.422284,Bruce Rd/Braddock Landing Rd
216,36.688749,-76.192323,Thaddeus Ct
305,36.729848,-76.306956,Lancing Crest Ln/Lorton Ct
334,36.810108,-76.222993,Hayward Ave/Providence Rd
276,36.806985,-76.428075,Dock Harbour Dr/Mooring Ct
276,36.788257,-76.220201,Elderwood Cmn
185,36.710654,-76.177172,Bodine Ct
160,36.747720,-76.348178,Winter Jasmine Ct
185,36.779464,-76.267943,Snow Goose Dr/Campostella Rd
160,36.687016,-76.186249,Murray Dr/Centerville Tpke S
185,36.653772,-76.246843,/Prince Edward Dr
185,36.804746,-76.414071,Cory Ln
185,36.747128,-76.225748,Greenbrier Rd/Judah Way
305,36.793958,-76.416557,Odman Dr
160,36.800250,-76.431255,James Lndg/Old Dock Landing Rd
185,36.614242,-76.209258,Great Brg Byp
334,36.712295,-76.232820,Tree Fern Dr/White Dogwood Dr
472,36.687260,-76.190943,Helen Ave
216,36.696586,-76.233831,Dunbar Ct
305,36.841609,-76.406231,Meadow Wood Dr E/Meadow Wood Dr
160,36.743944,-76.323870,/Shipyard Rd
334,36.791351,-76.426401,Jolliff Rd/I- 664
334,36.717312,-76.280543,Friar Tuck Ct
684,36.797589,-76.412935,Middleburg Ln/Upperville Ct
334,36.814523,-76.264510,Stonehurst St
216,36.675438,-76.191598,Centerville Tpke S/Land of Promise Rd
334,36.801426,-76.409355,Dock Landing Rd/Scotfield Dr
216,36.713155,-76.173380,Berndale Dr
710,36.853786,-76.431436,I- 664
362,36.765417,-76.210250,Rellen St/Volvo Pkwy/Bishopstoke Dr
305,36.743471,-76.341485,Gale Ave/Temple St
526,36.825160,-76.418496,/Ring Rd
362,36.796523,-76.438885,Captain Carter Cir/Pittway Ct
362,36.761744,-76.212208,Danielle Ct/Hunningdon Woods Blvd
334,36.783666,-76.223123,Rock Bridge Mews
185,36.622282,-76.323526,/Lake Drummond Cswy
390,36.697114,-76.233276,Edna St/James Earl Dr/Battlefield Blvd S
526,36.758245,-76.300182,I- 64
246,36.805001,-76.224116,English Ave/S Military Hwy
185,36.798323,-76.272961,Eastwood Rd/Avalon Ave
246,36.715710,-76.251272,/Holt Dr
305,36.812231,-76.422889,Seastone Trce
390,36.795569,-76.411699,Pine Grove Ln/Barn Owl Ln
276,36.777274,-76.272984,Mallard Ct
160,36.559860,-76.209702,/Ballahack Rd
246,36.736240,-76.280713,Driftwood Dr/Pepperwood Ct
185,36.561485,-76.197713,Great Brg Byp
185,36.818124,-76.253032,Amick Rd/Berkley Ave
216,36.850827,-76.426949,Lynnhurst Blvd/Calverton Ct/Calverton Way
362,36.694194,-76.197050,Pacels Way/Eaglestone Arch
305,36.814619,-76.416700,Christopher Dr/Valencia Rd
305,36.743618,-76.227235,Green Tree Rd/Woodspring Arch
216,36.766776,-76.362807,Galberry Rd
185,36.816496,-76.422000,Armada Ct
445,36.771855,-76.223767,Turtle Rock Trce/Timberlake Ct
185,36.806779,-76.406297,Ames Cir S/Ames Cir W
418,36.708319,-76.228240,Mount Pleasant Rd/Carawan Ln/Scarborough Dr
185,36.697278,-76.274756,Riley Dr
839,36.808225,-76.263148,Martin Ave/Sheridan Ave
216,36.809199,-76.252964,/Sunrise Ave
216,36.804926,-76.284543,Barnes Rd
526,36.803854,-76.430060,I- 664/Dock Landing Rd
305,36.782708,-76.331182,Canal Dr/Pvt 11 Rd
472,36.801107,-76.261178,Parrish St/Abbey Cir
305,36.738060,-76.282841,Saltwood Ct
185,36.789277,-76.271679,Rutgers Ave/Varsity Dr
160,36.690290,-76.280049,Beech Forest Ct/Forest Lakes Cir
185,36.781312,-76.356001,Camelot Blvd/Archery Dr
276,36.818752,-76.433423,/Portsmouth Blvd
362,36.786905,-76.422427,W Military Hwy
216,36.788849,-76.409975,Westborough Dr
216,36.680507,-76.196308,River Gate Rd
710,36.729908,-76.300286,Dominion Blvd S
246,36.685979,-76.256781,Dorset Ct/Fairhaven Rd
276,36.808570,-76.252060,Hilton Ave/Candlewood Cir
390,36.714339,-76.189123,Mount Pleasant Rd/Huron Pl
943,36.865604,-76.408913,/Churchland Blvd
246,36.770922,-76.269355,Edgerton Rd/Gratton St
305,36.701940,-76.247902,Briarwood Ct/Briarwood Dr
445,36.844926,-76.398962,/Terry Dr
526,36.796431,-76.397260,Jennifer Cres
418,36.702910,-76.227859,Luray Ter/Scarborough Dr
246,36.850877,-76.405514,Hawksley Dr
160,36.809332,-76.269491,Seaboard Ave
216,36.842646,-76.416071,Miars Green/Miarfield Arc
605,36.775990,-76.329208,/Lake Village Dr
160,36.792689,-76.438371,Silverthorne Ct
305,36.784157,-76.284794,I- 464
185,36.699276,-76.193631,Clearwater Ln/Catrina Ln
390,36.813308,-76.281422,/I- 464
472,36.747656,-76.236425,Green Tree Cir
445,36.740981,-76.253864,Jenna Ct/Telfyan Dr
216,36.732546,-76.326187,Staley Crest Way/Annie Cir
418,36.759332,-76.325761,Tuttle St
276,36.842212,-76.394285,Farnsworth Dr/Point Elizabeth Ct/Point Elizabeth Dr
362,36.847169,-76.428478,Station House Rd
160,36.807366,-76.267850,Myers Rd
216,36.694677,-76.205919,Easton Ct/Amberdale Dr
160,36.676081,-76.255371,/Johnstown Rd
579,36.776219,-76.446301,W Military Hwy/Bisco St
305,36.775287,-76.280897,/S Military Hwy
185,36.756346,-76.278623,Harbour North Dr
390,36.691683,-76.239913,Hanbury Rd W
334,36.751097,-76.241699,Fairfax Ter
390,36.795714,-76.245650,Patriot Ln/Tudor Pl
160,36.692499,-76.263272,Justin Lee Way
246,36.773201,-76.380989,/S Military Hwy
1511,36.774758,-76.226966,/Merchants Way
472,36.816889,-76.275970,Decatur St/Guerriere St
968,36.862227,-76.401224,Poplar Hill Rd/Western Branch Blvd
305,36.690661,-76.257076,Bradford Ct
1174,36.755314,-76.248099,Hollywood Dr/Battlefield Blvd N/Oak Grove Rd
216,36.803129,-76.425099,Spincaster Ln
362,36.770857,-76.463345,W Military Hwy
246,36.703875,-76.254594,Spurlock Way/Butterfly Dr
246,36.680688,-76.209155,Autumn Oaks Dr/Deer Ridge Ct
160,36.634506,-76.126228,Carolina Rd
994,36.781366,-76.235840,/Crossways Blvd
160,36.743354,-76.330851,Shipyard Rd
246,36.698203,-76.254216,Yorkshire Dr
216,36.664600,-76.237454,Bankbury Way
334,36.821713,-76.277219,17th St
160,36.669109,-76.305001,/Hallmark Way
160,36.785675,-76.280617,Hamilton St/Earle Ave
160,36.794937,-76.227632,Steppingstone Sq/Smith Ave
276,36.737354,-76.191543,/McRowland Way
499,36.842433,-76.431646,Big Bend Dr/Old Fox Trl
276,36.569029,-76.251446,Starling St
276,36.731025,-76.306461,Elliston Way/Lancing Crest Ln
276,36.790123,-76.258438,Ike St
390,36.783447,-76.393924,Rotunda Ave
943,36.809702,-76.218845,S Military Hwy
216,36.775055,-76.217404,Sage Ct
160,36.705892,-76.283636,Granada Dr
276,36.738097,-76.251166,Preservation Loop/Preservation Reach
276,36.772883,-76.318806,State St/S Military Hwy
216,36.731292,-76.357053,Colnel St/Dodd St
362,36.757804,-76.293135,I- 64
579,36.767023,-76.262664,I- 64
160,36.742806,-76.266074,Sandcastle Ct
246,36.768818,-76.206831,Thornwood
334,36.786093,-76.268312,Warfield St
216,36.648087,-76.204972,Hickory Forest Dr/Hickory Station Dr
185,36.692780,-76.249306,Queenswood Ter/Royal Grant Dr
710,36.687600,-76.221934,Etheridge Manor Blvd/Hillwell Rd
160,36.646723,-76.334944,/West Rd
185,36.789571,-76.279615,Elizabeth St
684,36.563737,-76.199317,Old Battlefield Blvd S/Great Brg/Battlefield Blvd S/Great Brg Byp
185,36.708302,-76.262642,Warrick Rd
390,36.843134,-76.402528,Prince of Wales Dr/Prince of Wales Ct
246,36.740040,-76.336585,Shipyard Rd/Cedar Cove Ln
185,36.785578,-76.345466,Romaron St
418,36.753061,-76.244729,Oak Grove Rd
390,36.575149,-76.198502,Gallbush Rd
160,36.768615,-76.262559,McCosh Dr/Kincaid Ter
185,36.716296,-76.263455,Ruffin Ricks St
160,36.744614,-76.260474,Loose Strife Pl/Willow Point Dr
160,36.642920,-76.148519,/Carolina Rd
246,36.751718,-76.214716,Coliandro Ct
710,36.807280,-76.263920,Atlantic Ave/Myers Rd
631,36.734549,-76.237092,Kempsville Rd/Dupont St
185,36.800787,-76.257597,Belspring St
246,36.771922,-76.368771,/S Military Hwy
185,36.576504,-76.190987,/Gallbush Rd
605,36.768340,-76.220652,Ivystone Sq
246,36.696858,-76.226044,Chandler Dr
891,36.756160,-76.248475,Battlefield Blvd N
160,36.737285,-76.277662,Timber Quay
216,36.688489,-76.201221,Grantham Ln/Sydenham Blvd
160,36.615583,-76.170798,Sanderson Rd/
334,36.804523,-76.224759,Miller Ave/S Military Hwy
185,36.817918,-76.253230,Amick Rd
305,36.700150,-76.277502,Erie St/Denver Ave
362,36.820592,-76.276695,Decatur St/D St
246,36.828663,-76.249688,Indian River Rd
362,36.736669,-76.240606,Great Brg Byp
246,36.723467,-76.319474,Coral Ivy Ct
390,36.842415,-76.439378,Old Pughsville Rd
185,36.761700,-76.208187,Rellen Ct
246,36.844150,-76.437108,Marta Ln
246,36.817638,-76.261097,Oldwood St
631,36.748103,-76.243092,Barwick Ct/Ridge Cir
305,36.812719,-76.272620,Jackson Ave/Park Ave
418,36.835286,-76.426270,Trumpet Rd/Brook Stone Dr
276,36.755568,-76.255442,Dewberry Dr/Crystalwood Cir
552,36.792421,-76.218935,Orford Cir
710,36.708414,-76.241702,Johnstown Rd/Britwell Dr
1615,36.773536,-76.254310,/Battlefield Blvd N
1174,36.820602,-76.425979,Portsmouth Blvd
246,36.687330,-76.186168,/Centerville Tpke S
276,36.690908,-76.221716,Trey Ln/Hillwell Rd
246,36.759647,-76.199446,Tealwood Ln/Woodmill St
605,36.776953,-76.223464,River Birch Run S
579,36.688347,-76.221758,Cayland Ct/Hillwell Rd
445,36.703428,-76.226602,/Great Brg Byp
185,36.695194,-76.213372,Bellingham Dr/Etheridge Rd
1046,36.566453,-76.246997,/Northwest Blvd
216,36.738186,-76.178065,Elbow Rd
390,36.783374,-76.223217,Sand Pebble Ct
246,36.796999,-76.267574,Virginia Ave
1746,36.825684,-76.404719,Dock Landing Rd/Prindle Ct
334,36.757001,-76.253532,Shadowlake Ct
185,36.795227,-76.220822,Hollins Ct
362,36.744105,-76.258058,River Walk Pkwy/Great Bridge Blvd
185,36.697917,-76.098857,Shetland Dr
160,36.801886,-76.221736,Philadelphia Ave/Miller Ave
418,36.847520,-76.427378,/Station House Rd
334,36.785613,-76.286125,Hanes St
185,36.737935,-76.240879,Oak Grove Rd
552,36.711212,-76.257070,/Cedar Lakes Dr
160,36.760697,-76.208207,Hanna Rose Ct
526,36.759318,-76.274224,I- 64
246,36.566614,-76.199121,Great Brg
418,36.798421,-76.399405,/Schooner Trl
276,36.791782,-76.279557,Bainbridge Blvd/Hill St
160,36.812335,-76.279855,Porter St
362,36.702956,-76.244474,Champion Ct
276,36.703218,-76.207422,Sugar Maple Ln
334,36.717054,-76.332411,Sandown Crst/Chesterfield Loop
160,36.844560,-76.413393,Meadow Wood Dr
362,36.736604,-76.311225,Harton Ln/Marcia Ct
185,36.798755,-76.278838,Paxson Ave
185,36.740907,-76.305786,Garwood Ln/Rockwood Dr
418,36.799442,-76.397293,Tiller Ln
160,36.795354,-76.270304,Bassett St/Rodgers St
1252,36.740381,-76.242520,Battlefield Blvd N/Gainsborough Cir
246,36.797116,-76.261668,Dexter St W/Dexter St E/Atlantic Ave/Brian Scott Dr
418,36.792573,-76.219707,Thames Cir/Eaton Way
216,36.746068,-76.214811,Kempsville Rd
246,36.762389,-76.319548,Pinecroft Ln/Paperbark Trl
216,36.696780,-76.337840,Number Ten Ln
445,36.783434,-76.225097,River Birch Run N
1433,36.778280,-76.230996,/Greenbrier Pkwy
526,36.816680,-76.265776,Old Atlantic Ave/Ohio St
552,36.700541,-76.244634,Briarwood Dr/Johnstown Rd
246,36.758864,-76.283804,Durham Ave
526,36.759154,-76.274632,I- 64/Great Bridge Blvd
246,36.688205,-76.189317,Becca Anne Ct
334,36.747860,-76.346181,/George Washington Hwy N
216,36.809080,-76.265460,Pocahontas Ave/Cullen Ave
216,36.769476,-76.288447,Bainbridge Blvd
334,36.841763,-76.388323,Hardwick Ter
160,36.795307,-76.441070,Creekview Ct
276,36.735692,-76.282036,Andrea Ln/Doria Trl
160,36.654203,-76.247008,/Prince Edward Dr
160,36.711081,-76.247181,Constance Dr/Sierra Dr
472,36.787066,-76.423246,I- 664/W Military Hwy
605,36.707626,-76.240371,S Kingsbridge Pl/Kingsbridge Way
390,36.716352,-76.184803,Waterway Cir
160,36.677049,-76.101822,Blackwater Rd/Pocaty Rd
160,36.860197,-76.420382,Saint Clair Dr/Newport Dr
526,36.758532,-76.344680,George Washington Hwy N/I- 64
276,36.737815,-76.276543,Moss Quay/Marina Reach
185,36.819281,-76.250366,Mooney Rd/Mayon Dr
276,36.761411,-76.274948,Shelley St/Marcus St
185,36.709692,-76.191602,Currituck Dr/Winfall Dr
390,36.815042,-76.247187,Border Rd/Plow Ln
334,36.756594,-76.253820,Shadowlake Dr
246,36.736481,-76.226478,Janes Way
276,36.736706,-76.331034,Wood Bird Ct
185,36.744243,-76.355753,Brown Rd/Old Mill Rd
160,36.708232,-76.247682,Willard Dr
185,36.844831,-76.407626,Meadowgate Ct
684,36.806258,-76.227833,/Rokeby Ave
390,36.777486,-76.221450,Eden Way N
1693,36.775366,-76.228174,Eden Way N/Merchants Way
160,36.786475,-76.292279,Hayslett St/Wilcox St/Freeman Ave
445,36.854026,-76.420998,/Clover Meadows Rd
246,36.778450,-76.273035,Guadal Ct
334,36.729322,-76.326712,Cedar Rd
418,36.759952,-76.185884,/Centerville Tpke N
160,36.704486,-76.194128,Colony Dr/Albemarie Ct
788,36.794179,-76.215425,Lydney Cir/Paramont Ave
390,36.756824,-76.345039,George Washington Hwy N
216,36.740243,-76.307407,Burson Dr/McCoy Rd
160,36.677731,-76.293209,/Shillelagh Rd
305,36.799150,-76.410931,Middleburg Ln/Devon Dr
305,36.733046,-76.237590,Taxus St/Snowberry Ln
216,36.700382,-76.192621,Hywood Ct
334,36.710112,-76.294477,Forest Glade Dr
552,36.700293,-76.199428,Blue Spruce Ct
305,36.695880,-76.236049,Woodrow Ct
216,36.688547,-76.227988,/Etheridge Manor Blvd
1071,36.761587,-76.250672,Battlefield Blvd N/Haviland Rd
160,36.706711,-76.271103,Twelve Oaks Ct
246,36.786929,-76.334771,Barco Ln/Barco Ct
390,36.742616,-76.240221,Indian Cedar Dr/Gainsborough Sq E
305,36.809645,-76.280243,I- 464
246,36.734436,-76.282735,Doria Trl
185,36.634023,-76.265137,Pine Forest Ln/Pine Bark Dr
246,36.730051,-76.354785,Conservancy Dr/Robert Frost Rd
418,36.817290,-76.257799,Bethel Rd/Drayton Rd
334,36.656917,-76.229601,/Great Brg Byp
305,36.699639,-76.266283,Flax Mill Way/Greenfield Lame
276,36.808797,-76.277337,Bainbridge Blvd/Byrd Ave
160,36.754422,-76.239152,Knells Ridge Dr/Chesterfield Ter
246,36.809594,-76.251384,Sunrise Ct/Sunrise Ave
216,36.804228,-76.241031,Whitehaven Cres/Dent Pl
552,36.741464,-76.251677,Great Brg Byp
579,36.799057,-76.399329,Sloop Trl
246,36.743254,-76.260975,/Willow Green Ct
499,36.821089,-76.278679,/Butt St
246,36.743881,-76.267531,Nottoway River Ct
499,36.705639,-76.227255,Arch Rd/Scarborough Dr
185,36.690911,-76.198263,Denham Arch
160,36.821375,-76.408751,Taylor Rd
552,36.788652,-76.331883,Shamrock Garden Rd/George Washington Hwy N
472,36.786766,-76.422721,I- 664/W Military Hwy
736,36.757079,-76.282378,/Harbour Pl
185,36.761270,-76.342239,Lake Ridge Ct
216,36.833738,-76.428158,Cornet St/Concorde Pl
246,36.713893,-76.172579,Ashburn Ct
499,36.807276,-76.262134,Myers Rd/Oliver Ave
185,36.812396,-76.275038,Decatur St/Park Ave
185,36.682269,-76.223550,Travis Ct
499,36.701545,-76.200451,Erik Paul Dr
276,36.707338,-76.267045,Wessex Dr/Marquis Ct
185,36.781051,-76.396702,/S Military Hwy
216,36.784663,-76.263743,Midway Ave/Portlock Rd
579,36.816523,-76.266997,Ohio St/Transylvania Ave
185,36.740205,-76.230902,Hidden Falls Ct
160,36.699181,-76.356530,/George Washington Hwy S
305,36.784243,-76.218176,Logans Mill Trl
185,36.764910,-76.322494,Jarvis Rd/Shell Rd/Richwood Ave
185,36.856766,-76.418206,Maori Dr/Kinsington Dr/Maori Ct
418,36.742650,-76.248563,/Wimbledon Sq/Wimbledon Chase
246,36.784637,-76.219835,Logans Mill Trl/Whiterock Bend
160,36.780000,-76.332540,Oak Bark Ln/Gilmerton Rd
216,36.751634,-76.275238,Pine Harbor Ct
160,36.680463,-76.253321,Stonegate Pkwy/Johnstown Rd
276,36.736503,-76.266925,/Inlet Quay
552,36.824248,-76.265098,Leonard Ave/Berkley Ave
160,36.785796,-76.346184,King Arthur Ct
552,36.772954,-76.324436,/Canal Dr
362,36.726125,-76.334940,Sawyers Mill Xing/Scaleboard Cir
216,36.774805,-76.286314,Smith Douglas Rd/Bainbridge Blvd
276,36.793497,-76.390387,/I- 264
276,36.818353,-76.276258,Decatur St/Grady St
445,36.795349,-76.217081,Farington Cir
160,36.704233,-76.281296,Washington Dr
305,36.784839,-76.355259,Sir Tristram Ct
305,36.808989,-76.435527,Jolliff Rd/Quivers Keep
246,36.602761,-76.210919,Saint Brides Rd E/Battlefield Blvd S
362,36.741121,-76.227384,Midlands Ln/Kempsville Rd
216,36.788369,-76.337800,Garrison St
216,36.809428,-76.416402,Dockwood Trl
305,36.848592,-76.410055,Radcliffe Ln/Thomas Ln
445,36.826424,-76.433920,Jolliff Rd
390,36.806513,-76.253146,Golden Leaf Dr
390,36.770605,-76.218911,Mill Lake Quarter/Eden Way N
276,36.760071,-76.196746,Boxelder Ln/Shortleaf Ln
216,36.802695,-76.273068,Decatur St//Jerome St
445,36.690112,-76.236415,Hanbury Ct/Hanbury Rd W
362,36.743398,-76.260424,Willow Green Ct
246,36.741903,-76.218674,Thornloe Ln/Old Butts Station Rd
160,36.855159,-76.425378,Calverton Way/Ballance Ct
160,36.705459,-76.250603,Moor Dale Ct/Glenwood Dr
160,36.698890,-76.255966,Dorchester Ct
276,36.699101,-76.224306,Hillwell Rd
334,36.843367,-76.401483,Prince of Wales Dr/Brittany Way
526,36.796593,-76.394967,Springwood Ct
418,36.760392,-76.264447,Queens Gate/Kings Gate
160,36.743851,-76.324484,Trailsend Ln/Shipyard Rd
526,36.776743,-76.354388,Sir Meliot Dr/Drawbridge Dr
362,36.815211,-76.247842,Flower Ln/Border Rd
160,36.794206,-76.436342,Davids Mill Dr/Manor View Ct
216,36.741210,-76.272836,Spice Bush Ct
3032,36.774752,-76.230654,Eden Way N
390,36.734433,-76.314880,Fern Mill Ct
499,36.753307,-76.349939,Blanche Dr/Willowwood Dr
160,36.734318,-76.310114,Kelsey Bay Ct
185,36.637169,-76.362799,/Hwy 17/Douglas Rd
216,36.721580,-76.282639,New Mill Dr
1746,36.773440,-76.235253,Eden Way N/Stephanie Way
160,36.789039,-76.276218,Rutgers Ave/2nd St
246,36.790240,-76.408608,Chad St
305,36.858582,-76.406638,/Taylor Rd
334,36.826280,-76.226837,Hoffman Ave/Sparrow Rd
390,36.774715,-76.260901,Lindale Dr/Ginger Ct
185,36.840510,-76.393929,Forsythe Ct
216,36.840983,-76.401289,Princess Anne Cres/Princess Anne Ct
185,36.816080,-76.251300,Border Rd
305,36.819377,-76.419659,Leeward Dr/Isabella Dr
246,36.770304,-76.312805,Shell Rd/Faulk St
160,36.800840,-76.412467,Inez Ln
334,36.681325,-76.199572,Hillston Arch/Hillston Ct
276,36.799786,-76.413339,Stowaway Ct
305,36.723839,-76.319709,Coral Ivy Ct/Coral Ivy Ln
418,36.760368,-76.263700,Kings Gate/Duke of Suffolk
276,36.795312,-76.252521,Holly Berry Ln/June Berry Ct
246,36.685535,-76.229661,/Battlefield Blvd S
305,36.756392,-76.207028,Windom Blvd
276,36.705557,-76.268773,Wessex Dr/Montebello Cir
552,36.801545,-76.243342,Dunbarton Dr/Providence Rd
246,36.784220,-76.354166,Sir Galahad Dr/Aaron Dr
499,36.787793,-76.418974,W Military Hwy
390,36.724516,-76.312871,Cordova Ct/Miami Dr
813,36.821256,-76.227832,Indian River Rd/Willow Ave
605,36.798468,-76.398252,Schooner Trl/Sloop Trl
334,36.742303,-76.241537,Gainsborough Sq E/Gainsborough Cir
305,36.790077,-76.265349,Diamond Hill Rd
658,36.808550,-76.219839,S Military Hwy
334,36.818469,-76.269178,Collingwood Ave/Liberty St
2705,36.774685,-76.229685,Greenbrier Pkwy
472,36.744258,-76.240708,Lynnwood Gold Ct
216,36.750304,-76.332223,Halyard Ln/Skipjack Ln
216,36.761372,-76.189921,Mill Pond Arch Rd/Mill Pond Dr
1304,36.781039,-76.237188,Crossways Blvd
216,36.787078,-76.339948,Deep Creek Blvd/Thomas St
579,36.780368,-76.231757,Greenbrier Pkwy
216,36.806876,-76.247573,Longdale Ct
684,36.760137,-76.285058,Pile Ave/Booker St
418,36.811528,-76.249605,Fireside Rd/Stalham Rd
276,36.791032,-76.342065,Gust Ln
418,36.744032,-76.259702,Willow Point Arch
276,36.806317,-76.276672,Barnes Rd/Bainbridge Blvd
160,36.778631,-76.270857,Snow Goose Dr/Muscovy Ct
305,36.842951,-76.396815,Sir Walter Cres/Point Elizabeth Dr
216,36.775790,-76.266186,Lindale Dr/Howard Rd
160,36.695834,-76.204953,Somerton Ln
216,36.774331,-76.270276,Campostella Rd/Rutledge Rd
246,36.803196,-76.276055,Bainbridge Blvd
334,36.782383,-76.346055,King Arthur Cir
305,36.847495,-76.409316,Worthing Ln/Bruin Dr
684,36.688512,-76.216503,Shifford Ln/Etheridge Manor Blvd
185,36.779849,-76.395028,S Military Hwy
276,36.827018,-76.229354,Laurel Ave/Chowan Ave
631,36.822314,-76.264431,Partridge Ave/Wade St
185,36.749894,-76.202602,Denise Ct
390,36.806432,-76.251649,Candlewood Ct
445,36.692198,-76.240768,Millwood Ave/Hanbury Rd W
472,36.749297,-76.225044,Lee Shore Ct
362,36.694949,-76.192582,Pepper Cir
418,36.798589,-76.388075,Bosun Dr/Spar St
276,36.723746,-76.337527,Undershot Ct
185,36.634200,-76.265207,/Pine Forest Ln
736,36.729532,-76.333359,Mossgate Ct
579,36.814460,-76.271083,/Jefferson St
418,36.720548,-76.240314,Reservation Rd/Callison Dr
362,36.697303,-76.191507,Clearwater Ln/Crestwynd Dr/Meggett Dr
216,36.688874,-76.194939,Denham Arch/Cookham Arch
305,36.799520,-76.417149,Emberhill Ct
472,36.720706,-76.240072,Battlefield Blvd N/Battlefield Blvd S
185,36.777781,-76.272128,Red Head Ct
185,36.569479,-76.250078,Wren St
185,36.846580,-76.419360,Uffington Ct
246,36.782869,-76.279545,Bernard St/Corden Ave
160,36.692842,-76.253975,Queenswood Ter
390,36.762442,-76.224599,Saint Andrews Reach
276,36.695515,-76.219431,Hawkhurst Dr
185,36.677619,-76.190106,Old Woodmont Dr
276,36.695765,-76.188463,Meggett Dr/Ponce Ct
552,36.822304,-76.267513,Edinburg Ave/Landsworth St
185,36.691492,-76.263553,Waters Rd
216,36.763709,-76.344389,George Washington Hwy N/Happy Acres Rd
185,36.715218,-76.177918,Lambardi
445,36.786675,-76.224372,/Birch Trail Cir
605,36.797060,-76.280974,I- 464
362,36.753460,-76.273969,Dominion Blvd N
216,36.711312,-76.171326,Booth Ct/Fair Oak Dr
216,36.801676,-76.398877,Gaff Rd/Port Rd
160,36.804306,-76.287599,Barnes Rd
276,36.851273,-76.405000,Hawksley Dr
499,36.852510,-76.431279,/I- 664
631,36.762545,-76.267703,Great Brg Byp
160,36.649920,-76.247523,/Prince Edward Dr
305,36.820724,-76.274534,B St/20th St
362,36.726520,-76.334065,Scaleboard Cir
185,36.714162,-76.236361,Woodford Dr/Bridgeview Cir
276,36.708067,-76.173019,Long Meadow Ln/Pinedale Ln
185,36.739737,-76.202992,Crossland Dr/Stacy St
160,36.734156,-76.206638,Redleafe Cir/Old Bridge Ln
658,36.782702,-76.258458,/Battlefield Blvd N
362,36.792983,-76.282827,I- 464
305,36.781310,-76.277613,Franklin St/Lucas Ave
216,36.806436,-76.273334,Hughes Ave/Chesapeake Dr
160,36.757694,-76.233363,Yupo Ct
216,36.861067,-76.413903,Brandywine Dr/Normandy Ct
305,36.747390,-76.275731,Fernwood Farms Rd/Cobblewood Way
499,36.844016,-76.409460,Bruce Rd/Bruin Dr
276,36.758549,-76.219745,Fenton Quay/Brandon Quay
552,36.819121,-76.256129,Bethel Rd/Cayce Dr
552,36.865026,-76.400388,American Legion Rd
276,36.775104,-76.273877,S Military Hwy
185,36.803450,-76.448369,Nightingale Ln/Wild Duck Xing
160,36.807179,-76.260448,Urquhart Ave/Myers Rd
160,36.710571,-76.215905,Beauregard Dr
216,36.567190,-76.249909,Relay Rd
418,36.816509,-76.252980,/Border Rd
185,36.709531,-76.297960,Catalina Ct/Forest Glade Dr
185,36.752269,-76.336923,Stubbs Ct
216,36.741681,-76.285788,Destiny Way
305,36.793469,-76.401550,Airline Blvd/Quailshire Ln
362,36.665920,-76.230271,Great Brg Byp
160,36.745919,-76.328303,Midship Ct
160,36.736997,-76.336511,Dockside Ct
160,36.777732,-76.265982,Pvt 5 Rd
185,36.690879,-76.271358,Waters Rd/Brice Ct
418,36.813365,-76.267691,Hoover Ave/Park Ave
246,36.746926,-76.360375,Raytee Dr/Hot Mill Ct
305,36.775297,-76.341130,/Townhouse Ln
185,36.794794,-76.269945,Edgewood Ave/Rodgers St
246,36.794233,-76.273282,Edgewood Ave/Ida St
526,36.784535,-76.233191,I- 64
185,36.605404,-76.201267,Great Brg Byp
160,36.795988,-76.441602,Creekview Dr/Deerview Ct
246,36.845772,-76.408858,Duke of Gloucester Dr/Bruin Dr
216,36.754909,-76.276893,Jones Ln
246,36.742490,-76.208258,Walnut Neck Cir/Walnut Neck Ave/Great Marsh Ave
968,36.828503,-76.411333,Chesapeake Square Access Rd/Ring Rd
305,36.724369,-76.186477,Centerville Tpke N
185,36.716821,-76.336881,Bryson Arch/Trescott Way
246,36.700923,-76.252716,Glasgow St/Liverpool Ct
710,36.797644,-76.257959,Campostella Rd/Providence Rd/Brian Scott Dr
418,36.806180,-76.277868,Barnes Rd/McLain St
305,36.799653,-76.262259,Broad St/Atlantic Ave
276,36.683552,-76.198675,Brookside Ct
305,36.700434,-76.185366,Blue Ridge Rd/Centerville Tpke S
362,36.758815,-76.339421,I- 64
276,36.777180,-76.275712,Shell Drake Ct
216,36.797107,-76.231332,Live Oak Dr
216,36.769180,-76.207125,Thornwood
305,36.698538,-76.224786,Chandler Dr/Timmons Ct
305,36.809127,-76.433623,Quivers Keep/Tether Wood Ct
160,36.697600,-76.263694,Parker Rd/Hedgerow Ct
160,36.606031,-76.252564,/Taft Rd
472,36.772642,-76.225216,Saddleback Lndg/Quarter Path Trl
216,36.666908,-76.195404,Forest Mills Rd/Centerville Tpke S
160,36.858940,-76.424789,Lynn Dr/Christie Ter
160,36.714081,-76.274644,Larkspur Ln/Doe Run Dr
160,36.737490,-76.332258,Woods Edge Ct
160,36.704545,-76.305536,Shillelagh Rd
216,36.755613,-76.334076,Pintail Ln/Wood Duck Ln
499,36.703290,-76.201067,Fentress Rd/Erik Paul Dr
605,36.784033,-76.225114,Stoney Creek Arch/River Birch Run N
160,36.731839,-76.348809,Willow Bend Dr/Misty Hollow Ct
499,36.814720,-76.245878,Pond Ln/Border Rd
246,36.845125,-76.408825,Meadowgate Ct/Bruin Dr
362,36.759704,-76.364597,Mostiler Pl
305,36.690945,-76.257354,Ivanhoe Ct/Bradford Ct/Yorkshire Trl
276,36.691838,-76.253445,Greenway Dr/Waters Rd
276,36.814953,-76.234099,Cornick Ave/Hawthorne Dr
246,36.696082,-76.199067,Stockleybridge Dr
246,36.775765,-76.215638,Savory Cres
246,36.828341,-76.246694,Eustis Ave
160,36.817493,-76.252001,Wingfield Ave/Berkley Ave
216,36.693934,-76.227452,Great Brg Byp
276,36.752694,-76.206871,Cricket Ct
185,36.805043,-76.220708,Main St/Sparrow Rd
185,36.743997,-76.312760,Lemonwood Rd/Rockwood Dr
472,36.724711,-76.337895,Millhouse Ct
185,36.761562,-76.320402,Paperbark Trl/Woods Way
1200,36.821508,-76.422433,Portsmouth Blvd
160,36.742762,-76.318691,Orangewood Rd/Burson Dr
160,36.692165,-76.274638,Oak Forest Ct
305,36.709339,-76.292032,Forest Glade Dr/Country Club Blvd
445,36.744747,-76.217175,Track Xing
605,36.796093,-76.394362,Trailwood Ct
418,36.775603,-76.281717,/S Military Hwy
276,36.803497,-76.276032,Bainbridge Blvd
185,36.765798,-76.283565,Joyner Rd/Great Bridge Blvd
658,36.757122,-76.284207,Harbour Pl/Windward Pl
246,36.795982,-76.398868,Airline Blvd/Sandy Pines Way
552,36.777524,-76.222750,Eden Way N
276,36.765569,-76.196170,Volvo Pkwy/Plantation Lakes Cir
216,36.731323,-76.357298,Dodd St
334,36.750479,-76.238232,/Oak Grove Rd
579,36.714260,-76.247097,Library Dr/Bartlett Dr/Cedar Rd
216,36.769848,-76.271412,Hartford Ct/Burns St
276,36.781023,-76.269690,Spruce Dr/Homecrest Blvd
526,36.814719,-76.280116,Poindexter St
605,36.704359,-76.235510,Battlefield Blvd S/Marion Dr
362,36.818740,-76.274801,22nd St/D St
276,36.689888,-76.204123,Hempstead Ct
185,36.777478,-76.326342,/Canal Dr
216,36.724540,-76.246748,Locks Rd
736,36.699338,-76.245015,Stardale Dr/Johnstown Rd
160,36.712878,-76.207161,Mooregate Ct/Whitehall Ct
185,36.851450,-76.407942,Shadyside Ln/Morningside Dr
334,36.706285,-76.263480,Montebello Cir/Pines of Warrick Dr
185,36.747677,-76.225735,Gulfwind Rd/Greenbrier Rd
185,36.684934,-76.213168,Bennett Way
160,36.800298,-76.220817,Altoona St/Rokeby Ave
305,36.701962,-76.192816,Colony Dr/Albemarie Ct
276,36.810630,-76.276888,Holly Ave/Hull St
246,36.723175,-76.273464,Enoch Ridge
418,36.770339,-76.275612,Janell Ct
788,36.734918,-76.245160,Saint Lukes Church Rd/Acorn Grove Ln
334,36.718162,-76.331871,Gresham Way
246,36.769438,-76.215115,Masters Row/Turnberry Ct
246,36.710870,-76.263601,Mill Landing Rd/Marsh Wren Ct
246,36.715720,-76.272276,Fox Ridge Trl/Old Oaks Ter/Old Oaks Cir
216,36.748379,-76.215963,Sippel Dr/Cogliandro Dr
472,36.783549,-76.228816,Elysian Pl
185,36.768890,-76.325730,Sebring Ave/Southern Pines Dr
216,36.700678,-76.248342,Pinecliffe Dr/Hollygate Ln
185,36.757298,-76.242573,Hollow Ct
160,36.757155,-76.326186,Bluewing Ln
185,36.789344,-76.280530,Bainbridge Blvd/Livingston Ave
334,36.731328,-76.336010,Derry Dr/Creekwood Dr
276,36.785297,-76.265360,Portlock Rd/Wake Ave
216,36.722175,-76.282407,Alaina Rd/New Mill Dr
185,36.728283,-76.325950,Cedar Rd/Millville Rd
216,36.837058,-76.390060,Point Elizabeth Dr
472,36.699647,-76.200481,Wild Cherry Ct
160,36.740028,-76.167480,/Elbow Rd
160,36.745521,-76.207326,Timber Neck Mall/Riddlehurst Ave
246,36.811787,-76.253291,Wingfield Ave/Shelter Rd
276,36.801780,-76.254045,Geranium Ln
160,36.733422,-76.337374,Broadwater Dr
185,36.752780,-76.347107,Willowwood Ct
1329,36.776786,-76.231598,Crossways Blvd
246,36.798368,-76.422814,River Rock Reach
246,36.818080,-76.254444,Cayce Ct/Cayce Dr
160,36.763347,-76.331294,Bay Oak Ct/Bay Oak Dr
445,36.756971,-76.268017,/Dominion Blvd N
762,36.772667,-76.227001,Hearthstone Lndg/Cool Brook Trl
246,36.760862,-76.267486,Great Brg Byp/Dominion Blvd N
160,36.689995,-76.265928,/Waters Rd
216,36.754598,-76.222789,Thatcher Way
579,36.753477,-76.266191,Wickford Ct
579,36.760247,-76.284020,Booker St/Durham Ave
246,36.744585,-76.215842,Keri Ct/Rainbow Run
246,36.821937,-76.251924,Salton Dr/Oaklette Dr
216,36.711886,-76.195739,Corapeake Dr/Manteo Ct
390,36.793012,-76.245922,King George Quay
305,36.691673,-76.236656,Wexford Ct
246,36.698605,-76.230373,S Hill Ln
305,36.799622,-76.276431,Swain Ave/Bainbridge Blvd
710,36.773341,-76.226335,Quarter Path Trl
216,36.780375,-76.334275,/Gilmerton Rd
276,36.806961,-76.274791,Chamberlain St/Wright Ave
1123,36.781844,-76.227177,Ring Rd
305,36.754551,-76.338128,Meadow Creek Dr/Shell Rd
160,36.750912,-76.375636,Kentucky Trl/Martin Johnson Rd
552,36.744308,-76.248002,Medical Pkwy
216,36.758802,-76.205082,/Kempsville Rd
160,36.714957,-76.175041,/Mount Pleasant Rd
216,36.772945,-76.219702,Mill Lake Quarter/Mill Stream Way
418,36.753988,-76.265643,Great Brg Byp
305,36.793665,-76.239640,S Military Hwy
276,36.849015,-76.415311,Bayford Ct
246,36.760685,-76.199083,Stillwood St/Tealwood Ln
276,36.710562,-76.269042,Waters Rd
160,36.714159,-76.276345,Cedarwood Ln
185,36.838306,-76.389708,Falmouth Dr/Falmouth Ct
305,36.751008,-76.232926,Sweet Leaf Pl
305,36.742078,-76.347553,Culpepper Ln/Old Mill Rd
362,36.784344,-76.353329,Kenelm Dr/Aaron Dr
631,36.749611,-76.241494,Sommerville Cres/Nottaway Dr
185,36.725471,-76.331164,Cassway Arch
216,36.746675,-76.325911,Cuddy Ct
276,36.703719,-76.284915,Belem Dr/Almodvar Dr
246,36.756125,-76.276353,Pershing Ct/Westcove Ln
246,36.859665,-76.404847,Redfern Ln/Greendell Rd
305,36.740613,-76.307983,Hazelwood Rd/Burson Dr
362,36.782727,-76.355674,Gaston Ct/Gaston Dr
305,36.695678,-76.266613,Wakedale Arch/Wentworth Dr
216,36.785243,-76.341462,Deep Creek Blvd/Artis Ave
390,36.743164,-76.223866,Kempsville Rd/Walton Rd
160,36.695964,-76.232918,Battlefield Blvd S
305,36.811355,-76.423025,Waterfern Cove
160,36.740894,-76.336226,Ships Lndg
216,36.796888,-76.269955,Jackie Dr/Virginia Ave
160,36.807800,-76.419935,Woodland Dr
390,36.780612,-76.274857,Pamona St
276,36.843984,-76.437863,Cozette Rd
276,36.736925,-76.241646,/Great Brg Byp
390,36.735394,-76.235657,Kempsville Rd/Stillwater Dr
736,36.811540,-76.245928,Farmer Ln
276,36.742326,-76.234945,Shadow Brooke Dr/Willow Spire Arch
276,36.776993,-76.273825,Snow Goose Dr/Scaup Ct
246,36.799547,-76.439859,Barn Swallow Dr/Charlton Dr
