Estimated daily crossings,Latitude,Longitude,Name
216,47.134445,-119.289176,W Meridian Ave/N Clark Rd
390,46.966668,-119.037616,E 4th St/S Maple St/S Maple Ave
160,47.130972,-119.293737,Windrose Dr/Tamer Ln
246,46.737808,-119.906711,Portage Ave/Gort Rd/Rd 24 SW
185,47.152027,-119.319938,Crystal Ln NE/Cindi Ln NE
160,47.296095,-119.560366,Rd 14 NW/Wenatchee Ave NW
185,47.104608,-119.302761,W Peninsula Dr/S Archer St
160,47.942557,-119.000587,State Rte 155
216,47.941649,-119.003213,Midway Ave/Seaton St
276,47.232046,-119.844743,H St SE/5th Ave SE
216,47.103892,-119.831160,State Hwy 281A/State Hwy 281 N/State Hwy 283 N
246,47.102587,-119.279833,I- 90
185,47.088182,-119.125719,/I- 90
185,47.378655,-119.508327,Putter Rd NW/Saint Andrews Dr NW
185,47.121201,-119.264047,S Grand Dr/E Hill Ave
160,46.835146,-119.938686,State Rte 243
216,47.234016,-119.844748,5th Ave SE/F St SE
160,46.969900,-119.068378,/Rd 8 SE/Rd T SE
160,47.607884,-119.288842,/S 1st St
276,46.963720,-119.049568,W 7th St
160,46.899094,-119.661551,Rd 13 SW/Rd H SW
185,47.612367,-119.295473,W Walnut St
185,47.122830,-119.255553,Lakeland Dr/Raymond Dr
160,47.086248,-119.081383,I- 90
579,47.230696,-119.853340,Rd Q NW/J St SE
305,47.120178,-119.286416,W Cascade Ave/S C St
246,47.209695,-119.993760,/B St
968,47.131395,-119.270775,S Pioneer Way
160,47.615080,-119.288833,E Lewis St/W Lewis St/N 1st St
185,47.935104,-119.033355,Miller Ave
185,47.156002,-119.294105,Grape Dr
185,47.352137,-119.518931,State Hwy 28 W
362,47.128919,-119.280533,W 3rd Ave/S Beech St
185,47.136270,-119.327539,Clink Rd NE/Arrow St NE
216,47.103754,-119.631248,/I- 90
362,47.149428,-119.294063,N Grape Dr
185,47.168121,-119.236749,Lorri Ln
160,46.999327,-119.222476,/Rd 6 SE
160,47.130392,-119.294824,Wellington St
276,47.119894,-119.253890,July Ct/Greens Loop
185,47.241431,-119.853361,Rd Q NW/Central Ave N/D St NW
160,47.151569,-119.303245,Chera Pl NE
216,46.739519,-119.896179,E Cooper St/Boundary Ave
160,47.115386,-119.269075,Judith
185,46.735976,-119.900696,Second St/Selkirk Ave/2nd St
160,47.318832,-119.535362,Division Ave E/L St NE
160,47.118018,-119.255509,Lakeland Dr
160,46.835241,-119.938716,State Rte 243
276,47.224198,-120.001370,Yakima Ln
185,47.229431,-119.849947,K St SE/2nd Ave SE
276,47.150858,-119.297353,State Rte 17
216,47.148664,-119.302747,Star Dr NE/Dorothy St NE
390,46.965662,-119.039072,S Ash St/E 5th St/S Ash Ave
160,47.330368,-119.548923,C St NW
185,46.887995,-119.955165,State Rte 243
185,47.323351,-119.544202,2nd Ave NE/D St NE
160,47.325378,-119.567065,Sagebrush Flats Rd
160,47.245389,-119.848340,3rd Ave NE
160,47.176424,-119.321238,Nellis St
160,46.970516,-119.346424,O'Sullivan Dam Rd
216,47.182149,-119.316105,Dover St NE
246,47.118970,-119.259335,E St Helens Dr/S Tommy Dr
526,47.326156,-119.549662,C St NW/Frey Rd NW
305,46.967657,-119.037569,E 3rd St/S Maple Ave
160,47.130910,-119.292546,Sagebay Dr
216,47.940951,-119.003859,Van Tyne St/Spokane Way
276,47.234217,-119.856681,D St SW/2nd Ave SW
185,47.230472,-120.004034,Hwy 28 W
185,47.318926,-119.557710,3rd Ave SW/E St SW
160,47.343905,-119.528763,State Hwy 28 W
160,47.086049,-119.081383,S Frontage Rd E
185,47.226691,-119.854758,N St SW/1st Ave SW
185,46.903041,-119.620858,Cherry St NE
185,47.934981,-119.033845,/Miller Ave
362,47.242444,-119.848238,3rd Ave NE
160,47.137840,-119.297091,Abbey Rd
246,47.121698,-119.274371,S Division St/E Hill Ave
216,47.240533,-119.848248,3rd Ave NE/C St NE
276,47.121989,-119.287712,S B St/W Columbia Ave
160,47.213981,-119.243586,8.6 NE
185,47.128760,-119.263555,/S Coolidge St
216,46.965163,-119.037622,S Maple Ave
160,47.106274,-119.276778,E Bristlecone Ct
216,47.182192,-119.324307,College Pkwy NE/Randolph Rd NE/26th Ave NE
185,46.731141,-119.902515,7th St
185,47.936506,-119.002977,Weil Pl
305,47.145974,-119.276796,Wenatchee Dr NE
185,47.937870,-119.012693,/Grand Coulee Ave
246,47.119866,-119.272936,S Garden Dr/Grant St
160,47.228495,-119.868851,L St SW
305,47.233711,-119.849951,F St SE/Second Ave SE
160,46.967500,-119.341058,Highland Dr
185,46.966658,-119.117941,/State Rte 17 S
185,47.224909,-119.875095,Rd R NW
185,47.051812,-119.092470,Rd 2.7 SE
185,47.934159,-119.029055,Coulee Blvd/Coulee Ave
185,47.381587,-119.414461,C.6 NE
185,46.969735,-119.049070,1st/1st St/Grant Ave
160,47.116934,-119.365002,Mae Valley Rd NE
160,47.617270,-119.300057,Hwy 2 E
246,46.959707,-119.047776,/W 11th St
418,47.146604,-119.296269,N Buell Dr/W Bruce St
185,47.325147,-119.534639,3rd Ave NE
216,47.119130,-119.271466,E 11th Ave/S Skyline Dr
334,47.321111,-119.545258,Lincoln Ave/Nob Hill Dr
160,47.608320,-119.288846,S 1st St/W Lincoln St
216,46.906663,-119.627657,Ahlers Rd/Widmer Dr NE/Ahlers Ave N
246,47.108587,-119.277061,Venice Ct
160,47.628578,-119.282859,Fordair Rd NE/I- 8/38 Rd
276,47.962051,-118.986308,Stevens Ave
160,46.967741,-119.341053,Highland Dr
160,47.310558,-119.561737,11th St SW/D St SW
160,47.110499,-119.278361,Division St/S Division St/Eastlake Dr S
160,47.091084,-119.279287,Baseline 3
160,46.967830,-119.340990,Bayview Ave
305,47.149876,-119.293913,/Grape Dr NE
216,47.934621,-118.991640,/Roosevelt Dr
276,47.126598,-119.258180,Ewing Pl
246,46.960687,-119.048287,S Adams Ave/W 10th St
418,46.968708,-119.043556,W 2nd St/S Elm Ave
160,47.122824,-119.254552,Wilder St/Raymond Dr
160,47.131558,-119.290268,Sagebay Dr/N Manzanita St
185,47.075801,-120.028995,Community St/Boyer Ave
216,47.170111,-119.321394,Doolittle Dr/Cannon Ln
160,47.030900,-119.933955,I-90 W
160,46.998958,-119.062923,Rd 6 SE
185,47.116370,-119.244708,Nelson Rd NE
362,47.117852,-119.276694,Ashcroft Pl
362,47.231300,-119.869188,10th Ave SW
160,46.903078,-119.628411,Juniper Cir/Grape St/Ahlers Ave N
160,47.145131,-119.193004,Rd N NE
185,47.105103,-119.614670,N Frontage Rd W
276,47.134507,-119.296326,White Dr
216,47.141518,-119.268983,State Rte 17
305,46.965650,-119.036497,E 5th St
362,47.129306,-119.277162,E 4th Ave/S Division St/W 4th Ave
160,47.940092,-119.007514,Kimball St/Van Tyne St
216,47.132453,-119.295340,N Dale Rd/White Dr
160,47.612714,-119.297147,/7th St
160,47.146484,-119.276534,Wenatchee Dr NE
185,47.146499,-119.278284,Stratford Rd/Highland Dr NE
160,47.101623,-119.237553,Kittleson Rd NE
276,47.110734,-119.335535,Bluff West Dr//N Dove Ct
579,47.119726,-119.266069,S Juniper Dr/S Alderwood Dr
160,47.174035,-119.268268,/Rd 5.9 NE
334,47.116481,-119.257840,E Nelson Rd/S Clover Dr
185,46.900049,-119.624194,Camelia St NE/Catalpa Ave NE
160,47.116550,-119.315826,Melody Ln/Bond Rd NE/Melody Ln NE
276,47.307984,-119.562332,C St SW/13th Ave SW
216,47.934106,-119.030346,/Coulee Blvd
216,47.143396,-119.278321,N Stratford Rd/State Rte 17
276,47.130590,-119.259522,E Terrace Ave/Canterbury Ln
185,47.135020,-119.256598,Lasco Ln
160,46.746375,-119.919192,Hwy 243 S
185,47.231306,-119.999082,W 8/Hwy 28 W
160,47.199482,-119.363968,State Rte 17/Neppel Rd NE/Hwy 17 N
185,47.104044,-119.566292,I-90 W
160,47.227618,-119.849936,M St SE/2nd Ave SE
276,47.148185,-119.298429,N Mary St/W Gary St
160,47.929911,-119.042569,State St/Coulee Blvd
160,47.161300,-119.864246,Rd 5 NW/Q.5
160,46.920406,-119.481672,/Market Street Royal
246,47.128658,-119.271196,E 7th Ave
185,47.147926,-119.280640,Miller St/Parkway Dr NE
185,47.189744,-119.277868,Rd 7 NE/Moses Lake-Stratford Rd/Stratford Rd
216,46.734199,-119.903983,4th St
1200,47.101022,-119.245870,State Rte 17 N
185,47.940485,-119.004223,Continental Hts/Spokane Way
216,47.316703,-119.540991,1st Ave SE/G St SE
276,47.327447,-119.564923,Mocliff Rd/Statter Rd
445,47.325053,-119.550309,C St NW/4th Ave NW
246,47.220664,-119.994686,Sunserra Loop Rd
185,47.241140,-119.853365,Central Ave N
160,47.101156,-119.257377,Rd K NE
160,47.237672,-119.834203,10th Ave SE/A St SE
160,46.966799,-119.053337,S Harrison St/W 4th St
216,47.220661,-119.993596,Blue Heron NW/Cliff Rd NW
216,47.114366,-119.268038,Quintanilla Dr
526,47.112465,-119.268447,S Monroe St/Sharon Ave E
160,47.606443,-119.287477,W Arch St
390,47.131091,-119.267857,E Wheeler Rd/Laurel Dr
160,47.113338,-119.256859,State Rte 17 N
390,47.107753,-119.271641,Allen Ave
305,46.967656,-119.039046,E 3rd St/S Ash Ave
185,47.186036,-119.315661,Bolling St NE
160,46.677509,-119.919323,Summer Pl
334,46.963635,-119.036140,S Alder Ave/E 7th St
185,46.966660,-119.043873,/W 4th St
185,47.148502,-119.277334,Sagedale Rd NE
216,47.137861,-119.286795,N Clark Rd/W Loop Dr
160,47.320717,-119.548182,A St NE/1st Ave NE
185,47.316896,-119.551597,Nat Washington Way/Southeast Blvd/A St SE
246,47.160148,-119.312190,Patton Blvd
216,47.240511,-119.849974,2nd Ave NE/C St NE
216,47.141433,-119.268682,State Rte 17
160,47.085556,-119.298540,Park Pl SE/Goodrich Rd SE
160,47.304229,-119.561638,16th Ave SW
246,47.148500,-119.278083,Sagedale Rd NE
216,47.123390,-119.259538,S Evergreen Dr/E Lark Ave
276,47.117752,-119.257132,E Hayden Dr/S Clover Dr
185,47.239543,-119.853354,B St NE/Central Ave N/B St NW
334,46.732294,-119.906847,6th St/Portage Ave
185,46.675598,-119.907199,Brad Pl/Tradewind Way S
160,46.979193,-119.024555,Rd 6.9 SE
246,46.964651,-119.039075,/E 6th St/S Ash Ave
185,47.132323,-119.289991,N Grape Dr/Sagebay Dr/N Central Dr
605,46.961660,-119.046081,County Rd/W 9th St
160,47.164021,-119.250435,Rd 5 NE/Crystal Springs Pl NE
499,47.234028,-119.841176,F St SE/G St SE
185,47.237160,-119.855545,Division St W/1st Ave SW
185,47.146499,-119.278505,Highland Dr NE
246,47.244255,-119.845888,H St NE/Willow Ave NE
185,46.974155,-119.967220,I- 90
276,46.968701,-119.046465,W 2nd St
276,47.110789,-119.337715,Shipmaster Ct/Cove West Dr
305,46.968733,-119.048056,S Adams Ave/W 2nd St
160,46.899988,-119.621705,Camelia St NE/Beech Ave NE
160,47.150496,-119.290779,Butler Ln/Beacon Rd
216,46.945041,-119.961740,/I- 90
246,47.939625,-119.004958,Weil Pl
160,47.135969,-119.297322,Luta St
185,47.231661,-119.840160,Parkway Dr
526,47.326037,-119.549654,5th Ave NW/Frey Rd NW
185,47.220662,-119.992920,Red Hawk Ln NW/Cliff Rd NW
445,46.969704,-119.045871,1st St/County Rd
472,47.120190,-119.287742,W Columbia Ave/S C St
160,47.095139,-119.315882,Everett Pl/Bayside St
160,47.189614,-119.238143,Rd 7 NE/K 7
276,47.116506,-119.270866,S Jefferson Ave/E Nelson Rd
185,47.128327,-119.281780,S Cedar St/W 3rd Ave
216,46.964636,-119.035280,Pine Ave/E 6th St
216,46.970822,-119.042070,N Oak Ave/Railroad Way
390,47.232113,-119.867048,9th Ave SW/H St SW
185,46.834925,-119.931435,Tacoma St/1st Ave
160,47.232640,-119.976176,Rd 10 NW
160,46.946013,-119.472185,/Rd A SE/A Rd SE
160,47.103598,-119.300288,W Lakeside Dr/Archer St S
246,47.133239,-119.271874,N Elder St/E 3rd Ave
813,47.131047,-119.271179,E 5th Ave
160,47.154241,-119.356571,Westshore Dr NE/Melby Way
216,46.943968,-119.964636,I- 90
185,47.232136,-119.863994,H St SW/7th Ave SW
160,47.327999,-119.544572,A St NW
390,47.325376,-119.552599,/4th Ave NW
160,47.325210,-119.560302,Roosevelt Blvd/Maringo Rd
160,46.962539,-119.056777,8th St
160,47.062884,-119.939699,Rd U SW
246,47.103932,-119.619972,I-90 W
246,47.102512,-119.321728,I-90 E
246,47.057042,-119.896840,I- 90/Rd S SW
362,46.967657,-119.036769,/E 3rd St
762,47.231217,-119.853335,Rd Q NW/I St SW
160,46.821658,-119.922221,3rd Ave SW/Morrison St
185,47.116406,-119.250485,Nelson Rd NE
185,46.774280,-119.927278,/Hwy 243 S
185,47.162281,-119.328109,Lenae Ln NE
276,47.940955,-119.006259,Midway Ave
185,47.087093,-119.230026,Potato Frontage Rd SE/Baseline Rd E
216,47.141480,-119.268846,State Rte 17
334,47.326934,-119.548885,C St NW/6th Ave NW
160,47.615079,-119.287596,E Lewis St/N McEntee St
216,47.087398,-119.116769,I- 90
246,47.110261,-119.300619,S Barbara Ave/W Basin St
418,47.119219,-119.274388,E 11th Ave/S Division St
185,47.133415,-119.325920,Valley Rd NE/Scott Rd NE
276,47.114016,-119.346783,Fairway Dr NE/Quail Dr NE
160,47.932373,-118.983569,State Rte 174/Granger Ave NE
185,47.546613,-119.455660,Marmot Cir/Sunset Dr
160,47.199143,-119.678398,Rd 7.6 NW/State Hwy 283 N
160,46.926183,-119.046658,Rd U SE/Rd 11 SE
526,47.104786,-119.270492,Leanne Ave
246,47.146610,-119.294185,N Grape Dr/W Bruce St
216,47.115183,-119.257889,S Clover Dr
334,47.234639,-119.842657,D St SE/6th Ave SE
185,47.116537,-119.289100,S Milwaukee Ave/W Ivy Ave
216,47.093250,-119.318246,Glenmore Dr/Waterford Ln
305,47.117477,-119.298806,W Sunset Dr/W Lee St
160,47.136017,-119.299508,Luta St
160,47.613276,-119.290204,N 2nd St/W Locust St
185,46.678064,-119.920086,Summer Pl
185,46.970820,-119.043607,Railroad Way/N Elm Ave
276,47.117224,-119.254164,E Oasis Cir
160,47.234067,-119.858320,3rd Ave SW/D St SW
276,46.966747,-119.052278,W 4th St
185,47.133848,-119.175399,Front St NE/4th St NE
160,46.740347,-119.906772,E Saddle Mt Dr/N Portage Rd/Portage Ave
390,47.099905,-119.244715,State Rte 17 N/
216,47.936915,-119.003412,Weil Pl
246,47.108425,-119.305778,W Broadway Ave
160,47.190452,-119.768189,Adams Rd N/Rd 7 NW
334,46.966743,-119.051862,W 4th St
185,47.109479,-119.337352,Edwards Dr NE
160,46.971203,-119.365456,Rd F SE
160,47.083053,-119.292434,Benjamin Way SE/Vernal Ave SE
216,47.319982,-119.549697,Division Ave E/A St SE
276,47.116506,-119.270593,E Nelson Rd
160,47.385138,-119.488842,/Aster St S
246,46.968690,-119.045893,County Rd/W 2nd St
185,47.311729,-119.538835,Ivy St SE
185,47.104390,-119.349393,N Frontage Rd E/Bogey
276,47.132371,-119.291808,Gold Cup Ct
185,46.683570,-119.919823,Cherry Ln
160,47.113193,-119.342423,Hansen Rd
160,47.232709,-119.184851,N 4/Rd 10 NE
276,46.967723,-119.048066,3rd St/S Adams Ave
305,46.960690,-119.046712,/W 10th St
246,47.935499,-118.997510,Bowen St/Garner Ave
185,47.929504,-119.035662,School Ave/Park Ave
216,47.094223,-119.237995,State Rte 17 N
160,47.182153,-119.315661,Dover St NE
216,47.101657,-119.318784,I- 90
246,46.683731,-119.921168,Cherry Ln/Desert Aire Dr
246,47.100673,-119.318889,W Lakeshore Dr
185,47.942407,-119.003245,Fortuyn Rd/2nd St
216,47.115007,-119.303824,W Marina Dr
185,47.103977,-119.449469,I- 90/Rd B NE
160,47.932047,-119.018258,Wenatchee Ave/Spokane Blvd
216,47.220924,-119.991869,Riverview Way
216,47.101871,-119.270512,Rd 1 NE
160,47.094015,-119.193620,S Frontage Rd E
160,47.230331,-119.869254,Birch St SW
216,47.104758,-119.303868,W Texas St
160,47.102244,-119.556479,/C-nw Rd
185,47.133064,-119.297287,Blanchette Dr
246,46.736012,-119.906647,Portage Ave/2nd St
305,47.103383,-119.303889,W Peninsula Dr
216,47.111829,-119.300898,/W Broadway Ave
185,47.610674,-119.294345,N 5th St
160,47.887980,-119.080732,Coulee Blvd
160,46.971622,-119.035932,Evan Hall St
185,46.682361,-119.920152,Apple Pl
160,47.087077,-119.107940,N Frontage Rd/Rd R NE
216,47.163186,-119.313648,Patton Blvd
362,47.149676,-119.293966,Grape Dr NE
658,47.083451,-119.860053,Hwy 281 N/Frontage St/Royal Anne Dr
216,47.149300,-119.267955,/Orchard Dr NE
216,46.734201,-119.904388,4th St/
216,47.173829,-119.322535,Moses St/Mather Dr
362,47.132833,-119.267578,E 5th Ave/N Block St
185,47.230324,-119.848214,3rd Ave SE/J St SE
185,47.100662,-119.327390,Laguna Dr
390,47.232880,-119.846471,4th Ave SE/G St SE
160,47.125132,-119.267828,Laurel Dr
185,47.933475,-118.992261,Knute St/Rowland Ln
160,47.099521,-119.304831,W Lakeside Dr/S Wanapum Dr
160,47.176234,-119.783999,Rd 6 NW/Rd M 7 NW
246,47.148903,-119.294611,/W Gary St
216,46.959718,-119.049396,W 11th St/Grant Ave
185,47.139216,-119.308969,/Airway Dr NE
160,47.105722,-119.334603,Dusty St/Oklahoma
160,47.191374,-119.299351,Graham St
185,47.088109,-119.120792,N Frontage Rd
305,46.908964,-119.622087,Hargraves Ave NE
160,47.146806,-119.853496,Hwy 281 N/Rd 4 NW
185,46.679819,-119.925221,Lake Pl
185,47.308416,-119.560480,State Rte 282/Basin St SW
160,47.225811,-119.853360,Rd Q NW/O St SW
160,47.931195,-119.019307,Lakeview Pl
216,47.326461,-119.564833,Statter Rd
185,46.969631,-119.026954,Rd 8 SE
246,46.890428,-119.602485,Hwy 26 W
160,46.941129,-119.115076,/Rd 10 SE
216,47.085444,-119.020820,/N Frontage Rd
305,47.103794,-119.614670,I- 90
160,47.103425,-119.768774,I- 90/Rd M NW
160,47.591772,-119.398716,/Park Lake Rd NE
160,47.229343,-119.869120,10th Ave SW
246,47.932530,-119.044085,Sunny Dr
305,46.674884,-119.914021,Roosevelt Ln
276,47.104015,-119.334637,I-90 E/Oklahoma
552,47.121150,-119.267630,S Pioneer Way/E Hill Ave
160,47.276452,-119.579683,RR Ave/State Hwy 28 W
246,47.107416,-119.303243,S Burress Ave/W Spruce St
160,47.104063,-119.345055,I-90 E/Hansen Rd
185,47.305171,-119.555010,C-nw Rd/Rd 14.6 NW
160,47.240336,-119.296068,Idano Ln
160,47.086599,-119.081384,N Frontage Rd
160,47.310933,-119.534122,5th Ave SE/L St SE
160,47.164999,-119.323202,Schilling Dr/McConnell Dr
246,46.966666,-119.045057,W 4th St/S Walnut Ave
246,46.963684,-119.046666,/W 7th St
160,46.969660,-119.033521,E 1st St
499,47.121545,-119.257116,E Hill Ave/S Clover Dr
305,46.959703,-119.047211,Washington Ave/W 11th St
160,47.608701,-119.288849,/S 1st St
276,47.119600,-119.256003,Greens Loop
305,46.965650,-119.036118,S Alder Ave/E 5th St
276,47.145789,-119.276531,Kinder Rd NE
390,46.965662,-119.039709,/E 5th St
246,47.325177,-119.540963,3rd Ave NE/G St NE
216,47.101742,-119.269316,Rd 1 NE
160,47.082639,-119.295117,Boylston Dr/Viewcrest Rd
276,46.961694,-119.049295,W 9th St/Grant Ave
160,47.312559,-119.559263,10th Ave SW/C St SW
160,47.287387,-119.571722,Royal Cir
185,47.186042,-119.316527,22nd Ave NE/Bolling St NE
390,46.969679,-119.040574,S Main Ave/E 1st St/W 1st St/N Main Ave
216,47.121229,-119.283715,W Lakeside Dr/W Rose Ave
185,47.093836,-119.312656,Bayside St/W Peninsula Dr
160,46.969652,-119.034648,E 1st St/Pine Ave/Railroad Ave
160,47.013622,-119.033620,Rd 5 SE
216,47.127041,-119.258544,Ewing Pl/S Grand Dr
185,47.087898,-119.290246,Baseline .1 NE
246,47.132419,-119.270989,E 4th Ave/N Elder St
160,47.289491,-119.575524,2361 Loop
246,47.121984,-119.285058,W Gem Ave/S B St
418,47.123801,-119.287705,W Columbia Ave/W 4th Ave/S A St
160,47.140524,-119.326033,Valley Rd NE/Stanley Dr NE
160,47.277172,-119.579985,State Hwy 28 W/State Rte 28
185,47.230318,-119.851656,1st Ave SE/J St SE
160,47.025591,-119.967959,Old Vantage Hwy/Vantage Rd
246,47.308338,-119.563355,13th Ave SW/D St SW
246,46.962816,-119.042720,/W 8th St
160,47.120834,-119.323816,Brunch Rd NE/Gladys Ln NE
305,46.965132,-119.039074,/S Ash Ave
185,47.898071,-119.073366,Lake View Ln
390,47.941955,-119.005212,Nelson Rd
160,47.113645,-119.294480,W Peninsula Dr/S Locust Ln
246,47.113658,-119.346866,Quail Dr NE
305,47.103279,-119.303986,W Peninsula Dr/Winona St
160,47.270405,-119.854894,Rd Q NW
160,47.136272,-119.328902,Clink Rd NE/Bow St NE
246,47.073549,-120.030725,Hunter Ave SW
305,47.232058,-119.846467,4th Ave SE/H St SE
185,47.939977,-119.010787,Colfax St
185,47.114707,-119.273177,S Horizon St/S Skyline Dr
160,47.142355,-119.299506,N John St
185,47.323343,-119.557462,G St NW/1st Ave NW
160,47.146567,-119.311373,Airway Dr NE/Hillcrest Dr NE
160,47.115400,-119.248164,E Wildcat Ln/Hamilton Rd NE
246,47.111305,-119.301663,/W Broadway Ave
216,47.105526,-119.303167,W Texas St
472,47.121429,-119.255958,Megan Dr/Lakeland Dr
185,47.101831,-119.262798,Kittleson Rd
216,47.101070,-119.982512,Rd 1 NW/Rd W NW
160,47.326951,-119.545289,A St NW/7th Ave NW
185,47.934850,-118.992704,/Bachelor Sq
216,47.112495,-119.275313,Legend Ln/Sharon Ave E
216,47.137478,-119.266103,Broadway Extended NE
276,47.132178,-119.291415,Windrose Dr/Gold Cup Ct
216,47.939150,-119.004536,Johnson St
305,47.127534,-119.278264,W 5th Ave/S Beech St
246,47.110315,-119.335078,Bluff West Dr/Swan Ln
160,47.080913,-120.028280,River Dr SW/Sand St
276,46.737801,-119.908854,Mansion St/Rd 24 SW
185,47.318012,-119.544213,Crest Dr/D St SE
185,47.319318,-119.558882,F St SW/3rd Ave SW
216,47.109202,-119.270468,Leanne Ave
246,47.086996,-119.086983,Rd S NE
160,47.369662,-119.501111,/Lakeview Dr NW
160,47.130521,-119.171324,Rd 3 NE
185,47.116504,-119.279588,S Lakeway Dr/W Nelson Rd
160,47.933403,-119.018177,Radio Rd/Spokane Blvd
526,46.968690,-119.042732,W 2nd St
160,47.184359,-119.259939,Grace Loop NE/Grace Ln NE
334,47.149294,-119.294128,N Grape Dr
160,46.998840,-118.981970,Rd X SE/Rd 6 SE
185,46.969734,-119.051095,S Madison Ave/1st St/State Rte 170
160,47.156185,-119.239211,Parker Dr NE
185,47.113482,-119.348510,Partridge Dr/Eagle Dr NE/Partridge Dr NE
246,47.128000,-119.277330,W 5th Ave/S Ash St
160,47.312676,-119.536685,3 Ave SE
160,47.167743,-119.319551,Halsey Dr/Travis Dr
276,47.155016,-119.307686,State Rte 17
160,47.115666,-119.248959,S Vandal Ct
185,46.998934,-119.045822,Rd U SE/Rd 6 SE
185,47.137864,-119.302176,Mississippi Dr/Tennessee Dr
185,47.111851,-119.298874,W Basin St/S Sycamore Ln
160,47.929267,-119.040173,Palmer Ave/
216,47.083889,-119.859403,/Frontage St
160,47.094630,-119.288082,I.6 NE/Morgan Rd NE
276,46.967282,-119.034657,Pine Ave
160,47.087313,-119.318617,S Lystil Ln/W Peninsula Dr
185,47.124114,-119.349195,Winesap Rd NE/Edwards Dr NE
160,47.355947,-119.514374,/State Hwy 28 W
216,47.180479,-119.315351,21st Ave NE
185,47.156793,-119.309904,Arlene Ln/Owens Rd
160,47.085662,-119.288638,Albert Way
160,47.124976,-119.266187,E Olive Ave/S Juniper Dr
160,47.113920,-119.291761,/W Lakeside Dr
334,46.965671,-119.045073,W 5th St/E 5th St/S Walnut Ave
160,47.300089,-119.536657,State Rte 282/B 3
472,47.123988,-119.290333,/W 3rd Ave
216,47.072831,-120.028416,Boyer Ave
185,46.968739,-119.050134,Jackson Ave/W 2nd St
472,47.121255,-119.256809,State Rte 17 N
185,47.327502,-119.562898,Mocliff Rd/Columbia Rd
160,47.239608,-119.848240,3rd Ave NE/B St NE/Third Ave NE
390,46.962674,-119.046058,County Rd/W 8th St
160,46.898867,-119.790490,Rd 13 SW/Rd N SW
246,47.384801,-119.488852,Aster St S
160,47.096125,-119.308310,W Lakeside Dr
160,47.219904,-119.992165,Eagle Ln NW
305,47.211595,-119.994176,1st St/A St
246,47.130149,-119.291602,Larkspur Dr/Edgewater Ln
160,47.943999,-119.003249,A St/2nd St
246,47.103963,-119.620025,I-90 W
216,47.096052,-119.214979,S Frontage Rd E/Rd M NE
160,46.735553,-119.627043,State Rte 24/Rd 24 SW
579,47.226236,-119.848217,/O&m Rd
160,46.683151,-119.913653,Desert Aire Dr/Sunshine Cir W
185,47.101255,-119.299735,I- 90
160,47.248464,-119.855840,Rd 11 NW
362,46.967660,-119.043869,/W 3rd St
160,47.375171,-119.495447,Adrian Ave NW/Adams St NW
160,46.960725,-119.051326,10th St/S Madison Ave
160,47.106425,-119.336895,Montana St/Windy St
160,47.116509,-119.274528,E Nelson Rd/S Division St/W Nelson Rd
185,47.106860,-119.273705,E Tanglewood Dr
185,47.122786,-119.294989,/W Marina Dr
160,47.160190,-119.240504,/Rd 5 NE/Joey Rd NE
305,47.331060,-119.566772,Jaffa Ct
216,47.232055,-119.848209,3rd Ave SE/H St SE
185,47.160630,-119.321794,State Rte 17
160,46.654392,-119.893393,/Damn Rd
185,47.184106,-119.316504,22nd Ave NE/Chanute St NE
160,47.159218,-119.240491,Bluff Dr NE/Joey Rd NE
305,46.969285,-119.039048,/S Ash Ave
246,47.120839,-119.293142,W Broadway Ave
160,47.091686,-119.166950,S Frontage Rd E
185,47.109238,-119.297039,S Barbara Ave//W Lakeside Dr
160,47.614218,-119.292959,N 4th St/W Washington St
246,46.968779,-119.051832,W 2nd St
185,47.116379,-119.246369,Nelson Rd NE
160,47.106611,-119.363568,Rd F NE
418,47.235395,-119.848219,Third Ave SE/C St SE
334,46.967666,-119.045046,W 3rd St/S Walnut Ave
216,47.119101,-119.294248,S Western Ave/W Broadway Ave
276,46.735088,-119.906598,3rd St/Portage Ave
160,47.149917,-119.320630,Ottmar Rd NE
185,47.116502,-119.278514,W Nelson Rd/Eastlake Dr S
216,47.136547,-119.292179,N Washington St
160,47.141482,-119.286672,W Village Ave/N Evelyn Dr
216,47.127055,-119.260892,E Plum St/S Hawthorne Dr
362,46.965674,-119.043597,/W 5th St/S Elm Ave
160,47.351759,-119.277118,Rd 18 NE/Moses Lake-Stratford Rd
185,47.125770,-119.257102,S Fairbanks Dr/S Clover Dr
160,47.354297,-119.511919,Rd A NW
160,47.156886,-119.304836,Arlene Ln/Ray Rd NE
246,47.931838,-119.038461,Stevens Ave/Western Ave
185,47.545794,-119.457266,/Moore Rd NE
185,47.101984,-119.278853,Rd 1 NE
160,47.229429,-119.843956,K St SE/Marginal Way
185,47.327199,-119.545115,A St NW
246,46.943658,-119.966061,I-90 W
445,47.225616,-119.997129,Canyon Dr NW
160,47.289392,-119.575100,/2361 Loop
216,47.144028,-119.328728,Bertram Way NE/Evans Ln NE
160,47.073336,-119.876014,Rd R SW
305,47.103969,-119.614671,I-90 W
246,47.084922,-119.861384,Hwy 281 N/I- 90
185,47.115037,-119.300349,W Fern Dr/W Crouse St
216,47.090675,-119.235030,Lynn Rd NE
160,47.150330,-119.314626,Airway Dr NE
160,47.317110,-119.555975,C St SW/4th Ave SW
160,47.136008,-119.299371,Luta St
185,47.174632,-119.321050,Mather Dr
160,47.307197,-119.540096,Nat Washington Way/Southeast Blvd
185,47.231230,-119.999223,Crescent Bar Rd NW/Hwy 28 W
160,47.150494,-119.298397,N Mary St/W Market St
160,47.610163,-119.287428,E Douglas St/S McEntee St
276,47.120170,-119.285073,W Gem Ave/S C St
305,47.103777,-119.334621,Oklahoma/Prichard Rd
185,47.229415,-119.851653,K St SE/1st Ave SE
305,47.103907,-119.334630,I- 90/Oklahoma
160,46.862216,-119.475308,Rd A SE
185,47.612707,-119.295728,/N 6th St
160,47.103735,-119.257309,Yonezawa Blvd/Rd K NE
276,47.184105,-119.323952,College Pkwy NE/Chanute St NE
276,47.111388,-119.335551,Bluff West Dr/Cove West Dr
160,46.963689,-119.047117,Washington Ave/W 7th St
160,47.057119,-119.194006,State Rte 17 S/Rd N SE
185,47.221643,-119.861509,T St SW
160,47.103592,-119.770109,/I-90 W
160,47.141857,-119.326005,Konishi Rd NE/Thayer Rd NE
185,47.383660,-119.447626,Rd 20 NE
160,47.935679,-119.018993,View Pl
160,47.099123,-119.331323,Sandalwood Pl/Laguna Dr
160,47.328918,-119.559249,Patrick Rd/S Line Rd
631,47.121226,-119.266790,S Juniper Dr/E Hill Ave
246,47.072090,-119.211678,State Rte 17 S/Rd 1 SE
216,47.116506,-119.273168,E Nelson Rd/S Skyline Dr
362,47.171916,-119.321988,Lowry St
216,47.314433,-119.542078,F St SE/2nd Ave SE
160,47.123805,-119.320984,Grove Rd NE/Valley Rd NE
160,47.274181,-119.661914,Rd H NW
160,46.903424,-119.623276,/Beech Ave NE
160,47.602135,-119.373687,State Rte 17 N
160,47.031209,-119.943312,/Silica Rd
160,47.616002,-119.288298,N 2nd St/Fir St
160,47.228417,-119.851689,1st Ave SE/L St SE
160,47.166624,-119.237121,Ridgeview Dr Loop NE/Lorri Ln
305,46.966708,-119.048099,W 4th St/S Adams Ave
160,47.123781,-119.281765,W Lakeside Dr/S A St
160,47.241902,-119.851199,E St NE/1st Ave NE
216,46.879326,-119.531125,A 7/Rd A.7/Crook Ln
216,47.316704,-119.541552,/1st Ave SE
160,46.736838,-119.896091,Boundary Rd/1st St/Boundary Ave
160,47.147199,-119.356482,Murray Way NE
276,47.107936,-119.272605,Stirling/Trout Ave
160,46.736311,-119.903730,/S Columbia Ave
160,47.052780,-119.902489,S Frontage Rd W
160,47.316927,-119.551688,Southeast Blvd
216,47.227609,-119.858721,3rd Ave SW/M St SW/Third Ave SW
362,47.112486,-119.273192,S Skyline Dr/Sharon Ave E
246,47.140650,-119.286116,W Crest Dr/N Evelyn Dr
160,47.166592,-119.237165,Lorri Ln
276,46.964093,-119.042153,S Oak Ave
160,46.900240,-119.631958,Royal Ave NW/Camelia St NW
185,47.164137,-119.238708,Aaron Pl NE
216,47.114852,-119.297268,S Locust Ln/W Broadway Ave
276,47.136569,-119.280211,W Ridge Rd/Knolls Vista Dr
185,47.103323,-119.661914,S Frontage Rd W/Rd H NW
185,47.313433,-119.542075,F St SE/F Cir
605,47.327170,-119.549656,6th Ave NW/Frey Rd NW
334,47.120521,-119.264653,S Grand Dr/E Ball Ct
185,46.964660,-119.037629,E 6th St/S Maple Ave/Maple Ave
216,46.945107,-119.961656,I- 90/Ramp
185,47.939291,-119.004010,Johnson St/Spokane Way
246,47.119462,-119.253914,July Ct
185,47.101831,-119.318127,State Hwy 171
246,46.963716,-119.048193,W 7th St/S Adams Ave/7th St
185,47.179630,-119.332877,/Castle Dr
246,47.119899,-119.252276,Greens Loop/June Dr
160,47.132137,-119.286848,W Northshore Dr
216,47.612343,-119.291574,N 3rd St/W Walnut St
216,47.148195,-119.299489,Paxon Dr/N John St/W Gary St
160,47.322425,-119.560432,Abel Rd/Cyrus Rd
246,47.184106,-119.323475,Chanute St NE
185,47.214416,-119.251074,Rd K NE
160,47.104125,-119.347346,I-90 E
362,47.320157,-119.550196,Division Ave E/A St NW/Division Ave W/A St SW
216,47.304763,-119.563134,Basin St SW/16th Ave SW
390,46.966733,-119.050442,/W 4th St
276,47.148147,-119.294169,N Grape Dr/W Charlotte St
160,46.964747,-119.052322,W 6th St/Madison St
160,47.249257,-119.692979,Rd I.5 NW/State Hwy 28 W
185,47.223622,-120.001693,Yakima Ln/Yakima Ct
246,47.106915,-119.302491,S Burress Ave/W Neppel St
160,47.325009,-119.565923,Sagebrush Flats Rd
160,47.232736,-119.896605,Rd S NW/Hwy 28 W
216,47.150706,-119.252933,Rd K.2 NE
246,47.943169,-119.006215,4th St//Burdin Blvd
160,47.153102,-119.320657,Ottmar Rd NE/Dick Rd NE/Cindi Ln NE
276,47.324073,-119.551014,C St NW/3rd Ave NW
160,47.929945,-119.035066,Park Ave/Stevens Ave
246,47.145831,-119.294203,N Grape Dr/Central Dr/N Central Dr
276,47.104453,-119.268739,Perch Ave
185,47.931120,-119.038451,School Ave/Western Ave
160,46.824156,-119.928987,Shore Dr/B St
216,47.389008,-119.491618,Ash St N/Ash St S/Main Ave W
216,47.119630,-119.257118,S Evergreen Dr/S Clover Dr
160,46.736534,-119.746290,Rd L SW
246,46.963713,-119.040099,/Hillside Dr
160,47.932776,-118.984768,State Rte 174/E Grand Coulee Ave
246,47.101311,-119.300400,I-90 E
246,46.900282,-119.639299,Calla St
362,47.118555,-119.263006,S Grand Dr/S Alderwood Dr
362,47.234013,-119.846485,4th Ave SE/Fourth Ave SE/F St SE
160,47.113909,-119.352895,1.8 NE
185,47.082428,-119.289836,Vernal
160,47.103957,-119.491965,I- 90
160,47.087116,-119.238417,Baseline East Rd/Baseline Rd E
246,47.102817,-119.323630,I- 90
185,47.309621,-119.561173,C St SW/12th Ave SW
160,47.323412,-119.543101,2nd Ave NE/E St NE
276,47.104992,-119.272133,Allen Ave
160,47.085173,-119.016284,I-90 E
160,47.235614,-119.611453,Rd 10 NW/Rd E.7 NW
160,47.101954,-119.284915,Rd 1 NE
276,47.232547,-119.841019,Parkway Dr/H St SE
276,46.985470,-119.045823,Rd U SE/Rd 6.9 SE
305,46.732296,-119.906536,6th St/Portage Ave
246,46.962716,-119.048227,S Adams Ave/W 8th St
246,47.309782,-119.541415,Nat Washington Way/6th Ave SE/Southeast Blvd
185,47.086885,-119.098973,N Frontage Rd/
185,47.100808,-119.326529,Laguna Dr
160,46.875910,-119.496111,Rd 14.5 SE/Rd 14.5 SW
185,47.315517,-119.560321,Parkway Blvd/7th Ave SW
185,47.009535,-119.954920,I-90 W
276,47.132400,-119.291198,W Windrose Dr/Windrose Dr
185,47.934025,-119.018090,Spokane Blvd
185,47.939969,-119.010278,Midway Ave
160,46.911430,-119.046480,Rd U SE/Rd 12 SE
160,47.088711,-119.129390,Rd Q NE
246,47.960780,-118.986948,State Rte 155
185,47.943904,-119.005992,A St
160,47.935477,-118.993901,Mead Ave
160,47.325309,-119.556427,G St NW/3rd Ave NW
216,47.937105,-119.002708,Spokane Way/Weil Pl
362,46.964695,-119.047085,Washington Ave/W 6th St
216,46.684024,-119.920491,Desert Aire Dr/Date Pl
185,47.091003,-119.849396,I-90 W
334,47.125127,-119.285645,S Gumwood St/W 4th Ave
160,47.212931,-119.853380,Hwy 281 N
160,47.154497,-119.278206,Rd J NE/Stratford Rd
305,46.966663,-119.039052,S Ash St/E 4th St/S Ash Ave
160,47.087259,-119.284016,Young Rd NE/Baseline Rd E
334,47.234003,-119.849946,E St SE/Second Ave SE
160,46.673884,-119.909639,Thunderbird Way W/Bryce Pl
216,47.105000,-119.333078,/Edwards Dr NE
160,47.116858,-119.355322,Mae Valley Rd NE
246,47.133603,-119.299495,/Century St
445,46.969307,-119.042110,S Oak Ave
160,47.095767,-119.312150,Glenmore Dr/Harborview St
276,47.104220,-119.832396,State Hwy 281 N/Rd 1 NW
305,47.171756,-119.321705,Lowry St
185,47.237202,-119.853342,Division St E/Central Ave
658,47.116501,-119.264094,E Nelson Rd/S Pioneer Way
160,47.087841,-119.555949,Rd C SW
472,46.969679,-119.041294,W 1st St
160,47.610680,-119.290214,/S 2nd St
305,47.101037,-119.312482,Driggs Dr
160,47.164494,-119.322863,Forrestal Ln/McConnell Dr
160,46.965762,-119.053363,W 5th St/S Harrison St/5th St
185,47.102261,-119.285661,I- 90
216,47.243474,-119.851288,G St NE/1st Ave NE
185,47.129353,-119.256809,State Rte 17 N/State Rte 17
160,47.145240,-119.193002,Rd N NE
305,47.108127,-119.296943,S Barbara Ave/W Lakeside Dr
160,46.898977,-119.739658,Rd 13 SW
216,47.182168,-119.313359,/Randolph Rd NE
472,46.968669,-119.039701,E 2nd St
160,46.920076,-119.479827,1st Avenue Royal/Royal Camp Rd SE
160,47.159512,-119.309877,Owens Rd/Jean Rd NE
160,47.086846,-119.294716,Viewmont Dr SE/Goodrich Rd SE
185,47.389010,-119.490948,/Main Ave W
216,47.243395,-119.844670,Rocky Ave NE/G St NE
246,47.116489,-119.260305,E Nelson Rd
246,47.116401,-119.249717,Nelson Rd NE
185,47.122648,-119.295094,W Marina Dr
216,47.123982,-119.264270,E Olive Ave/S Hawthorne Dr
185,47.187668,-119.352599,/Rd 6.7 NE
526,47.103006,-119.317300,W Marina Dr
160,47.161724,-119.297255,Loring Dr/Rd 5 NE/Harris Rd
160,47.158602,-119.304809,Ray Rd/Vince Rd NE
658,46.964702,-119.048165,S Adams Ave/W 6th St
160,47.223123,-119.859267,4th Ave SW/R St SW
334,47.149527,-119.294016,N Grape Dr/State Rte 17/Grape Dr NE
216,47.240009,-119.848243,3rd Ave NE
185,47.104145,-119.363501,I-90 E
185,46.869111,-119.505222,Hwy 26 W/Division 5
216,47.112487,-119.274290,Dynasty Dr/Sharon Ave E
334,46.967658,-119.043609,W 3rd St/S Elm Ave
185,47.079000,-119.866296,S Frontage Rd W/Frontage St
185,47.104657,-119.314893,W Marina Dr/S Interlake Rd
246,47.133606,-119.299960,Century St
160,46.964738,-119.051176,W 6th St
305,47.100738,-119.312748,I-90 E
362,47.224414,-119.996102,Sunserra Loop Rd NW/Red Cliff Dr
160,46.983880,-119.051588,Rd 7 SE
216,47.232056,-119.842806,H St SE/6th Ave SE
160,47.122472,-119.263947,S Grand Dr/E Cherry Ave
276,47.122804,-119.253524,Blessing St/Raymond Dr
276,47.137986,-119.303319,Tennessee Dr/Kentucky Dr
160,47.113643,-119.292047,W Lakeside Dr/S Poplar St
305,47.312207,-119.544227,3rd Ave SE/D St SE
246,47.102764,-119.322756,I-90 E
160,47.084755,-119.857169,Royal Duke Ave
390,47.126866,-119.282107,Dogwood St/W 4th Ave
499,47.129160,-119.282686,S Cedar St/W Broadway Ave
185,47.944121,-119.000513,Division St/A St
305,46.964653,-119.041350,/W 6th St
160,47.154235,-119.256767,Gamble Dr NE/Rd K NE
216,47.105383,-119.304596,Wall St
216,47.304826,-119.563089,Basin St SW/16th Ave SW
185,47.134761,-119.306870,N Crestview Dr/West Virginia St
160,47.179948,-119.322620,Patton Blvd NE
305,46.962228,-119.035275,/Pine Ave
160,46.901790,-119.639373,Grape St/Hemlock Ave NW
390,46.959673,-119.046126,County Rd/W 11th St
160,47.281235,-119.555225,Dodson Rd N
445,47.121256,-119.255923,Lakeland Dr
160,47.171018,-119.328190,Arlington Dr
736,47.325379,-119.551583,4th Ave NW/D St NW
246,47.129600,-119.274077,E 5th Ave/S Balsam St
160,47.232429,-119.920934,/T 3/Hwy 28 W
305,46.900026,-119.638227,/Hemlock Ave NW
362,47.130581,-119.255826,Lasco Ln
185,47.102306,-119.268372,Kittleson Rd
160,47.084986,-119.290397,Albert
160,46.971930,-119.761206,Adams Rd S
160,46.919347,-119.483304,Loop Dr
160,47.310548,-119.562666,11th St SW
160,47.133361,-119.292964,N Dale Rd/N Grape Dr
276,47.110466,-119.335261,Bluff West Dr
305,47.169184,-119.325648,Doolittle Dr/Schilling Dr/Lindberg Ln
185,47.161697,-119.325942,McLaughlin Rd NE
216,47.178332,-119.322475,Patton Blvd NE/Craig
334,47.099119,-119.246371,I- 90
276,46.968689,-119.045031,W 2nd St/S Walnut Ave
160,47.084732,-119.016931,/S Frontage Rd E/Baseline E
160,46.683393,-119.914032,Desert Aire Dr/Desert Aire Pl
160,47.936580,-118.983673,Eden Harbor Rd
276,47.073972,-120.029783,Chukar Pl
185,47.156772,-119.278183,Stone Rd NE/Stratford Rd
216,47.106849,-119.279685,Belair Pl
445,47.127387,-119.286278,Fir St/W Broadway Ave
246,46.734175,-119.902229,4th St/Ellice Ave
160,46.966728,-119.049176,W 4th St/S Grant
160,46.960531,-119.039376,Claremont Ave
160,47.178424,-119.321635,Turnkey Rd NE
472,47.235270,-119.853337,Central Ave S/C St SW/Central Ave
185,47.104774,-119.359710,Nanto Rd NE
185,47.100116,-119.982550,Rd W NW
160,47.152377,-119.282690,Apple Rd/Apple Rd NE
160,47.127194,-119.269012,S Pioneer Way/E Lark Ave
160,47.102159,-119.918421,Rd T NW/Rd 1 NW
445,47.111731,-119.258430,S Pioneer Way/Colonial Ave
362,46.966662,-119.039764,/E 4th St
160,47.160822,-119.352879,Westshore Dr NE
736,47.132003,-119.274381,3rd Ave/S Chestnut St/E 3rd Ave
1097,47.131600,-119.270084,/N Elder St/E 5th Ave
160,47.084210,-118.981099,I- 90
185,47.124937,-119.261713,S Grand Dr/E Lark Ave
160,46.906479,-119.621388,Beech Ave NE/Chestnut St
160,47.159062,-119.254900,Bobwhite Ln NE
216,47.162133,-119.322302,Carswell Dr/Beale
788,47.186054,-119.327379,28th Ave NE/Bolling St NE
160,47.145347,-119.193001,Rd 4 NE/Rd N NE
185,47.043124,-119.177510,State Rte 17 S/Rd 3 SE
552,47.225687,-119.847900,/Q St SE
185,47.613265,-119.288847,E Locust St/W Locust St/N 1st St
216,47.118182,-119.269424,E State Ave/S Balsam St
185,46.964007,-119.037647,E 7th St/Maple Ave
216,47.079025,-119.220404,Potato Frontage Rd SE
276,47.112906,-119.299405,/W Broadway Ave
276,47.211645,-119.994559,1st St/Crescent Bar Rd NW
160,46.902153,-119.628394,Sage Ln/Fern St NW/Ahlers Ave N
246,47.108457,-119.304799,S Burress Ave/W Main St
185,46.741519,-119.896146,Rd S SW
390,47.130541,-119.274709,E 4th Ave/S Balsam St
216,47.309268,-119.559827,Basin St SW/12th Ave SW
185,47.220685,-119.991472,Raven Ln NW/Cliff Rd NW
160,47.086066,-119.077215,S Frontage Rd E/Rd S.5 SE
246,47.132008,-119.271726,E 4th Ave/S Pioneer Way
390,47.112653,-119.248888,S Cougar Dr
334,47.123787,-119.283217,Dogwood St/S A St
185,47.087705,-119.116310,N Frontage Rd
185,47.230422,-119.999222,Crescent Bar Rd NW
390,47.107944,-119.271608,Allen Ave/Trout Ave
185,46.737710,-119.917137,Hwy 243 S/Rd 24 SW
160,47.228519,-119.846475,4th Ave SE/L St SE
185,47.153130,-119.290847,Maple Dr/Rd 1.4 NE
334,47.106728,-119.268498,Perch Ave/Tanglewood Dr/Tanglewood
390,47.128509,-119.276295,W 5th Ave/E 5th Ave/S Division St
305,46.969834,-119.062266,State Rte 170
305,47.117276,-119.276398,Ashcroft Pl/Ashcroft Rd/Ashley Way
499,47.123467,-119.252372,Rees St
246,46.736850,-119.897674,1st St/Broadway Ave
160,47.308909,-119.551025,Smith Ave/Park Pl SE
185,47.101183,-119.262870,I- 90
246,47.105200,-119.279338,Ernst Pl
185,47.104574,-119.305324,S Russell Ave/W Wall St
160,47.103738,-119.257439,Yonezawa Blvd
160,47.108678,-119.299920,W Neppel St
390,46.962537,-119.035256,Pine Ave
185,46.959714,-119.048841,/W 11th St
216,47.903510,-119.066044,Coulee Blvd
216,46.890365,-119.602197,Rd E SW/Hwy 26 W
185,47.105953,-119.333993,Dusty St/Edwards Dr NE
160,47.935567,-119.002042,Weil Pl
160,47.384160,-119.487211,/Buttercup St S
160,47.939334,-119.011067,Grand Coulee Ave
160,47.103260,-119.850904,Rd 1 NW
216,46.964005,-119.035258,Pine Ave
160,47.132609,-119.853487,Hwy 281 N
160,47.118399,-119.321082,Valley Rd NE/Elgin Rd NE
246,46.974105,-119.968235,Ramp
185,46.674524,-119.915529,Tyler Pl
276,47.318530,-119.556502,3rd Ave SW/D St SW
160,47.129387,-119.248063,S Hamilton Rd
160,46.847051,-119.432000,Rd C SE/State Rte 26
579,47.130762,-119.280630,S Ash St
160,46.683853,-119.914945,/Desert Aire Dr
160,46.677006,-119.920215,Summer Dr/Edgewater Way S/Summer Pl
216,46.739601,-119.905108,E Cooper St/Cooper St/William Ave
185,47.135983,-119.296889,W Luta St/Luta St
185,46.730315,-119.906446,Portage Ave
185,47.188155,-119.333270,/Andrews St NE/32nd Ave NE
160,47.327632,-119.560743,Loma Pl/Maringo Rd
160,47.147687,-119.275749,Wenatchee Dr NE
418,46.962787,-119.035255,Pine Ave/E 8th St
160,47.080501,-119.333900,Sand Dunes Rd
276,47.234025,-119.839979,H St SE/F St SE
160,47.929859,-119.042657,/Coulee Blvd
160,47.287145,-119.571785,Royal Cir/Sunwest Dr
160,47.390276,-119.483202,Daisy St N/1st Ave NE
185,47.112013,-119.339931,/Edwards Dr NE
185,47.241898,-119.554439,Rd 10.3 NW
160,47.376050,-119.505967,St Andrews Pl
160,47.241332,-119.554386,Rd C NW/Canal Rd/Dodson Rd N
276,47.127903,-119.277530,W 5th Ave/S Ash St
216,47.169273,-119.317655,Vandenburg Pl
160,47.385514,-119.487218,4th Ave SE/Buttercup St S
246,46.960688,-119.047779,/W 10th St
185,47.934882,-118.996457,Roosevelt Dr/Mead Ave/Mc Govern St
246,47.934121,-118.996041,E Grand Coulee Ave/Mc Govern St/Grand Coulee Ave
160,46.885185,-119.578549,Hwy 26 W
160,47.310306,-119.552754,Pioneer Ave SE/Sunset St SE
185,46.909912,-119.623728,Poarch Ave NE/Wildflower St NE
246,47.156450,-119.309908,Owens Rd/N Pointe Trailor Park
216,46.741040,-119.899320,Priest Rapids Dr
160,47.611142,-119.288828,S 1st St/E Main St/N 1st St/W Main St
185,46.732300,-119.905710,6th St
362,46.969693,-119.044316,State Rte 170/1st St/N Elm Ave
185,47.150355,-119.320606,/Ottmar Rd NE
216,47.103980,-119.446083,I- 90
160,47.610169,-119.292959,W Douglas St/S 4th St
185,47.231818,-119.840275,Parkway Dr
246,47.055892,-119.898104,S Frontage Rd W/Rd S SW
185,47.160573,-119.327823,McBee St NE/Cox St NE
216,46.968796,-119.052184,W 2nd St
390,47.132460,-119.276760,S Balsam St/Balsam St
246,47.106745,-119.270535,Leanne Ave/Tanglewood Ave
305,46.962032,-119.039345,E 9th St/Claremont Ave/Clairmont Way
160,47.136098,-119.287826,W Reisner Rd/N Clark Rd
185,47.233447,-119.873722,Twelth Ave SW/E St SW
160,47.305240,-119.564330,C St SW/16th Ave SW
276,47.113572,-119.346888,Quail Dr NE
160,46.967980,-119.341052,Highland Dr
276,47.099922,-119.308718,Magpie Rd/Sand Pipper Sq
185,47.612333,-119.290218,W Walnut St/N 2nd St
160,47.321530,-119.554345,Division Ave W/D St SW
216,47.104165,-119.332518,/Edwards Dr NE/Westlake Rd
160,47.103597,-119.774058,/I-90 W
246,47.137860,-119.288121,N Dale Rd/W Loop Dr
472,47.319997,-119.546088,1st Ave NE
839,47.132478,-119.273429,S Pioneer Way/3rd Ave/E 3rd Ave
246,47.387209,-119.496068,Evergreen St S/2nd Ave SW
276,47.135292,-119.296297,West Virginia St
185,47.150472,-119.294026,Beacon Rd/Grape Dr NE
305,47.092016,-119.235193,State Rte 17 N
160,46.903943,-119.621527,/Beech Ave NE/Poplar St NE
160,47.933641,-118.993722,/Banker St/Rowland Ln
185,46.899418,-119.630649,Evergreen Ave NW/Bluebell St
216,47.928373,-119.038397,Gold Ave/Diamond St/Western Ave
160,47.929917,-119.041496,/Kent St
160,47.961320,-118.986181,State Rte 155
246,47.132257,-119.291918,Royal Palm Dr
185,47.125279,-119.290587,W Marina Dr/Marina Dr
334,47.127842,-119.272119,S Balsam St
216,47.176709,-119.325521,Moses St/Larson Blvd
216,47.307189,-119.562918,C St SW/14th Ave SW
305,47.103941,-119.306534,Yakima Ave
160,47.934252,-119.028463,Coulee Ave
216,47.612369,-119.292929,N 4th St/W Walnut St
160,46.677813,-119.912268,Spring Cir/Brunner Ln
499,47.130596,-119.257112,E Terrace Ave/S Clover Dr
305,47.233098,-119.873709,F St SW/Twelth Ave SW
579,47.226191,-119.847132,/Q St SE
185,47.118388,-119.275537,W Chuckie Ln/Ashley Way
305,47.233102,-119.874050,F St SW/Twelth Ave SW
185,47.128348,-119.274202,S Alder St/E 6th Ave
160,47.944051,-119.001809,A St/1st St
216,47.220475,-119.660731,Rd H NW/Rd 9 NW
160,47.230057,-120.001264,Rd 9.8 NW/Crescent Bar Rd NW
216,46.738770,-119.906734,Portage Ave/Hoose St
185,47.329984,-119.567042,Morning Star Blvd/Leslie Rd
185,47.122626,-119.321022,2.4 Rd NE/Valley Rd NE
305,47.110571,-119.335999,N Dove Ct
216,47.332041,-119.567158,Chrisview Ct E
185,47.119671,-119.277183,Eastlake Dr
160,47.934298,-119.028250,Coulee Ave
160,46.756512,-119.843068,/Rd 23 SW
305,47.109760,-119.332937,Bluff West Dr
185,47.103208,-119.331873,/Arizona
216,47.105333,-119.302085,S Michael St/W Peninsula Dr/Peninsula Dr
216,47.104186,-119.304385,S Russell Ave/W Texas St
334,47.104189,-119.340878,/Westlake Rd
246,47.101206,-119.300388,I- 90
160,47.154860,-119.278209,Rd J NE/Stratford Rd
276,47.101981,-119.305176,W Peninsula Dr/Florence Ave
305,47.223468,-120.000009,Entiat Ln/Crescent Bay Dr
160,47.109606,-119.303071,W Main St/S Schneirla St
334,47.389915,-119.485128,Canna St N/
552,47.145792,-119.276890,Kinder Rd NE/Wenatchee Dr NE
526,46.966659,-119.036126,S Alder Ave/E 4th St
216,47.112187,-119.338031,Shipmaster Ct
305,47.106781,-119.269487,Dilley Ave/Tanglewood Dr/Tanglewood Ave
185,47.102212,-119.286585,I- 90
160,47.182516,-119.337565,Randolph Rd NE/State Rte 17
160,46.982222,-119.045864,Rd U SE
160,47.146363,-119.247371,Rd K.5 NE
160,47.057670,-119.194659,State Rte 17 S/Rd 2 SE
160,47.938216,-119.001372,/Martin Rd
216,47.104840,-119.303794,W Texas St
160,46.967576,-119.027169,Locust Ave/Sandy Way
160,47.933429,-119.030515,Hillcrest Ave/Park Ave
185,47.232139,-119.872343,Birch St SW/Adler St SW
216,46.683221,-119.920635,Cherry Ln
418,47.112466,-119.268679,Tamara St/Sharon Ave E
216,47.103279,-119.334614,/Oklahoma
160,47.104135,-119.491969,I-90 E
185,46.740309,-119.899345,Riverview Ave/E Saddle Mt Dr
216,47.227286,-119.851655,1st Ave SE/M St SE
185,47.390775,-119.483237,Daisy St N
160,47.105251,-119.299007,S Burress Ave/W Lakeside Dr
185,47.118435,-119.259265,E Grand Dr/S Tommy Dr
216,47.104394,-119.280660,Rosemont Pl/Belmont Ave
160,47.228488,-119.851684,1st Ave SE/L St SE
160,47.113532,-119.342285,Hansen Rd/Fairway Dr NE/Edwards Dr NE
160,47.944927,-119.001792,1st St/B St
160,47.090842,-119.150830,N Frontage Rd
160,47.606188,-119.287257,S McEntee St
185,47.182174,-119.327379,28th Ave NE/Randolph Rd NE
160,46.737774,-119.900742,Selkirk Ave/Gort Rd
334,47.224067,-120.001326,Entiat Ln
216,47.106152,-119.301352,S Burress Ave/W Peninsula Dr/Peninsula Dr
246,47.173474,-119.323467,Adair St/Mather Dr
160,47.331395,-119.556040,N Line Rd/Canal Blvd
160,47.375518,-119.679507,Sagebrush Flats Rd
185,47.091689,-119.160624,N Frontage Rd
445,47.321125,-119.553128,C St NW/C St SW/Division Ave W
160,47.148318,-119.300541,Joann Dr NE
305,47.106769,-119.269658,Tanglewood Ave
246,47.943157,-119.004712,3rd St/Burdin Blvd
185,47.104431,-119.363597,N Frontage Rd E/Rd F NE
185,47.087962,-119.121095,I-90 E
160,47.929323,-119.040059,Palmer Ave
160,46.664678,-119.904664,Orchard Dr
160,46.967265,-119.341063,Highland Dr
579,46.737772,-119.899387,Riverview Ave/Gort Rd/Government Way
552,47.312083,-119.557831,Basin St SW/10th Ave SW
216,47.375429,-119.501134,Lakeview Dr NW/Lakeview Pl NW
246,47.167373,-119.325941,Schilling Dr/Vandenberg Ave
160,47.933191,-118.992257,Knute St/Ronald Dr
160,46.678577,-119.913054,Brunner Ln
216,47.087955,-119.125994,S Frontage Rd E/
445,46.737238,-119.899223,Riverview Ave/
185,47.935572,-119.024528,Coulee Ave
160,47.087246,-119.278714,Potato Hill Rd SE/Potato Hill Rd NE/Baseline Rd E
160,47.189952,-119.324337,26th Ave NE
160,46.966968,-119.341069,Highland Dr/Terrace Ave
216,47.130756,-119.235785,Rd L NE
334,47.113156,-119.269084,Judith
276,47.109090,-119.302299,W Basin St/S Schneirla St
160,47.315173,-119.559236,7th Ave SW/D St SW
276,47.137855,-119.292195,N Washington St/W Loop Dr
216,47.110440,-119.334740,Swan Ln
160,47.237712,-119.837356,A St SE/8th Ave SE
334,46.969669,-119.039342,E 1st St
160,47.310939,-119.533168,/5th Ave SE
160,47.227757,-120.001087,Rd 9.7 NW
160,47.392027,-119.483693,Canna St N
216,47.122488,-119.274365,/S Division St
160,46.769627,-119.880688,/Rd R SW
160,46.961571,-119.003278,Rd W SE
445,46.969680,-119.042108,N Oak Ave/S Oak Ave/W 1st St
160,47.912936,-119.051435,Lake Access Rd
160,47.243009,-119.853396,Central Ave NE/Rd Q NW/F St NE
246,47.129733,-119.273808,E 5th Ave/S Balsam St
246,47.135290,-119.304342,Florida Dr
160,47.145811,-119.299269,Central Dr
185,47.134754,-119.271554,N Fig St/E Broadway Ave
246,46.966656,-119.030358,Cedar St/4th St/Cedar Ave/E 4th St
185,47.322910,-119.560079,Cyrus Rd/Fairview Ave
160,47.379903,-119.487074,/8th Ave SE
185,47.243009,-119.851261,F St NE/1st Ave NE
305,46.968273,-119.034649,/Pine Ave
276,46.962079,-119.037621,/E 8th St/Hillside Dr E
160,47.262578,-119.457261,State Rte 17
362,47.231231,-119.869186,10th Ave SW/Adler St SW
185,47.085815,-119.290377,Albert Way SE/Scenic Dr SE/Albert Way
246,47.098112,-119.242024,S Frontage Rd E/
160,46.894327,-119.618461,Rd F SW/F-sw Rd
185,47.090873,-119.849219,I- 90
185,47.153205,-119.307694,Broad St NE
334,47.116499,-119.276381,Ashcroft Rd/W Nelson Rd
246,47.100520,-119.309737,I- 90
216,47.092086,-119.314276,W Peninsula Dr/Torrence Pl
216,47.117018,-119.255488,Lakeland Dr
185,47.125566,-119.267755,E Olive Ave/Laurel Dr
185,46.988484,-119.045772,Rd U SE/
185,47.237918,-119.848206,3rd Ave NE/Third Ave NE
160,47.110163,-119.263122,Pilgrim St
185,47.939917,-119.010355,Colfax St/Midway Ave
160,47.096447,-119.283963,Young Rd NE/Baseline .6 Rd NE
160,46.961117,-119.964785,I-90 W
216,47.136402,-119.272431,Fig St
216,47.100940,-119.328012,Laguna Dr
160,47.157468,-119.325973,Mc Andrews St NE/McLaughlin Rd NE
160,47.256415,-119.596155,E-nw/Rd E NW
276,47.128056,-119.272373,E 7th Ave/S Balsam St
160,47.220195,-119.707956,Rd 9 NW
185,47.934728,-118.991559,/Bachelor Sq
160,46.970137,-119.106883,Rd 8 SE
160,47.094614,-119.278677,Morgan Rd NE/Potato Hill Rd NE
305,46.736856,-119.899212,Riverview Ave/1st St
276,46.735087,-119.903706,3rd St/S Columbia Ave
246,47.177841,-119.328484,W Craig St/E Craig St/Arnold Dr
160,47.280830,-119.548670,Rd B.7 NW
246,47.103805,-119.303497,W Peninsula Dr/S Russell Ave
216,47.127139,-119.272922,S Alder St
246,47.123988,-119.293132,W Marina Dr/
185,47.927856,-119.037952,Gold Ave/Sunset Dr
160,47.223029,-119.863223,6th Ave SW
362,47.112220,-119.247303,Husky Dr/S Cougar Dr
160,47.189347,-119.327761,28th Ave NE
160,47.132945,-119.314706,3.2 NE
185,47.308869,-119.553769,Smith Ave/Yakima St SE
216,47.134620,-119.294121,N Grape Dr/Kevin Way
334,46.902247,-119.626150,Juniper Cir/Cedar Ave NE
276,47.961873,-118.986398,Stevens Ave/Okanogan Ave
160,47.108615,-119.269529,Jason Ct
552,47.121066,-119.268455,S Balsam St/E Hill Ave
185,47.107992,-119.278546,E Belair Dr/Division St/S Belair Dr
160,47.934210,-119.028698,Coulee Ave
839,47.132864,-119.275176,E Broadway Ave
334,47.233357,-119.858190,F St SW/3rd Ave SW
185,47.935437,-118.998741,Martin Rd
185,47.104396,-119.278669,Yonezawa Blvd/Division St/Belmont Ave
160,47.160446,-119.283427,Rd 5 NE/
160,47.233497,-119.864437,7th Ave SW/E St SW
216,46.736864,-119.900721,1st St/Selkirk Ave/First St
216,46.734200,-119.904173,/4th St
185,47.611117,-119.295418,W Douglas St/W Main St
185,47.104058,-119.555245,I-90 W
160,47.155576,-119.294108,Grape Dr
160,47.103669,-119.623255,Ramp
216,46.971808,-119.968108,I-90 W
185,47.134934,-119.257107,N Clover Dr
160,47.090978,-119.278693,Potato Hill Rd NE
445,46.963682,-119.045554,/W 7th St
160,47.151112,-119.291715,Langley
160,47.124536,-119.286810,Holly St/W 4th Ave
160,47.123874,-119.255515,Lakeland Dr
160,47.381819,-119.491766,7th Ave SW/19.8 NW
276,47.233402,-119.873948,Twelth Ave SW/E St SW
445,47.306791,-119.561657,Basin St SW/14th Ave SW
160,47.101622,-119.237446,Kittleson Rd NE
362,47.132602,-119.276913,Balsam St
390,47.325172,-119.538837,3rd Ave NE/Ivy St NE
246,46.968327,-119.053279,S Harrison St/W 2nd St
246,47.324089,-119.547400,A St NW/4th Ave NW
276,47.086434,-119.858475,/I- 90
684,47.130389,-119.280232,S Ash St/W Broadway Ave
216,47.384552,-119.490494,5th Ave SE/Division St S
185,47.939066,-119.003086,Prims Pl/Federal Ave
185,47.935502,-119.024706,Rd 58.1 NE/Coulee Ave
185,47.102524,-119.278630,Division St
160,47.316958,-119.525155,Enterprise St/Cessna Ave
160,47.293205,-119.573341,/Loop 1
390,47.235377,-119.849939,C St SE/Second Ave SE
185,47.087294,-119.113597,I-90 E
185,47.104425,-119.363498,N Frontage Rd E
276,46.967711,-119.047115,Washington Ave/W 3rd St/3rd St
246,46.737787,-119.910237,Rd 24 SW
246,47.085071,-119.861518,Hwy 281 N/I-90 W
160,47.312915,-119.560327,Parkway Blvd/10th Ave SW
160,47.198665,-119.362677,State Rte 17
160,47.104056,-119.553168,I-90 W
472,47.131391,-119.275600,E 3rd Ave/S Balsam St
160,47.929014,-119.029376,Lincoln Ave
305,47.118567,-119.256798,State Rte 17 N
334,47.133933,-119.282416,N Mattson Dr/W Northshore Dr
246,47.235848,-119.842643,/6th Ave SE
276,47.226699,-119.853363,Rd Q NW/N St SW
185,46.966072,-119.093878,R 7
216,46.735423,-119.902248,Ellice Ave
160,47.103605,-119.768990,/I-90 W
160,47.222080,-119.859358,4th Ave SW
160,47.228611,-119.999548,Rd 9.7 NW/Rd 9.8 NW
160,47.327051,-119.541144,G St NE/6th Ave NE
276,47.103740,-119.342195,/Prichard Rd
160,47.389016,-119.493148,Main Ave W
160,46.971676,-119.064690,Rd 6.9 SE
185,47.319806,-119.549159,Division Ave E
185,47.236984,-119.857219,Division St W/2nd Ave SW
160,47.101840,-119.278628,Potato Hill Rd NE
160,46.912576,-119.420078,C 8/Rd 12 SE
160,47.127789,-119.259497,Canterbury Ln/S Hawthorne Dr
160,47.230321,-119.867565,J St SW
246,47.133996,-119.288065,/W Meridian Ave/Central Dr
185,46.907485,-119.622463,Widmer Dr NE/Hargraves Ave NE
276,47.309206,-119.554966,Berschauer Industria/A St SE
160,47.310538,-119.547606,Hilltop Cir
362,46.966636,-119.031727,E 4th St/Fir Ave
185,47.136352,-119.326078,Clink Rd NE/Valley Rd NE
246,46.964538,-119.039067,E 7th St/S Ash Ave
185,47.389014,-119.496058,Evergreen St S/Evergreen St N/Main Ave W
185,47.138531,-119.308830,/N Crestview Dr/W Valley Rd
160,47.359523,-119.476572,State Rte 17
305,47.109924,-119.256290,State Rte 17 N/S Pioneer Way
160,47.131538,-119.366930,Rd 3 NE
246,47.102773,-119.323446,I- 90
160,47.610705,-119.291602,S 3rd St
160,47.381538,-119.485123,/Canna St S
216,47.934832,-118.993722,Banker St/Roosevelt Dr
276,47.132251,-119.291344,Windrose Dr/Wellington Ct
160,47.107057,-119.275786,E Tanglewood Dr/E Pinyon Ct
160,46.962540,-119.056920,Taft Ave
160,46.739583,-119.906772,/Cooper St/Portage Ave
362,47.318116,-119.555264,C St SW/3rd Ave SW
216,47.375538,-119.501136,Lakeview Dr NW
216,47.161921,-119.313014,Aspi Blvd/Patton Blvd
445,46.967768,-119.051872,W 3rd St
276,47.211503,-119.993401,C St/1st St
160,47.369056,-119.501309,Rd 19 NW
246,46.739572,-119.908918,Mansion St
160,46.901201,-119.628413,Daisy St NE/Ahlers Rd/Daisy St NW/Ahlers Ave N
160,47.225951,-119.853360,Rd Q NW
160,47.162380,-119.318994,Loring Dr/Daley Dr
160,47.161721,-119.299509,Loring Dr/Loring Dr NE/Rd I
160,47.160189,-119.240364,Ridgeview Dr Loop NE/Rd 5 NE
160,47.114236,-119.295834,S Locust Ln/W Pheasant St
185,46.917775,-119.135865,State Rte 17 S/Rd 11.5 SE
216,47.308856,-119.554965,Smith Ave/A St SE
526,47.120155,-119.268266,E Brown Ave/S Balsam St
160,47.173787,-119.328092,W Craig St
160,47.160147,-119.896654,Rd 5 NW
216,47.072037,-120.027570,Section Ave/S Section Pl
160,47.158858,-119.328429,McDougal Ave NE/Caroline St
160,47.189644,-119.256461,Rd 7 NE/Rd K NE
185,47.107769,-119.275972,E Belair Dr/United Ct
185,46.898716,-119.630570,Acacia St W
334,46.966240,-119.031743,Fir Ave
246,47.178656,-119.324880,E Craig St/Northwest Ln
185,47.936215,-119.004059,/W Grand Coulee Ave
246,46.848921,-119.939827,15.8 SW
160,47.126747,-119.277411,W 6th Ave/S Beech St
216,46.965649,-119.035306,Pine Ave/E 5th St
185,47.057382,-119.045141,Rd U SE/Rd 2 SE
216,46.737196,-119.906689,/Portage Ave
160,47.287294,-119.573012,Railroad Ave NW/Sunwest Dr
216,46.970836,-119.967298,I- 90
185,47.087768,-119.120895,I- 90
216,47.135292,-119.294228,N Grape Dr/West Virginia St
276,46.962717,-119.049253,W 8th St/Grant Ave
160,47.223123,-119.863238,6th Ave SW/R St SW
216,47.321904,-119.547290,2nd Ave NE/A St NE
160,47.942625,-119.000510,State Rte 155
160,47.113892,-119.352957,1.8 NE
160,47.124437,-119.260753,S Fairbanks Dr/E Lark Ave
276,47.147369,-119.294181,W Kristine St/N Grape Dr
185,47.118190,-119.270842,S Jefferson Ave/E State Ave
305,46.965681,-119.045986,E 5th St/County Rd
276,47.133719,-119.289732,N Clark Rd/W Pine Dr
160,47.304231,-119.545893,Sage Rd
445,46.965662,-119.041207,/E 5th St
246,47.102628,-119.322835,I- 90
216,46.943960,-119.964832,I-90 W
160,47.231441,-119.867018,9th Ave SW
185,47.313714,-119.560310,Parkway Blvd/9th Ave SW/D St SW
276,47.243394,-119.848290,3rd Ave NE/G St NE
160,47.102723,-119.829492,/I-90 W
216,47.234804,-119.858444,C St SW/3rd Ave SW
276,47.326442,-119.547462,Basin St NW/6th Ave NW
160,47.316624,-119.534994,Ridge Dr
160,46.821666,-119.926778,Shore Dr/D St
185,47.305225,-119.551923,Rd 14.6 NW
160,47.080250,-119.291722,Scenic Dr SE/Castlewood Dr/Baseline .5 Rd SE
305,47.106649,-119.271713,Allen Ave
185,46.912519,-119.401926,Rd 12 SE
160,47.290839,-119.573444,Drive
160,47.158357,-119.329809,Rd 4.8 NE
216,47.102912,-119.323369,I-90 E
216,46.917122,-119.484743,1st Ave SE/1st Ave/Elm Court SE Royal
160,47.122064,-119.275504,Ash St
160,47.329013,-119.554567,7th Ave NW/F St NW
185,47.136939,-119.292168,W Oregon St/N Washington St
185,47.150940,-119.299502,W Market St/Market St NE
276,47.931605,-119.037882,Grand Ave/Grand Ave E/Stevens Ave
185,47.097499,-119.337039,Lupine Dr/Sand Dunes Rd
276,47.939162,-119.001218,Young St/Continental Hts
276,47.318858,-119.544213,Division Ave E/D St SE/D St NE
160,47.115117,-119.352620,1.9 NE
160,47.932875,-118.985304,E Grand Coulee Ave
246,46.959711,-119.048364,S Adams Ave/W 11th St
185,46.682812,-119.921351,Cherry Ln
185,47.111015,-119.296871,W Peninsula Dr/S Sycamore Ln
305,46.967741,-119.050144,3rd St/W 3rd St/Jackson Ave
160,47.222423,-119.853344,Hwy 281 N/Rd Q NW/Q St SE
160,47.149364,-119.282132,Curry Dr NE/Miller St
216,47.156196,-119.240501,Parker Dr NE/Joey Rd NE
216,47.138938,-119.288922,N Vista Dr/W Crest Dr
246,47.117285,-119.267372,Boyle St
185,46.736312,-119.902280,/Ellice Ave
418,46.965743,-119.051099,W 5th St
684,46.964709,-119.049212,W 6th St/Grant Ave
216,47.173310,-119.320841,Lowry St/Arlington Dr
276,47.120516,-119.263398,E Ball Ct
185,47.158121,-119.317318,/Garden Ave
160,47.307220,-119.540111,Nat Washington Way/Southeast Blvd/9th Ave SE
216,47.134791,-119.291486,N Earl Rd/W Pine Dr
160,47.938443,-119.004671,Weil Pl
276,46.742705,-119.896485,/Rd S SW
305,47.119724,-119.264653,S Grand Dr/S Alderwood Dr
276,47.102967,-119.284785,S Beaumont Dr
917,47.233947,-119.853350,E St SE/Central Ave
246,47.111242,-119.336714,Schooner Ct/Cove West Dr
160,46.898784,-119.661566,Rd H SW
762,46.968678,-119.041255,/W 2nd St
276,47.132197,-119.268794,Fig St/E 5th Ave/N Fig St
160,47.228463,-119.317504,H 1
472,47.232059,-119.854733,H St SW/1st Ave SW
216,47.077068,-120.031046,Hunter Ave SW/Chukar Pl
526,46.965730,-119.049191,W 5th St/S Grant/Grant Ave
160,46.737224,-119.902289,/Ellice Ave
160,47.241886,-119.554597,Rd 10.3 NW/Dodson Rd N
185,47.078739,-120.031130,River Dr SW/Boyer Ave
160,47.385536,-119.483178,4th Ave SE/Daisy St S
160,47.935636,-119.002216,/Weil Pl
216,47.591207,-119.395858,Park Lake Rd NE
160,46.730260,-119.905380,Portage Ave/8th St
160,46.737696,-119.369387,State Rte 24
334,46.962680,-119.047150,Washington Ave/W 8th St
418,47.139852,-119.262119,Farmers Dr NE/Broadway Extended NE
246,47.222900,-119.994506,Sunserra Loop Rd NW/Riverview Way
362,47.112472,-119.272069,S Wallace St/Sharon Ave E
160,46.893937,-119.618463,Rd F SW/F-sw/Hwy 26 W
216,47.123262,-119.255967,Hope Ct
246,47.103878,-119.555900,I- 90
246,47.176216,-119.324705,Lowry St/Moses St
160,46.969731,-119.343025,O'Sullivan Dam Rd/Trailer Park Rd
160,47.108780,-119.274938,Palo Verde Ave
390,46.959689,-119.046688,/W 11th St
160,47.942617,-119.000946,Division St
418,46.966297,-119.034658,/S Pine Ave
216,46.969654,-119.031681,Rd 8 SE
216,47.234021,-119.839246,F St SE
185,47.612367,-119.295717,W Walnut St/N 6th St
276,47.131118,-119.259527,E Wheeler Rd/Canterbury Ln
160,47.103584,-119.369084,S Frontage Rd E/
160,46.822937,-119.923363,3rd Ave SW/D St
160,47.933869,-119.028902,Hillcrest Pl
160,47.202858,-119.939527,/Rd U NW
839,47.132173,-119.278261,N Stratford Rd
334,47.106724,-119.268600,Tanglewood Dr
160,47.310308,-119.551672,Cottage St SE/Pioneer Ave SE
445,47.126359,-119.259251,Grand Pl
160,47.224515,-119.850898,1st Ave SE/O and M Rd
160,47.929936,-119.036376,School Ave
160,47.389016,-119.492726,Main Ave W/Birch St
160,47.094728,-119.193561,N Frontage Rd/Rd N NE
246,47.100634,-119.312824,I- 90
160,47.104960,-119.347688,N Frontage Rd E
216,47.182165,-119.313773,Randolph Rd NE
160,47.187552,-119.327393,College Pkwy NE/28th Ave NE
160,46.738127,-119.530685,/State Rte 24
390,47.104834,-119.268626,Perch Ave/Dilley Ave
246,47.189314,-119.322643,Patton Blvd NE
185,47.104545,-119.359993,F 2
160,46.687456,-119.916665,Wren Loop/Airport Way N
160,47.249044,-119.719635,/State Hwy 28 W
390,47.241939,-119.848239,3rd Ave NE/E St NE
160,47.331926,-119.565008,Statter Rd/Hillcrest Rd
334,47.112113,-119.338122,/Shipmaster Ct
160,47.190464,-119.853421,Hwy 281 N/Rd 7 NW
276,47.115509,-119.256788,State Rte 17 N
160,47.245041,-119.831694,Farm Rd
185,47.101601,-119.315557,/State Hwy 171/W Broadway Ave
160,47.323399,-119.536553,K St NE/2nd Ave NE
160,47.912900,-119.051385,Lake Access Rd
185,47.087983,-119.290153,Baseline .1 NE/Scenic Dr
160,47.228818,-119.306766,Rd 9.7 NE/H 6
160,47.171066,-119.327630,Pershing Rd/Arlington Dr
305,46.966647,-119.030992,E 4th St
305,47.933300,-119.038546,Lakeview Dr/Lakeview Ave
160,47.381709,-119.483195,State Rte 17/Ramp
216,47.118884,-119.258258,S Bobbi Dr
160,47.325241,-119.559053,Roosevelt Blvd/Patrick Rd
246,46.962386,-119.043518,Beck Way/Hillside Dr W
160,47.404594,-119.618773,Johnson Rd NW/Sheep Canyon Rd
160,46.683869,-119.924571,Golf Ct
305,46.968706,-119.044309,/W 2nd St
185,47.939980,-119.010917,Bridgeport Hwy
160,47.111426,-119.354485,/Fairway Dr NE
185,47.122652,-119.257098,S Dahlia Dr/S Clover Dr
185,47.118823,-119.255933,Yost Cir
216,47.131863,-119.292133,Windrose Dr/Polo Ridge Dr
160,47.142098,-119.331377,Calvert Rd NE/Konishi Rd NE
276,46.965694,-119.046599,W 5th St//E 5th St
160,47.179850,-119.330133,Castle Dr/Arnold Dr
160,47.145516,-119.316271,Harrington Ln NE
185,47.320943,-119.556261,1st Ave SW/E St SW
362,47.317621,-119.553835,Basin St SW/3rd Ave SW
334,46.967173,-119.031722,/Fir Ave
160,47.385094,-119.483182,Daisy St S
160,47.141827,-119.321879,Lee Dr NE/Valley Rd NE
160,47.096657,-119.215150,N Frontage Rd
362,47.231234,-119.869263,Adler St SW
334,46.967740,-119.052256,W 3rd St
160,47.080476,-119.299846,Castlewood Dr
246,47.042870,-119.142325,/Rd 3 SE
418,46.963400,-119.035264,Pine Ave
216,47.219866,-119.993561,Blue Heron NW
362,47.325357,-119.549670,C St NW/Frey Rd NW
305,47.320103,-119.550036,Division Ave E
160,47.932951,-118.988419,Butler Sq/E Grand Coulee Ave
160,47.318836,-119.534758,Division Ave E/M St NE
445,47.114636,-119.261869,/S Pioneer Way
160,46.856198,-119.453339,Rd B SE/State Rte 26
185,47.163509,-119.319153,Biggs Rd/Daley Dr
185,47.292278,-119.572109,Basin St SW
305,47.151090,-119.302738,Star Dr NE/Market St NE
185,47.381819,-119.492479,Division 2/7th Ave SW
390,47.107941,-119.270739,Trout Ave
160,47.228535,-119.853348,Rd Q NW/L St SW
334,47.116511,-119.267847,E Nelson Rd/S Monroe St
276,47.210747,-119.994203,A St
160,47.119863,-119.299137,W Marina Dr/W Lee St
418,46.963148,-119.036153,/S Alder Ave
1252,47.131076,-119.270382,Pioneer Way/S Pioneer Way/E Wheeler Rd/E 5th Ave
216,47.118428,-119.258213,E Grand Dr/S Bobbi Dr
246,47.940442,-119.005330,Van Tyne St/Morrison St
160,46.677008,-119.918660,Summer Pl
185,47.103591,-119.373977,S Frontage Rd E/E 5
160,47.085986,-119.052431,I-90 E
216,46.970805,-119.044294,Railroad Way/N Elm Ave/Railroad Ave
362,47.103543,-119.306289,Yakima Ave
160,47.161301,-119.768773,Rd 5 NW/Adams Rd N
788,47.145784,-119.278438,Kinder Rd NE
160,47.174108,-119.276126,/Rd 5.9 NE
160,47.171123,-119.235217,Rd L NE
185,47.091712,-119.853509,Rd Q NW
185,47.104387,-119.598358,Rd E NW/N Frontage Rd W
246,46.943617,-119.966033,I- 90
160,47.145740,-119.261954,/Rd 4 NE
334,46.968534,-119.029456,E 2nd Ave/Sandy Way
160,47.109197,-119.269532,Jason Ct
334,46.734197,-119.905732,/4th St
1459,47.137687,-119.278349,/N Stratford Rd
160,47.942372,-119.000840,Midway Ave/State Rte 155
160,47.308910,-119.550530,Smith Ave/Thurston St SE
160,47.125562,-119.268647,S Pioneer Way/E Olive Ave
160,46.913868,-119.641646,Rd 12 SW/Rd G SW
185,47.102134,-119.320066,I-90 E
160,47.327040,-119.540945,6th Ave NE
160,46.715001,-119.746713,Rd 25.5 SW/Rd L SW
305,47.131092,-119.255813,E Wheeler Rd/Lasco Ln
160,47.198896,-119.362666,Neppel Rd NE/Old Moses Lake Hwy
160,47.090902,-119.150829,Rd P NE
160,46.971203,-119.067206,Canal Rd/Rd T SE
216,47.138453,-119.303121,/W Valley Rd
216,46.734493,-119.903691,/S Columbia Ave
216,46.965700,-119.031885,5th St/Fir Ave
334,46.902513,-119.626732,Sage Ln/Juniper Cir
160,46.732302,-119.904079,/6th St
246,47.245224,-119.852626,Hilltop Ave NE/I St NE
160,46.998874,-118.999741,Rd W.2 SE/Rd 6 SE
160,46.984795,-119.205902,State Rte 262 E/Rd M SE
216,47.150593,-119.252917,Rd K.2 NE
160,47.084081,-118.985064,S Frontage Rd E
185,47.230332,-119.869184,J St SW/Birch St SW/10th Ave SW
160,46.919603,-119.485269,Linden St SE/2nd Ave SE
185,47.237664,-119.848214,Third Ave SE/3rd Ave NE/Division St E
445,47.184111,-119.319577,24th Ave NE/Chanute St NE
185,47.108904,-119.282923,Linden Ave
276,47.132434,-119.291165,Polo Ridge/W Windrose Dr
185,47.121204,-119.258200,Hill Pl
160,47.156594,-119.311653,State Rte 17
160,47.103882,-119.552149,I- 90
160,47.103352,-119.736677,Frontage Rd W
160,47.222350,-119.859293,4th Ave SW/S St SW
185,47.101002,-119.263570,/Rd 1 NE
418,46.962855,-119.038913,E 8th St/S Ash Ave
216,47.117228,-119.255392,E Oasis Cir
160,46.901116,-119.625676,Daisy St NE/Cedar Ave NE
160,46.730320,-119.907360,Portage Ave/8th St
160,47.000936,-119.760446,Adams Rd SW/Rd 6 SW
160,47.182178,-119.322633,Patton Blvd NE/Randolph Rd NE
160,47.545498,-119.457442,31.3 NE/Moore Rd NE
185,47.104988,-119.336926,Montana St/Sandy St
216,47.379903,-119.489381,Aster St S/8th Ave SE
160,46.920946,-119.480906,Market Street Royal/Royal Camp Rd SE
276,47.130320,-119.272639,E 5th Ave/S Chestnut St
362,47.156786,-119.308009,Arlene Ln/N Pointe Trailor Park
160,47.090106,-119.129364,N Frontage Rd/Rd Q NE
216,47.934112,-119.033850,Miller Ave/Coulee Blvd
160,47.103183,-119.792276,S Frontage Rd W/Frontage Rd W
631,47.310678,-119.558848,11th Ave SW/Basin St SW
216,47.219899,-119.994271,Seahawk Ln NW
160,47.146553,-119.299879,Hillcrest Dr NE
216,47.932016,-119.037116,Grand Ave E/Goodfellow Ave
362,46.908105,-119.623710,Poarch Ave NE/Ahlers
160,47.118582,-119.255518,Lakeland Dr
185,47.157225,-119.333095,McAndrews St NE/Shorecrest Rd
216,47.934082,-119.034028,/Coulee Blvd
185,46.907193,-119.623651,Wildflower St NE
160,46.952359,-119.557773,Rd C SW
418,46.969328,-119.043569,/S Elm Ave
160,47.148385,-119.661354,Rd 4 NW/Rd H NW
185,47.607412,-119.288836,S 1st St/E Ada St
160,47.147213,-119.280655,Miller Dr NE/Sunny Dr NE/Sunny Dr/Miller St
160,46.969786,-119.967325,/I- 90
160,47.103912,-119.385671,I- 90
305,47.137872,-119.290966,N Earl Rd/W Loop Dr
160,47.105707,-119.336914,Montana St/Dusty St
362,46.963654,-119.042161,W Hillside Dr/Hillside Dr/S Oak Ave
216,47.100401,-119.982550,Rd W NW
185,47.614186,-119.288852,E Washington St/W Washington St/N 1st St
276,47.162541,-119.321420,Loring Dr/Beale
216,46.740011,-119.896165,Boundary Ave
216,47.316707,-119.544230,D St SE/1st Ave SE
160,47.088961,-119.852101,P 5/S Frontage Rd W
362,47.224216,-119.999998,Crescent Bay Dr
160,47.086603,-119.855574,Frontage St/S Frontage Rd W
160,47.351773,-119.522690,Rd A.5 NW
185,47.071817,-119.876045,I- 90/Rd R SW
160,47.325427,-119.524002,Navajo Ave
160,47.242176,-119.553135,Rd 10.3 NW
160,47.608308,-119.288346,W Lincoln St
185,47.933774,-119.018125,View Pl/Spokane Blvd
185,47.118861,-119.289101,S D St/W Ivy Ave
160,46.773791,-119.927362,Hwy 243 S
526,46.967667,-119.040581,S Main Ave/W 3rd St/Main St/E 3rd St
246,47.230696,-119.851664,1st Ave SE/J St SE
246,46.735415,-119.903709,/S Columbia Ave
276,46.969761,-119.054335,1st St
185,47.215026,-119.994520,Crescent Bar Rd NW
185,47.226695,-119.851638,N St SE/1st Ave SE
160,47.159552,-119.281246,Rd 1.8 NE
160,46.998870,-118.999492,Rd 6 SE
160,47.104157,-119.385687,I-90 E
216,47.004173,-119.005529,Rd W.2 SE/Rd V.5 SE
185,47.016738,-119.045606,Rd U SE/Rd 5 SE
160,47.226689,-119.863967,N St SW/7th Ave SW/Seventh Ave SW
418,47.106646,-119.252468,State Rte 17 N/Yonezawa Blvd
160,46.967730,-119.340532,Bayview Ave
160,47.305314,-119.550047,State Rte 282
216,47.085710,-119.049392,/I- 90
334,46.966686,-119.046571,/W 4th St
362,46.738729,-119.899374,Riverview Ave/Hoose Rd/Hoose St
185,47.116042,-119.249726,E Apple Cup Dr
160,47.020839,-119.944012,/I- 90
160,46.966748,-119.053339,S Harrison St
160,47.104551,-119.374067,N Frontage Rd E/Rd E.5 NE
246,47.166826,-119.320511,Travis Dr/Craw Ln
185,47.143390,-119.286905,Central Dr/N Evelyn Dr
185,47.096765,-119.307541,W Lakeside Dr
445,47.138447,-119.284521,Meridian Rd/W Valley Rd
1278,47.131085,-119.268781,E Wheeler Rd/N Fig St
160,47.118319,-119.312787,Melody Ln NE/Teal Rd NE
160,47.929668,-119.041182,W Grand Ave/Kent St
185,47.932598,-119.038798,/Sunny Dr
216,47.122172,-119.252373,Rees St/Crossroad Dr
185,47.088759,-119.853622,I-90 W
160,47.329987,-119.566078,/Leslie Rd
684,47.131015,-119.278997,S Division St/E Broadway Ave/W Broadway Ave
418,47.104986,-119.271527,Allen Ct
160,47.205022,-119.831936,Rd 8 NW/Rd P NW
160,47.152360,-119.281092,Apple Rd NE
160,47.237170,-119.661049,Rd 10.2 NW/Rd H NW
216,47.167620,-119.324872,Vandenberg Dr/Lindberg Ln/Vandenberg Ave
472,46.961714,-119.050041,/W 9th St
160,46.855882,-119.453402,Rd B SE
216,47.155990,-119.309917,Owens Rd/Patton Blvd
216,47.111640,-119.269643,S Turnagain Pl
160,47.353922,-119.511935,/Rd A NW
216,47.140504,-119.290407,W Village Ave
276,46.734203,-119.905022,4th St
418,47.225297,-119.996143,Red Cliff Dr
160,46.934645,-119.557926,Rd C SW
160,47.105259,-119.347811,F 8/Bogey
160,46.912517,-119.402785,Rd 12 SE
216,47.244736,-119.852648,Hilltop Ave NE
160,46.735761,-119.913589,Brian Ave/2nd St
216,47.125468,-119.267175,E Olive Ave/S Kiefer Dr
185,47.310140,-119.562797,12th Ave SW
185,46.835683,-119.931484,Tacoma St
472,46.967653,-119.042128,W 3rd St/S Oak St/S Oak Ave
160,47.612956,-119.295736,N 6th St
185,47.612814,-119.290210,/N 2nd St
246,46.960689,-119.047724,W 10th St
216,47.326942,-119.547130,Basin St NW/B St NW/7th Ave NW
185,46.903158,-119.621573,Beech Ave NE
160,47.094831,-119.316252,Everett Pl
160,46.718028,-119.937761,/Rd U SW
160,47.134764,-119.320870,Scott Rd NE
185,47.163890,-119.933054,Rd 5 NW
160,46.969645,-119.021521,Rd 8 SE
160,47.108831,-119.279574,Linden Ave
185,47.100595,-119.327248,Laguna Dr
160,47.321085,-119.560957,Abel Rd
160,47.104425,-119.566456,N Frontage Rd W
185,47.937533,-119.004184,Weil Pl/Center St
185,46.968742,-119.049078,S Grant Ave/W 2nd St/Grant Ave
160,47.321331,-119.557449,F St SW/1st Ave SW
276,47.137924,-119.300252,Pennsylvania St
526,46.966249,-119.033193,/Spruce Ave
276,47.137936,-119.297701,Abbey Rd/Magnolia St
246,47.108765,-119.277034,Venice Ct
160,47.934260,-119.035238,Lakeview Ave
185,47.104495,-119.364312,N Frontage Rd E/Rd E.9 NE
185,47.116385,-119.250108,S Cougar Dr
246,46.675488,-119.914883,Spring Cir/Edgewater Way W
418,46.737200,-119.905108,/William Ave
276,47.314704,-119.555968,Basin St SW/6th Ave SW
185,46.961198,-119.039383,Claremont Ave/Hillside Dr
185,47.234019,-119.838902,F St SE
276,47.129194,-119.264635,S Buchanan St/S Adams St
185,47.107623,-119.303548,S Burress Ave
334,46.737752,-119.897673,Broadway Ave/Gort Rd
185,47.369083,-119.498715,Rd 19 NW/State Hwy 28 W
334,47.230330,-119.858723,J St SW/3rd Ave SW
160,47.057578,-119.897663,N Frontage Rd/Rd S SW
160,47.234947,-119.856825,C St SW/2nd Ave SW
160,47.156715,-119.311245,Patton Blvd
160,47.188307,-119.322626,Andrews St NE/Patton Blvd NE
418,46.962671,-119.045965,County Rd/W 8th St
160,47.329989,-119.565003,Leslie Rd/Statter Rd
305,46.964652,-119.041183,W 6th St
160,47.154017,-119.789935,Rd N NW
185,47.116520,-119.298810,S Gibby Rd/W Lee St
160,47.084835,-119.297350,/Pelican Dr SE
160,47.116538,-119.291242,S Milwaukee Ave
334,47.131414,-119.288852,N Manzanita St
552,47.232857,-119.851671,1st Ave SE/G St SE
160,47.234618,-119.846479,D St SE/Fourth Ave SE
216,47.151657,-119.299339,State Rte 17
276,46.966679,-119.045949,W 4th St/County Rd
160,47.933586,-118.988207,Butler Sq/Roosevelt Dr
185,47.104168,-119.445614,I-90 E
216,47.094647,-119.192531,N Frontage Rd
160,46.966748,-119.053045,W 4th St
185,47.932576,-119.038536,Lakeview Dr/Sunny Dr
362,47.230958,-119.869182,10th Ave SW
160,46.912219,-119.134985,12-se Rd
185,47.220673,-119.990925,Pheasant Hill Ln NW/Cliff Rd NW
216,46.738249,-119.896150,Boundary Ave
160,47.072672,-120.029718,Hunter Ave SW/Lynn St
160,47.932910,-118.987730,E Grand Coulee Ave
185,47.104013,-119.336898,I-90 E/Montana St
160,46.891694,-119.602117,Rd E SW
160,47.357374,-119.512723,State Hwy 28 W/Rd A NW
160,47.316900,-119.515776,Airport St
334,46.963693,-119.040963,Hillside Dr
160,47.162072,-119.316554,March Ave/March St/Dow Ave
160,47.080178,-119.291453,Baseline .5 Rd SE
246,47.167264,-119.315596,Westover Blvd NE/Westover Blvd/Patton Blvd
160,47.229550,-119.851652,K St SE/1st Ave SE
185,47.093916,-119.334346,Camas Pl
160,47.231020,-119.867001,9th Ave SW/I St SW
185,47.114141,-119.277285,Montlake Pl
160,47.148711,-119.310339,Dorothy St NE/Lincoln Dr NE
160,46.970096,-119.099331,Hwy 170 E/Rd 8 SE/R 5
526,47.236305,-119.853330,B St SE/B St SW/Central Ave
160,47.147923,-119.279749,Parkway Dr NE
276,47.113679,-119.301935,Crouse St
160,47.388928,-119.483201,/Daisy St S
276,47.132370,-119.291228,Windrose Dr/White Dr
185,46.970163,-119.117934,State Rte 17 S/Rd 8 SE
305,47.132139,-119.268794,E Penn St/Fig St/N Fig St
160,46.961826,-119.003273,/Rd W SE/Rd 8 S E
160,47.233251,-119.863059,F St SW
185,47.290223,-119.573586,Basin St SW/
160,47.233678,-119.958242,Rd U.7 NW
160,47.160850,-119.352677,Westshore Dr NE
390,47.102308,-119.311332,S Interlake Rd/Driggs Dr
185,47.066501,-119.883905,I-90 W
684,47.083206,-119.859712,Royal Anne Dr
185,47.158422,-119.696106,I- 6
246,46.902180,-119.631166,Royal Ave NW/Fern St NW
305,47.097599,-119.306586,W Lakeside Dr
246,47.319247,-119.547467,Division Ave E/B St NE/B St SE
185,47.927231,-119.027974,Electric Blvd/Sunset Dr
216,46.736311,-119.900705,Selkirk Ave
160,46.914410,-119.485808,1st Ave SE
160,47.244237,-119.853398,Rd Q NW/H St NE
246,47.120531,-119.264051,S Grand Dr/E Ball Ct
246,47.009830,-119.138359,State Rte 17 S
390,46.965664,-119.042130,E 5th St/S Oak Ave
185,47.147226,-119.283601,Longview St NE/Sunny Dr NE
185,47.111447,-119.256835,/State Rte 17 N
216,47.934066,-118.989648,Cooper Sq/Roosevelt Dr
334,47.172407,-119.323679,Arnold Dr/Arlington Dr
216,47.943137,-119.003234,Burdin Blvd/2nd St
160,47.153716,-119.306375,Jackie Dr NE
246,47.237490,-119.849962,Division St E/Second Ave SE
216,47.086815,-119.287283,Goodrich Rd SE
185,46.735984,-119.902275,Second St/Ellice Ave/2nd St
160,47.610654,-119.291603,S 3rd St
185,47.129266,-119.271495,E Walnut Ave/S Chestnut St
160,47.290897,-119.575705,Loop Main
185,47.091353,-119.160671,I- 90
216,47.175830,-119.324241,Moses St/Adair St
185,47.099479,-119.313918,Magpie Rd/W Wapato Dr
499,47.138506,-119.279856,W Valley Rd
334,47.106804,-119.271655,Tanglewood Dr/Allen Ave
334,46.965153,-119.040608,/S Main Ave
658,47.233505,-119.851702,First Ave SE/F St SE/1st Ave SE
362,47.117238,-119.300320,W Fern Dr/S Vine St
160,47.151853,-119.290822,Rd 1.4 NE
160,47.323510,-119.558218,/1st Ave NW
246,47.114253,-119.348357,Partridge Dr/Fairway Dr NE
185,47.323510,-119.552911,D St NW/2nd Ave NW
160,46.878801,-119.432310,Rd C SE
160,46.730295,-119.905382,/Portage Ave
160,47.104462,-119.534519,N Frontage Rd W/Rd B NW
185,46.960728,-119.049938,W 10th St
160,47.135908,-119.305551,Mockingbird St
216,46.967729,-119.049130,S Grant Ave/3rd St/S Grant
472,47.125828,-119.289308,W Marina Dr/W Broadway Ave
160,47.114099,-119.295543,W Pheasant St/S Locust Ln
362,47.209757,-119.993040,/D St
160,47.134079,-119.321039,Valley Rd NE
160,47.324584,-119.545370,3rd Ave NE/C St NE/A St NE
160,47.118335,-119.321086,Valley Rd NE/Teal Rd NE
185,47.942239,-119.001101,Midway Ave
160,47.325357,-119.554878,F St NW/3rd Ave NW
390,46.965661,-119.040607,S Main Ave/E 5th St/Main St
185,46.901130,-119.624183,Daisy St NE/Catalpa Ave NE
334,47.135973,-119.294211,N Grape Dr/W Luta St
185,47.385086,-119.487218,/Buttercup St S
305,47.135228,-119.303308,Kentucky Dr/West Virginia St
160,47.146545,-119.300220,Hillcrest Dr NE
160,47.925659,-119.031015,Silver Dr
185,47.116044,-119.250108,E Apple Cup Dr/S Cougar Dr
185,46.739549,-119.899359,Riverview Ave/E Cooper St/Cooper St
185,46.970791,-119.041223,/Railroad Way/Railroad Ave
160,47.104536,-119.433292,N Frontage Rd E/Hiawatha Estates Rd NE
390,46.902176,-119.626478,Juniper Cir/Desert Ln
445,47.120677,-119.255985,Lakeland Dr/June Dr
160,47.161300,-119.864385,Rd 5 NW
246,47.104048,-119.557536,C-nw Rd/I-90 W
160,46.898718,-119.630704,Evergreen Ave NW/Acacia St W
276,46.966747,-119.052326,W 4th St
160,46.961078,-119.964751,I-90 W
160,47.094614,-119.279109,Morgan Rd NE
216,47.106424,-119.281851,S Crestmont Dr/W Inglewood Ave
160,47.164578,-119.278080,Union Rd/Stratford Rd
472,47.116455,-119.256667,Nelson Rd NE
160,47.933726,-118.988643,Butler Sq/Roosevelt Dr
160,47.103586,-119.470863,S Frontage Rd E/Rd A NE
246,47.120186,-119.289071,S C St/W Ivy Ave
305,47.134662,-119.283194,N Mattson Dr/Knolls Vista Dr
246,47.103774,-119.620063,I- 90
552,47.234615,-119.848210,Third Ave SE/3rd Ave SE/D St SE
185,47.209666,-119.994196,/A St
185,47.130312,-119.335195,Wild Goose Rd NE/Snow Goose St NE
305,46.984810,-119.045832,Rd U SE/
160,47.211068,-119.991642,G St
160,47.153130,-119.286361,Maple Dr/Maple
216,46.890347,-119.602117,Rd E SW/Hwy 26 W
246,47.209690,-119.993827,/B St
160,46.838475,-119.412019,Rd D SE/State Rte 26
160,47.324822,-119.556184,Junes Ct
276,47.127722,-119.275433,E 6th Ave/W 6th Ave/S Division St
246,47.108994,-119.304985,Broadway Ave/W Broadway Ave
246,46.735400,-119.905070,/William Ave
160,47.161174,-119.316502,March Ave/Offutt Dr
160,47.153227,-119.312263,Broad St NE
160,47.107121,-119.336897,Montana St/Davy St
160,47.177317,-119.326453,/Northwest Ln
160,47.230324,-119.999520,Rd W.8 NW/Crescent Bar Rd NW
160,47.223044,-119.875102,Rd R NW
160,47.088657,-119.128804,I-90 E
305,47.233355,-119.858758,F St SW/3rd Ave SW
185,47.318864,-119.543113,Division Ave E/E St SE/E St NE
216,47.233100,-119.875081,F St SW/Rd R NW/Hwy 28 W
216,46.993172,-119.120074,Rd 6.5 SE
185,47.235964,-119.857018,B St SW/2nd Ave SW
160,46.834321,-119.938151,Hwy 243 S/State Rte 243
160,46.686018,-119.924149,Atterberry Dr
185,47.088386,-119.286128,Rd 1.7 NE
305,46.732386,-119.906539,Portage Ave
185,47.233429,-119.870319,E St SW
334,47.390038,-119.485125,Canna St N/
160,47.156840,-119.292724,Kelly Pl
185,47.135366,-119.270325,N Block St/Broadway Extended NE/E Broadway Ave
185,47.102072,-119.331908,Arizona/Sage Rd
160,46.735660,-119.896074,Boundary Ave
185,47.101317,-119.327086,Blue Heron Ln
185,46.961689,-119.048856,/W 9th St
185,47.156966,-119.304831,Ray Rd NE/Ray Rd
160,47.132221,-119.853127,Rd 3 NW
185,47.100517,-119.257482,I- 90
160,47.103256,-119.858600,Rd 1 NW
160,47.121630,-119.296517,W Marina Dr
246,47.350551,-119.538188,Shady Acres Rd/Rd 17.7 NW
305,47.107931,-119.270544,Leanne Ave/Trout Ave
216,47.147685,-119.298437,N Mary St
216,47.101706,-119.302192,W Lakeside Dr
160,47.084825,-119.295578,Viewmont Dr SE/Naples St/Naples St SE
160,46.674121,-119.906578,Thunderbird Way S/Tradewind Way S
216,47.103252,-119.336904,Montana St
390,46.965675,-119.044325,W 5th St/
160,47.070856,-120.026023,S Section Pl
160,47.312680,-119.538272,3rd Ave SE/3 Ave SE
216,47.121429,-119.252396,Megan Dr/Rees St
160,46.730431,-119.905391,/S William Ave
160,46.963995,-119.343855,Lacona St/Aurora St
160,46.678645,-119.911428,Spring Cir/Fowler Ln
160,47.329383,-119.566172,Canyon View Ct
472,47.118688,-119.276734,Vue Pl
160,46.675252,-119.915955,Peterson Pl/Edgewater Way W
160,47.230236,-119.869166,10th Ave SW
160,47.103962,-119.347688,I- 90
216,47.103267,-119.683029,S Frontage Rd W/Frontage Rd W/Rd I NW
472,47.131122,-119.257105,N Clover Dr/E Wheeler Rd/Clover Dr
185,47.005094,-119.081805,Rd 5.7 SE
418,47.234373,-119.854959,1st Ave SW/D St SW
185,47.929095,-119.028190,/Electric Blvd
185,47.155733,-119.278175,/Stratford Rd
160,47.281035,-119.580194,Basin St SW
160,47.249356,-119.682398,State Hwy 28 W
160,47.103604,-119.768773,I-90 W/Rd M NW
605,47.233966,-119.851671,E St SE/First Ave SE
185,47.321112,-119.544215,D St NE/Lincoln Ave
185,47.153802,-119.317597,Airway Dr NE/Cochran Rd NE
185,47.231232,-119.863992,7th Ave SW/I St SW
185,47.114246,-119.279628,S Bailey Ave
160,47.104526,-119.365784,N Frontage Rd E
160,47.329987,-119.566203,Leslie Rd/Canyon View Ct
334,47.125357,-119.287675,Holly St/W 3rd Ave
160,47.186049,-119.322627,Patton Blvd NE/Bolling St NE
390,47.325150,-119.539997,3rd Ave NE
185,47.108092,-119.275975,United Ct
185,47.312638,-119.542081,3rd Ave SE/F St SE
185,47.234033,-119.317439,Rd 10 NE/H 1
276,46.739172,-119.899366,Riverview Ave/
276,47.100932,-119.331941,Sandalwood Pl
216,47.182155,-119.316538,22nd Ave NE/Randolph Rd NE/Dover St NE
160,47.080035,-119.295458,Dandero Dr
160,46.999068,-119.125720,State Rte 17 S/Rd 6 SE
185,46.734198,-119.903683,4th St/S Columbia Ave
710,47.145786,-119.278532,Kinder Rd NE
185,47.146273,-119.320696,Ottmar Rd NE
216,47.130551,-119.262370,E Terrace Ave/S Coolidge St
305,47.116906,-119.253977,E Oasis Cir
160,47.096809,-119.853527,Hwy 281 N
362,47.115681,-119.266787,Shaker Pl
216,46.968666,-119.039043,E 2nd St/S Ash Ave
185,47.611132,-119.294355,N 5th St/W Main St
185,47.103422,-119.769959,I- 90
185,46.964736,-119.099246,R 5
246,47.110042,-119.297780,W Peninsula Dr
185,47.932677,-118.989625,Banks Ave/Hartman St
246,47.072375,-120.027536,Section Ave/N Section Pl
160,47.312654,-119.537760,J St SE/3 Ave SE
160,46.678260,-119.913351,Brunner Ln
499,47.118859,-119.277411,Eastlake Dr/Vue Pl/Eastlake Dr S
185,46.968655,-119.033200,Spruce Ave/E 2nd St
216,47.088603,-119.128121,I-90 E
246,46.983797,-119.117903,State Rte 17 S
160,46.726499,-119.929996,T 6/Rd 24.7 SW
185,47.098380,-119.336690,Lupine Dr
246,46.736315,-119.906658,Portage Ave
160,47.087246,-119.276876,Baseline Rd E
185,47.151097,-119.300562,Market St NE/Joann Dr NE
216,47.104153,-119.268819,Perch Ave/Yonezawa Blvd
216,46.969869,-119.064681,Rd 8 SE
334,46.968273,-119.036098,/S Alder Ave
216,47.149901,-119.298427,N Mary St/W Timothy Ln
185,47.121345,-119.275424,Eastlake Dr/Ashley Way
185,47.939019,-119.004929,Johnson St/Weil Pl
246,47.154820,-119.322527,Robinson Rd NE
160,47.103442,-119.598366,Frontage Rd/S Frontage Rd W
185,47.153205,-119.307621,Broad St NE
160,46.683502,-119.913970,Desert Aire Pl
216,47.934182,-119.032564,Coulee Blvd
160,47.349637,-119.533347,17.7 NW/Rd B NW
246,47.933100,-119.045387,3rd St/2nd St
160,47.103732,-119.257107,Yonezawa Blvd/Rd K NE
216,47.389012,-119.494957,Dogwood St N/Main Ave W/Dogwood St S
160,47.321939,-119.555553,E St NW/Division Ave W/E St SW
246,47.390670,-119.485111,Canna St N
362,47.148680,-119.303810,Dorothy St NE/Moon Dr NE
362,46.966296,-119.037616,/S Maple St
216,47.928750,-119.041180,Palmer Ave
305,47.103393,-119.282047,Fairmont Ln/S Belair Dr
216,47.118021,-119.294925,S Milwaukee Ave/W Broadway Ave
185,47.130482,-119.263627,S Buchanan St/S Adams St
246,47.131104,-119.263609,E Penn St/E Wheeler Rd/S Buchanan St
276,46.963678,-119.046038,W 7th St/County Rd
185,47.121558,-119.258200,Hill Pl/E Hill Ave
658,47.232058,-119.856482,H St SW/2nd Ave SW
160,47.080061,-119.290683,Baseline .5 Rd SE
216,47.152003,-119.302886,Broad St NE/Chera Pl NE
160,47.086878,-119.129364,/Rd Q NE
160,46.970313,-119.345485,/O'Sullivan Dam Rd
160,46.970065,-119.093843,R 7/Rd 8 SE
216,46.967637,-119.031718,Fir Ave/E 3rd St
246,47.101760,-119.311802,Driggs Dr/Melva Ln
185,47.133939,-119.287905,W Meridian Ave/N Central Dr
185,47.105029,-119.334689,Sandy St/Oklahoma
390,47.129930,-119.275937,S Alder St/E 4th Ave
305,47.138443,-119.299412,W Valley Rd
160,47.424664,-119.498670,Rd 23 NW
216,46.734504,-119.902230,/Ellice Ave
305,47.095238,-119.313939,Mariner Ln
185,47.101802,-119.972078,Rd 1 NW
246,47.099865,-119.309797,Magpie Rd/Sand Pipper Sq
185,47.610153,-119.285565,E Douglas St
216,47.135217,-119.304336,West Virginia St/Florida Dr
160,47.234039,-119.832002,Rd 10 NW/Rd P NW/Hwy 28 W
1046,47.131343,-119.270710,Pioneer Way/S Pioneer Way
160,46.920327,-119.482569,2nd Avenue Royal
185,47.102689,-119.334613,Oklahoma
160,47.148672,-119.283592,Longview St NE/Olympic Dr NE
160,47.932682,-118.990072,Banks Ave/Rowland Ln
185,47.232489,-119.872324,Birch St SW
185,47.151086,-119.301653,Sun Rd NE/Market St NE
160,47.320139,-119.553842,C St SW/1st Ave SW
185,46.836168,-119.931349,Tacoma
185,47.110565,-119.263119,Pilgrim St/Colonial Ave
305,47.104007,-119.306683,Yakima Ave
185,47.941162,-119.003594,Main St/Spokane Way
160,47.084244,-119.855879,Royal Duke Ave/Washington Way
526,47.321468,-119.551053,Basin St NW/Sun Basin Plz
160,47.291005,-119.574045,Loop Main/Drive
552,47.321635,-119.550934,Basin St NW/1st Ave NW
160,47.159702,-119.328617,Caroline St
185,47.351838,-119.519288,/State Hwy 28 W
160,47.292439,-119.518719,Drumheller Rd NW
246,46.963688,-119.039552,/Hillside Dr
216,47.222828,-120.000677,Columbia/Crescent Bay Dr
276,46.962800,-119.037630,Hillside Dr/E 8th St/S Ash Ave
160,46.962465,-119.056924,8th St/Taft Ave
185,47.187975,-119.333410,/32nd Ave NE
185,47.189421,-119.324324,26th Ave NE
185,47.103668,-119.800625,N Frontage Rd W
160,47.154378,-119.357779,Melby Way
185,47.147314,-119.288399,State Rte 17
276,47.103496,-119.280648,Rosemont Pl/Fairmont Ln
160,47.116921,-119.363390,Mae Valley Rd NE/Rd F NE
185,47.101776,-119.975030,Rd 1 NW
246,46.738776,-119.905104,Hoose St/William Ave
160,46.920092,-119.483027,2nd Avenue Royal
362,46.969670,-119.039742,E 1st St
160,46.997775,-119.045815,Rd U SE
362,47.122772,-119.252368,Rees St/Raymond Dr
276,47.166207,-119.320155,Westover Blvd NE/Schilling Dr/Travis Dr
185,47.229531,-119.853346,Central Ave S/K St SE/Rd Q NW
160,47.160179,-119.237422,Rd 5 NE/Brent Rd NE
160,47.134780,-119.256822,State Rte 17
185,47.233205,-119.864435,F St SW/7th Ave SW
276,47.101936,-119.319290,I-90 E/State Hwy 171
185,47.160451,-119.277849,Harris Rd
185,47.104325,-119.359995,N Frontage Rd E/F 2
185,47.170685,-119.318842,Vandenburg Loop/Doolittle Dr
276,46.962371,-119.040154,Beck Way//Clairmont Way
246,47.115711,-119.296511,/W Broadway Ave
160,47.179548,-119.329883,Arnold Dr/Fairchild Loop NE
160,47.942851,-119.000670,Division St
160,46.676375,-119.909228,Fafnis Pl W
160,46.824471,-119.928401,Hwy 243 S/B St
160,47.159127,-119.332270,McDougal Ave NE/Shorecrest Rd
160,47.104522,-119.481760,/N Frontage Rd E
160,46.926792,-119.133793,Rd 11 SE/State Rte 17 S
160,46.899053,-119.695001,Rd 13 SW
246,47.290526,-119.574541,/2361 Loop/Loop Main
160,47.961036,-118.986684,State Rte 155/Lincoln Ave
160,46.822153,-119.925441,1st Ave/D St
276,46.967699,-119.046520,/W 3rd St
246,47.102491,-119.321636,I-90 E
216,47.121987,-119.286391,S B St/W Cascade Ave
276,47.123675,-119.293774,W Marina Dr
160,47.232512,-119.924913,/Rd T.3 NW/Hwy 28 W
185,47.936588,-118.996808,Hill Ave
216,47.220675,-119.994384,Cliff Rd NW
160,47.125259,-119.256807,State Rte 17 N
160,47.611164,-119.285988,E Main St/N Adams St/S Adams St
160,47.160169,-119.236664,Rd 5 NE/K.9 NE
276,47.104029,-119.340483,I-90 E/
160,47.224222,-119.402891,State Rte 17/Northlake Rd NE
160,47.025052,-119.940111,S Frontage Rd W
160,47.310808,-119.534124,L St SE
246,47.094211,-119.313585,Bayside St/Glenmore Dr
185,47.108585,-119.301557,S Schneirla St/W Spruce St
216,47.101527,-119.312031,Driggs Dr
185,47.391182,-119.483266,Daisy St N/2nd Ave NE
362,46.966666,-119.038194,E 4th St
185,47.103796,-119.329495,I- 90
160,47.310940,-119.533505,/5th Ave SE
160,47.932664,-118.988769,Banks Ave
160,47.098382,-119.337045,Sand Dunes Rd
216,47.209737,-119.991360,H St/
185,47.936057,-119.002740,/Weil Pl
185,47.086461,-119.065884,N Frontage Rd/Rd T NE
160,47.133062,-119.174677,Front St NE/3rd St NE
185,47.211485,-119.992636,1st St/E St
160,47.134011,-119.321034,/Valley Rd NE
1278,47.138507,-119.278320,/N Stratford Rd/W Valley Rd
160,47.278381,-119.580466,Basin St SW/State Rte 28
160,47.116692,-119.318019,Diamond Point Cir NE/H 2
160,47.094658,-119.290447,Easy St NE
216,47.941553,-119.003142,Seaton St/Spokane Way
160,47.227808,-119.999532,/Rd 9.7 NW
216,47.323397,-119.539901,2nd Ave NE/H St NE
160,47.385163,-119.483181,Daisy St S
185,47.107092,-119.300481,W Peninsula Dr/S Linnea Ln
160,46.969654,-119.033104,U 6 SE/E 1st St/Rd 8 SE
160,46.969892,-119.067809,Rd 8 SE
185,46.678526,-119.921321,View Pl
305,47.310258,-119.554966,Pioneer Ave SE/A St SE
185,47.146499,-119.278437,Highland Dr NE
160,47.389895,-119.483202,Daisy St N/
418,47.232126,-119.869202,10th Ave SW/H St SW
185,47.929198,-119.028365,Electric Blvd/Electric Pl
160,47.234305,-119.768146,Rd 10 NW/Adams Rd N/State Hwy 28 W
160,47.304231,-119.538736,Nat Washington Way
185,47.103936,-119.345056,Hansen Rd/I- 90
160,47.102315,-119.556579,/C-nw Rd
276,47.390280,-119.484003,1st Ave NE
216,47.134275,-119.290468,N Dale Rd/W Pine Dr
160,47.164020,-119.250325,Rd 5 NE/Crystal Springs Pl NE
160,47.087251,-119.279493,Baseline Rd E
185,47.234398,-119.831977,Rd P NW
185,47.312021,-119.520733,Division Ave E
216,47.312354,-119.542694,3rd Ave SE/Southeast Blvd
160,47.189280,-119.288552,Rd I NE
160,47.118301,-119.315794,Bond Rd NE/Teal Rd NE
185,47.131093,-119.264721,/E Wheeler Rd
160,47.162879,-119.241097,Ridgeview Dr Loop NE/Ridgeview Rd NE
246,46.971140,-119.039054,Evan Hall St
552,47.127544,-119.261860,E Plum St/S Ironwood Dr
185,46.926288,-119.056524,Rd 11 SE/
185,47.291008,-119.514710,/State Rte 282
216,47.101193,-119.316140,I-90 E//Ramp
216,47.227601,-119.847468,Marginal Way/M St SE
216,47.101230,-119.300070,I- 90
216,47.350553,-119.536059,Shady Acres Rd/Rd 17.7 NW
160,46.675106,-119.908039,Brad Pl
160,46.973213,-119.045870,Rd U SE/1st St N
246,47.119420,-119.252270,June Dr
185,47.276201,-119.579596,/State Hwy 28 W
160,47.184532,-119.261247,Grace Loop NE/Grace Ln NE
246,47.102329,-119.321634,/I- 90
246,47.136788,-119.272949,Fig St
160,47.278857,-119.551210,12.8 NW/Rd B.8 NW
185,47.094187,-119.333086,Camas Pl
246,47.104046,-119.619907,Ramp
445,47.232136,-119.858726,3rd Ave SW/H St SW
160,47.130694,-119.188171,E Wheeler Rd
160,46.879225,-119.954950,State Rte 243
788,47.136718,-119.278328,N Stratford Rd/Knolls Vista Dr
445,47.128103,-119.279632,W 4th Ave/S Beech St
185,46.970267,-119.345313,/O'Sullivan Dam Rd
246,47.157691,-119.304814,Ray Rd/Charles Rd NE
362,47.127440,-119.283542,W 3rd Ave
185,46.966661,-119.042774,/W 4th St
246,47.102947,-119.323522,I-90 E
246,47.127652,-119.271905,S Balsam St
185,47.933321,-118.991305,Rowland Ln
160,47.585001,-119.348180,/State Park Rd
160,47.042872,-119.143479,Rd 3 SE
216,47.107416,-119.301781,Lake Ave/W Neppel St
160,47.157144,-119.311366,Patton Blvd
216,46.736906,-119.906678,1st St/Portage Ave
246,47.135034,-119.353094,Rd 3.3 NE/Edwards Dr NE
185,47.128493,-119.263688,S Coolidge St/E Plum St
185,47.229302,-119.875086,Rd R NW
160,47.917490,-119.063361,Ludolph Rd
216,47.056903,-119.896710,Frontage Rd S/Rd S SW
160,46.913671,-119.600722,Rd 12 SW/Rd E SW
216,47.140119,-119.294219,NW Sunburst Ct/N Grape Dr
160,47.112160,-119.295828,S Marigold St/W Peninsula Dr
390,46.967213,-119.033194,/Spruce Ave
185,47.015332,-119.855726,Rd 5 SW/Rd Q SW
216,47.182163,-119.313655,Randolph Rd NE
160,47.235770,-119.608055,Rd 10 NW
305,47.118547,-119.261963,E Hayden Dr/E Grand Dr
185,47.610698,-119.294523,W Douglas St
246,47.038809,-119.923188,N Frontage Rd/
362,47.229421,-119.863995,K St SW/Seventh Ave SW
216,47.174128,-119.328735,W Craig St/Larson Blvd
160,47.228477,-119.999545,/Rd 9.7 NW
185,47.184106,-119.323074,Chanute St NE
160,47.189720,-119.294919,7-ne/Randolph Rd NE
160,47.160444,-119.282239,Rd 5 NE/Rd 1.8 NE
216,47.119174,-119.294885,S Milwaukee Ave
472,47.127484,-119.280857,/W 4th Ave/S Cedar St
160,47.086422,-119.081383,I-90 E
160,46.911492,-119.628352,Ahlers Ave N
246,47.079778,-119.297156,Boylston Dr/Castlewood Dr
160,46.752506,-119.926760,Hwy 243 S/Rd 23 SW
305,46.967643,-119.033199,Spruce Ave/E 3rd St
216,47.934834,-118.993821,Mead Ave/Roosevelt Dr
246,47.229423,-119.846472,4th Ave SE/K St SE
185,47.112468,-119.276498,Baron Pl
276,47.133262,-119.176683,4th St NE/Main St
276,46.963569,-119.038888,Hillside Dr/S Ash Ave
276,47.080178,-119.298702,Dream St/Castlewood Dr
160,47.611637,-119.290210,/N 2nd St
246,46.967213,-119.034657,/Pine Ave
160,47.241445,-119.554431,Canal W-20/Dodson Rd N
185,47.284882,-119.577447,Basin St SW
472,47.127290,-119.278747,W 5th Ave/S Beech St
160,47.934024,-119.018910,View Pl
160,47.155497,-119.294109,/Grape Dr
160,47.241301,-119.942357,Rd U NW
160,46.961417,-119.035327,Pine Ave
216,47.101878,-119.268427,I- 90
160,47.159071,-119.253623,Covey Ln/Bobwhite Ln NE
185,47.929001,-119.037418,Schrieber Ave
246,47.103809,-119.316104,W Marina Dr/Melva Ln
305,47.388919,-119.485139,Canna St S
185,47.072409,-120.032364,River Dr SW/Vantage St
185,47.292866,-119.571961,/Loop 1
185,47.932928,-119.037166,Jackson Ave/Coulee Blvd
499,47.128544,-119.283905,Dogwood St/W Broadway Ave
185,47.118171,-119.250519,Thompson Pl
216,46.967651,-119.030999,E 3rd St
160,47.102095,-119.342407,/S Frontage Rd E
185,46.965649,-119.032078,E 5th St/Fir Ave
552,47.184097,-119.330429,/Chanute St NE
160,47.376318,-119.502055,Golf Club Rd NW
160,47.161107,-119.384251,Rd 5 NE/Rd E NE
216,46.969440,-119.056360,Taft Ave
185,47.109763,-119.299869,S Barbara Ave/W Spruce St
160,47.328302,-119.565389,Maringo Rd
185,47.942796,-119.000727,Division St
472,46.964690,-119.046639,/W 6th St
334,47.230339,-119.863993,J St SW/7th Ave SW/Seventh Ave SW
185,47.103771,-119.620872,I- 90
185,47.903947,-119.065684,Coulee Blvd
185,47.127801,-119.257107,S Hawthorne Dr/S Clover Dr
216,47.155697,-119.309415,State Rte 17
160,47.323334,-119.536552,K St NE/2nd Ave NE
362,47.229420,-119.858705,3rd Ave SW/K St SW/Third Ave SW
185,46.736549,-119.911074,Maureen Ave
185,46.969631,-119.027069,Locust Ave/Rd 8 SE
185,47.931254,-119.033394,Park Ave/Lincoln Ave
160,47.079937,-119.294224,Larchmont Rd/Castlewood Dr
185,47.316698,-119.540447,1st Ave SE
246,47.104534,-119.438769,N Frontage Rd E/B 5
160,47.189745,-119.275571,/Rd 7 NE
160,47.332312,-119.565013,Statter Rd
185,47.086822,-119.290124,Scenic Dr/Scenic Dr SE/Goodrich Rd SE
160,47.390019,-119.494978,Dogwood St N
246,46.960703,-119.048811,/W 10th St
185,46.970367,-119.117931,State Rte 17 S
160,47.322711,-119.557942,G St SW/Division Ave W
216,47.104197,-119.682912,Rd I NW/N Frontage Rd W
160,47.052881,-119.902691,I- 90
579,47.123604,-119.291381,W 3rd Ave/W Broadway Ave
305,47.113853,-119.298258,W Lee St/W Broadway Ave
160,47.148647,-119.313204,Airway Dr NE
216,47.151107,-119.310335,Market St NE/Lincoln Dr NE
160,47.116867,-119.287937,W Columbia Ave/W Lakeside Dr/S Milwaukee Ave
160,47.938321,-119.012181,Grand Coulee Ave
246,47.102494,-119.304698,/W Peninsula Dr
160,47.084521,-118.985140,I-90 E
160,47.132228,-119.853485,Rd 3 NW/Hwy 281 N
160,47.232734,-119.896711,Rd S NW/Hwy 28 W
362,46.965646,-119.034663,Pine Ave/E 5th St/S Pine Ave
185,47.145921,-119.320714,Dahl Rd NE/Ottmar Rd NE
305,47.122872,-119.292970,W 3rd Ave
216,47.227599,-119.851650,1st Ave SE/M St SE
185,47.103763,-119.336898,Montana St/Prichard Rd
185,47.326950,-119.546520,7th Ave NW
185,47.119295,-119.286665,W Cascade Ave/W Lakeside Dr
185,47.939711,-119.004246,Spokane Way
160,46.934513,-119.557929,Rd C SW/Rd 10.4 SW
185,47.230582,-120.004664,Hwy 28 W
246,46.901508,-119.627234,Desert Ln
276,47.224490,-120.000941,Yakima Ln/Crescent Bar Rd NW
160,47.134370,-119.338404,Blue Goose Rd NE/Wild Goose Rd NE
160,47.141525,-119.323597,Valley Rd NE/Konishi Rd NE
185,47.151570,-119.300564,Joann Dr NE
246,47.230773,-119.863997,7th Ave SW
276,47.131234,-119.287220,Edgewater Ln
160,46.962371,-119.040984,Beck Way
160,47.211512,-119.992222,F St/1st St
276,47.149025,-119.298427,N Mary St/W Steven Ln
216,47.118787,-119.253929,Yost Cir
185,47.086940,-119.113321,S Frontage Rd E
160,47.010910,-118.999182,/Rd W.2 SE
305,47.109193,-119.299363,S Barbara Ave
160,46.732314,-119.904338,/Vern Ave/6th St
216,47.161287,-119.318944,Offutt Dr/Carswell Dr/Daley Dr
216,47.933385,-118.990085,Hartman St/E Grand Coulee Ave
334,47.314431,-119.544264,/D St SE/2nd Ave SE
276,47.960191,-118.987313,State Rte 155
216,47.239569,-119.851702,B St NE/First Ave NE/1st Ave NE
160,47.277266,-119.481335,State Rte 282/
160,47.104168,-119.704440,Rd J NW/N Frontage Rd W
185,47.111050,-119.260502,Pioneer Way/Colonial Ave
216,47.319163,-119.550948,1st Ave SW/A St SW
276,47.103549,-119.627148,/Ramp
185,47.104048,-119.560763,I-90 W
185,47.321604,-119.544206,D St NE/1st Ave NE
499,47.101673,-119.242773,Kittleson Rd NE
160,47.292757,-119.518962,State Rte 282/Drumheller Rd NW
216,47.319958,-119.549624,Division Ave E
160,47.115740,-119.302250,W Bemis St/Sybel St
418,47.321154,-119.549503,A St NW/1st Ave NW
160,47.110716,-119.273650,Skyline Dr
445,46.969701,-119.045033,N Walnut Ave/1st St/S Walnut Ave
445,46.734183,-119.906570,4th St/Portage Ave
185,46.963787,-119.034704,Pine Ave
160,46.680349,-119.907929,Desert Aire Dr/Main St S
334,46.967688,-119.045921,W 3rd St/County Rd
160,47.101627,-119.237964,Kittleson Rd NE
305,47.390273,-119.485119,Canna St N/1st Ave NE
216,47.152231,-119.254515,4.4 NE
160,46.676164,-119.907861,Vance Ln/Tradewind Way S
160,47.106019,-119.277871,E Inglewood Dr/E Tanglewood Dr
160,46.801415,-119.802419,Rd R SW
160,47.180206,-119.322625,Patton Blvd NE/Newell St
526,47.184091,-119.329306,Chanute St NE
185,47.254029,-119.661160,/Rd H NW
736,47.130151,-119.278071,S Division St/W 3rd Ave/E 3rd Ave
362,47.137863,-119.284732,N Central Dr/W Loop Dr
160,47.100978,-119.335980,Astor Loop/Crane Ln
276,47.123766,-119.293589,/W Marina Dr
160,46.677896,-119.913706,Brunner Ln
276,47.933492,-119.035840,Electric Blvd/Coulee Blvd
246,46.965128,-119.034694,Pine Ave
246,47.235350,-119.851667,First Ave SE/C St SE
305,47.235253,-119.842660,6th Ave SE
185,47.091531,-119.160651,I-90 E
160,47.157998,-119.328415,McBeth Ln NE/Caroline St
276,47.138430,-119.291045,NW Sunburst Ct/W Valley Rd
216,47.093339,-119.319832,Glenmore Dr
276,47.106703,-119.299587,W Willow St/S Linnea Ln
160,47.388403,-119.483200,Daisy St S/1st Ave SE
185,47.130934,-119.235784,E Wheeler Rd/Wheeler Rd NE/Rd L NE
185,47.546174,-119.455932,Marmot Cir/Sunset Dr
362,47.224273,-120.000010,Crescent Bar Rd NW
246,47.314428,-119.543141,E St SE/2nd Ave SE
160,47.180174,-119.326634,Newell St
246,47.231210,-119.848213,3rd Ave SE/I St SE
185,47.322139,-119.548796,A St NW/2nd Ave NW
445,47.128468,-119.269340,S Pioneer Way/Riviera Ave
160,47.103186,-119.853473,Hwy 281 N/Rd 1 NW
185,47.169324,-119.321069,Mitchell Ave/Cannon Ln
472,47.233856,-119.848899,E St SE/F St SE
185,47.936221,-118.998594,Wetzel St
160,46.971872,-119.761205,Adams Rd S
160,47.204682,-119.288478,Randolph Rd NE
246,46.968748,-119.051187,S Madison Ave/W 2nd St
185,47.137692,-119.294237,N Grape Dr/W Loop Dr
334,47.150093,-119.297346,W Market St/N Daniel St
185,46.847720,-119.938246,/Beverly Burke Wye
160,47.308893,-119.549995,Smith Ave
185,47.163214,-119.319051,Daley Dr/Beale
579,47.119568,-119.267018,S Pioneer Way/S Alderwood Dr
185,47.203897,-119.939533,Rd 8 NW/Rd U NW
185,47.119210,-119.272255,/E 11th Ave
185,47.312072,-119.548010,3rd Ave SE/Hilltop Dr
418,46.962659,-119.045342,Weaver Rd/W 8th St
160,47.950985,-118.988896,State Rte 155
305,46.737185,-119.903760,/S Columbia Ave
276,46.962551,-119.049261,/Grant Ave
276,47.167036,-119.316757,Tinker Loop/Westover Blvd NE/Travis Dr
246,47.142366,-119.271975,State Rte 17
160,47.102146,-119.287927,I- 90
160,47.113663,-119.271816,S Horizon St
216,47.105718,-119.302977,S Michael St/W Texas St
160,47.044369,-119.771050,Adams Rd SW/Rd 3 SW
160,47.235409,-119.846458,Fourth Ave SE/C St SE
160,47.154826,-119.264801,Orchard Dr NE
216,46.916747,-119.485179,1st Ave SE/Christensen Rd
160,47.147706,-119.278285,Stratford Rd
216,47.109113,-119.297188,S Barbara Ave/W Willow St
305,47.122141,-119.255885,Lakeland Dr/Crossroad Dr
276,47.210292,-119.992134,F St/2nd St NE
276,47.329971,-119.544896,B St NW
276,47.148189,-119.297361,W Gary St/N Daniel St
418,46.969041,-119.045032,/S Walnut Ave
362,46.963381,-119.036147,S Alder Ave
276,47.135218,-119.272037,E Commercial Ave/N Fig St
891,47.133481,-119.274082,N Date St/E Broadway Ave
246,47.331768,-119.556968,Strand Rd/N Line Rd
160,47.198847,-119.362963,State Rte 17/Neppel Rd NE/Hwy 17 N
216,47.082812,-119.864565,/I-90 W
246,47.325527,-119.548141,Basin St NW/5th Ave NW
160,46.900190,-119.630647,Evergreen Ave NW/Camelia St NW
1355,47.233463,-119.853356,F St SW/F St SE/Rd Q NW/Central Ave
216,47.082170,-119.864867,I- 90
216,47.104820,-119.305876,S Russell Ave
276,47.108875,-119.277040,Venice Ct/Linden Ave
160,47.106623,-119.334610,Edwards Dr NE/Windy St
160,47.936120,-119.019283,View Pl
276,47.104012,-119.335501,I-90 E
160,47.104169,-119.349185,I-90 E/
216,47.085254,-119.227753,Potato Frontage Rd SE/Heritage Ln SE
160,47.241258,-119.838724,Rd 10.5 NW
246,46.740276,-119.896158,E Saddle Mt Dr/Boundary Ave/Rd S SW
185,47.222572,-119.853346,Rd Q NW
216,47.616080,-119.288236,N 2nd St
160,47.103864,-119.736666,N Frontage Rd W
472,47.226603,-119.847512,/O&m Rd
