Estimated daily crossings,Latitude,Longitude,Name
276,43.649659,-72.247500,/State Rte 120
246,44.052607,-71.640621,Governors Rd/Westwood Dr/Adams Woods Dr/Big Stone Rd
160,43.648766,-71.753526,Tomahawk Trl
185,43.898293,-72.137663,State Rte 25A/Bellmore Dr
185,43.658681,-72.245182,State Rte 120/Etna Rd
276,43.703697,-72.300191,Main St
246,43.782138,-71.664856,Short St
185,43.636860,-72.251668,Church St/Spring St
276,44.245634,-71.748579,/Oaks Rd/Summit Dr
472,44.305042,-71.769877,/Cottage St
185,43.640559,-72.268365,Bomhower St/Mascoma St
246,43.956670,-71.509428,Rey Ln
160,43.599114,-71.720291,/Ayers Island Rd
185,43.637924,-72.247691,School St
246,43.648228,-72.256549,Colburn St/Williams St
216,44.051119,-71.670822,/Woodland Loop
390,44.300641,-71.804819,Meadow St
160,44.059823,-71.625056,Overlook Rd
362,44.048710,-71.658605,Lodge Rd
160,43.747965,-71.764353,Bills Way/Eagles Nest Rd
418,43.759243,-71.699387,Highland St
185,44.215349,-71.913550,School St/West St
160,43.826502,-71.897332,Pinehaven Campground Rd
246,44.043433,-71.666811,Cooper Memorial Dr
185,43.761126,-71.596426,Beede Rd
526,44.306558,-71.774521,Ammonusuc St
185,43.668478,-71.744729,Oak Ln
276,43.739766,-71.665900,N Ashland Rd/Reach Dr
1355,43.756790,-71.692769,Cummings St/Langdon St
185,43.713319,-72.286225,Hilton Field Rd
160,43.749883,-72.217650,Carriage Ln/Lyme Rd
418,43.763401,-71.691372,Bayley St
216,43.869279,-71.666967,/I- 93
216,43.865386,-71.634467,Village Rd
390,43.958963,-71.508803,Boulder Path Rd/Boulder Way
185,43.684081,-72.287373,Field Rd/Gould Rd
185,43.643710,-72.150746,C-More Farm Dr
160,43.938458,-71.688538,Mirror Lake Rd/I- 93
276,44.029985,-71.684712,Kancamagus Hwy
160,44.277102,-71.641117,Hancock Ln/Main St
216,43.758120,-71.672861,Chapel Ln
305,43.599881,-72.170184,Old Rte 10
185,43.958685,-71.510873,W Branch Rd/Birch Brook Ln
185,43.762759,-71.696866,Merrill St/Batchelder St
160,44.181704,-71.712721,/Pioneer Rd
276,43.559075,-71.944431,Main St/Library Rd/Mascoma Valley Rd
160,44.238177,-71.879737,US Hwy 302
160,43.721360,-71.669351,Pines Rd/Daniel Webster Hwy
160,44.059689,-71.632990,Highview Rd
216,44.136847,-72.025123,/Hospital Dr/Eula Dr
185,43.685567,-72.294214,Oakridge Rd
185,44.213526,-71.911001,Dartmouth College Rd
185,43.784668,-71.676103,I- 93
185,43.731946,-71.570708,US Hwy 3/Tall Timber Dr
160,43.746683,-71.647639,Blue Sky Dr/State Rte 175
160,43.699450,-71.649813,Daniel Webster Hwy
276,43.764259,-71.711302,Highland St/Old 25 Rd
185,44.280320,-71.687659,Agassiz St/Main St
185,44.280710,-71.755349,W Farm Rd/
160,44.308428,-71.781095,Meadow St/Main St/State Rte 18
160,44.029106,-71.685619,Courtney Rd/Main St
216,44.152533,-72.037132,S Court St/N Court St/Central St
160,43.988822,-71.674880,Eastside Rd/Tripoli Rd
160,43.961282,-71.673581,Eastside Rd/State Rte 175
160,43.723270,-71.559321,US Hwy 3
185,44.138329,-72.025204,Ralston Rd/Brill Hill
185,43.690202,-71.633414,Winter St/Depot St
160,43.701509,-71.778910,Crescent St
526,43.695913,-71.632723,Gordon St
246,43.702160,-72.296058,Sargent St
334,44.144873,-72.035222,High St
185,43.892449,-71.612647,Tree Line Rd
216,44.063822,-71.689734,I- 93
185,44.030860,-71.688706,School St/Fadden Dr
658,43.948810,-71.507590,Snow's Brook Rd/Mountain Brook Way/Packard's Rd
1982,43.759773,-71.686679,Holderness Rd/Bridge St
160,43.567411,-71.960007,Pine Grove Ln/Mascoma Valley Rd
631,43.700268,-72.287004,Sargent Pl
185,43.694836,-71.769487,Mayhew Tpke
160,43.920110,-71.888612,Bixby Ln
276,43.591258,-71.736340,Pleasant St/Summer St/Central Square St
216,43.721078,-71.556347,White Oak Pond Rd
216,44.151053,-72.035311,Railroad St
276,43.695759,-72.279874,Lebanon St/O'Leary Ave
185,44.179263,-71.691934,I- 93/Profile Rd
3981,43.757409,-71.688312,Post Office Sq
160,44.066253,-72.047431,Prvdr
472,43.768934,-71.682378,/I- 93
160,44.049246,-71.671336,/Woodland Loop
160,44.055793,-71.665796,Charkarohen Dr/Spruce Dr
216,43.641773,-72.268037,Bomhower St Exd/Bomhower St/Shortcut St
185,43.750401,-71.765418,Ledgeview Way
160,43.850930,-71.644616,State Rte 49/
216,43.588458,-71.735648,Prospect St/2nd St
160,43.870153,-71.669077,I- 93
185,43.692492,-71.769656,Merrill Rd
160,43.877817,-71.613874,/State Rte 49
160,43.621901,-72.147224,Simple/gifts Ln/Chosen Vale Ln
160,43.589300,-72.078425,Boys Camp Rd
185,43.913724,-71.671209,Chester's Way/State Rte 175
160,43.615604,-72.141478,Wolfson Ln
185,43.634307,-72.206976,/Mascoma Valley Rd
160,43.879320,-71.801984,Stinson Lake Rd
216,43.954018,-71.680825,/Daniel Webster Hwy
160,43.640669,-72.226556,Lr Dorothy Pexle Rd
160,44.282121,-71.659101,Lincoln Way/Other End Ln/Maplewood Farm Rd
216,44.222142,-71.733924,/Forest Hill Rd
160,43.868224,-71.668448,Daniel Webster Hwy
185,43.771653,-71.703147,Lacourse St/Cooksville Rd
6671,43.757782,-71.689785,Summer St
160,43.901958,-71.989381,Upper Baker Pond Rd/State Rte 25A
160,43.639427,-72.252751,Valley St/Water St
216,43.810603,-72.156317,Pleasant St/Main St
445,43.758789,-71.694766,Highland St/Hospital Rd
276,43.706160,-72.285509,Observatory Rd
185,43.612882,-72.191588,I- 89
160,43.636080,-72.245361,School St/Messenger St
160,43.885768,-71.619703,Pasture Ln
160,43.984174,-71.675757,I- 93
185,44.308470,-71.758298,Pike Ave/Union St
216,43.637253,-71.768879,Greenwood Path/Greenpath Pkwy
160,43.657925,-72.250028,Wolf Rd
160,43.646207,-72.238266,Cedar St/Riverdale Pkwy
160,43.791943,-71.748875,/Loon Lake Rd
160,44.316458,-71.718629,Whitefield Rd
605,44.050896,-71.658947,Pollard Rd/Main St/Kancamagus Hwy
246,44.309223,-71.772903,School St/High St
418,43.643890,-72.251800,Taylor St/
160,43.652798,-72.305401,Green St W
160,44.214392,-71.911142,School St
160,43.810211,-71.672771,Heights Rd/Bog Rd
445,43.756124,-71.696559,Pleasant St/Avery St
160,43.876186,-71.646095,/Rogers Dr
185,44.065021,-71.689237,I- 93
216,43.926428,-71.890734,Studio Rd/Water St
216,43.685064,-72.269250,Mount Support Rd
185,43.712880,-72.286790,Occom Ridge
160,43.764489,-71.953773,Cummings Pond Rd/N Dorchester Rd
160,43.687933,-72.294118,Pinewood Village Rd
160,44.298568,-71.768702,Bethlehem Rd/Cottage St
160,44.277556,-71.687476,Cross St/Agassiz St
418,44.180670,-71.713494,/Mittersill Rd
160,43.964976,-71.688016,Harper Dr
185,44.222448,-71.733467,I- 93/Forest Hill Rd
160,44.287646,-71.747016,/I- 93
160,43.599393,-71.724312,Summer St
160,43.839728,-71.692038,Mespelli Rd
160,43.793484,-71.849335,Old Rte 25/Stagecoach Rd
160,43.771749,-71.675725,State Rte 175/Pemi River Hts
160,44.299753,-71.771523,Bronson St/Colonial Ct
160,43.852025,-71.627814,McCoy Ct/Merrill Rd
160,44.178767,-71.716783,Mittersill Rd/Woodchuck Trl
160,43.778267,-71.701888,/Beech Hill Rd
2569,43.703274,-72.290325,Massachusetts Row/Cemetery Ln
160,43.975972,-71.682394,Pemi Ln
216,43.701987,-72.298158,/Downing Rd
185,43.838870,-71.650669,I- 93
276,43.686701,-71.641832,Collins St
276,43.859602,-71.806418,Cross Rd/Lodge Ln
160,44.118619,-71.682178,I- 93
276,43.648024,-72.255173,Williams St/Ela St
216,43.897779,-71.621433,/Rocky Hill Rd
160,43.725962,-71.601518,Old Ledger Rd/US Hwy 3
499,43.646178,-72.254304,Lareau Ct
160,43.723012,-71.559396,US Hwy 3/Shepard Hill Rd
246,43.628897,-71.756458,Browns Beach Rd
185,43.658293,-72.249173,Wolf Rd
160,43.637611,-72.311552,Elm St W
216,43.952243,-71.681508,Jack O'Lantern Dr
185,43.749172,-71.764809,Slopeside Dr/Eagles Nest Rd
246,43.940119,-71.690798,/Mirror Lake Rd/Dance Hall Dr
160,43.641577,-72.142354,Depot St
216,43.646829,-72.256590,Amsden St/Colburn St
185,43.787598,-71.914510,Dorchester Rd
185,43.590899,-71.739820,/Pleasant St
305,43.696471,-72.280326,Lebanon St/Brockway Rd
160,43.957083,-71.680874,/I- 93
160,43.631812,-72.290946,/Poverty Ln
160,44.043077,-71.676793,Greenridge Rd
160,43.643234,-72.275332,/Mascoma St
390,43.643667,-72.254550,Hanover St/High St
160,43.649166,-72.306609,Dana St/Timothy St
276,43.558962,-71.943935,/Mascoma Valley Rd
246,43.947114,-71.507874,Mountain Sun Way
334,44.059782,-71.618453,Black Mountain Rd
276,43.695174,-72.279506,Storrs Rd/Lebanon St
160,43.628719,-71.790679,Fairview Ln/Fox Hollow Rd
246,43.699923,-72.285960,South St/Sanborn Rd
1511,43.705508,-72.287551,Fayerweather Hill Rd/College St
185,43.612564,-72.142402,State Rte 4a/Meadow Ln
185,43.619626,-72.146957,State Rte 4a/Caleb Dyer Ave
216,44.296956,-71.768674,Cottage St
185,44.260341,-72.053493,Plains Rd/Fairfield Rd
246,43.866794,-71.639003,Osgood Rd/State Rte 175
160,44.281210,-71.674294,/Main St
185,43.709757,-72.265473,Pine Dr
160,43.869339,-71.638207,Robertson Rd/Mad River Rd
160,43.883873,-71.599750,Burbank Hill Rd/Upper Mad River Rd
160,43.767575,-71.739821,/Industrial Dr
160,43.646323,-72.009281,US Hwy 4/Mascoma Valley Rd
246,43.861949,-71.632765,State Rte 49/State Rte 175
185,43.989185,-71.673418,I- 93/Tripoli Rd
246,43.760630,-71.677638,I- 93
185,43.878735,-71.668291,Beacon Hill Rd
246,43.696589,-71.632602,Highland St/Cottage Pl
418,43.702964,-72.281472,Valley Rd
3643,43.757094,-71.687795,/Highland St/Main St
1563,43.704231,-72.286516,Fayerweather Hill Rd
160,44.309182,-71.789089,Meadow St
418,44.060543,-71.627969,Big Rock Rd/Fox Run Rd
334,43.697427,-72.280804,Lebanon St/S Park St
160,43.623724,-72.198672,Stoney Brook Rd/Stoney Brook
185,43.637691,-72.276573,Mechanic St
185,43.700611,-71.779770,Loon Island Ln
160,43.945876,-71.510793,Cleanwater Ln
160,43.682684,-72.293042,Dartmouth Field Rd
185,44.053720,-71.671218,Forest Cir
216,43.632045,-71.740392,/Pikes Point Rd N
185,43.793826,-71.680081,Beaver Brook Rd/Lower Loop Rd/Lower Loop
216,43.962476,-71.675254,Koa Campground
185,44.213209,-71.911660,Dartmouth College Rd
160,44.218151,-71.912650,Lincoln A
160,44.320091,-71.673021,Pond Vw
276,44.142562,-71.683436,/Lafayette Place Campground
160,43.644632,-72.177980,State Rte 4a/Olympic Trailer Park
160,44.315207,-71.757339,Chickadee Ln
216,44.152921,-72.037933,Pleasant St/Central St
160,43.652871,-72.080978,Wendel Station Rd/US Hwy 4
216,44.062863,-71.616346,Granite Rd/Easterly Rd
185,43.791368,-71.802848,Glory Ave/Beaulah Ave
658,44.042577,-71.670424,Main St/Lin-Wood Dr
658,43.768249,-71.683691,Foster St
185,43.907518,-72.139897,Bridge St
160,43.796958,-71.751155,Loon Lake Rd
160,43.879759,-72.091836,State Rte 25A
246,43.650186,-72.253484,I- 89/Hanover St
185,43.695737,-71.769369,Mayhew Tpke
736,44.045450,-71.668557,Cross St/Maple St
5612,43.760810,-71.691553,Langdon St/High St
216,43.627782,-71.753808,Shackettis Rd
246,43.867011,-71.638897,Osgood Rd/Osgood St
390,43.747883,-71.665416,I- 93
185,43.640065,-72.225278,Winona Cir
160,44.310610,-71.745680,McBean Cir
160,43.627526,-72.319575,Interchange Dr/Plaza Heights Rd
160,43.892212,-71.620458,Strawberry Ln
276,44.308097,-71.754781,Union St/Bryan St
246,44.179159,-71.714372,/Deer Pass Rd/Alpen Hill Rd
160,43.641987,-72.228199,I- 89
216,43.961081,-71.674874,Koa Campground
1123,43.755187,-71.691287,Garland St/Keeble St
276,43.656811,-71.740864,Whittemore Point North Rd
160,43.654672,-72.012391,Blain Rd/Maggies Way
276,43.636738,-72.282851,I- 89
160,44.060683,-71.624465,Brookside Rd
276,43.686830,-71.642141,I- 93
160,43.701836,-71.650364,Daniel Webster Hwy/Cedar Ln
185,43.642957,-72.256422,West St
185,43.956116,-71.510844,High Country Way
160,43.643500,-72.235475,Cooper St
246,44.309258,-71.781730,Woodside Ave
160,43.881482,-71.599242,Apple Hill Dr/
160,43.691251,-72.269170,Mount Support Rd/Greensboro Rd
305,43.754605,-71.693263,Langdon St/Wentworth St
185,43.627650,-72.318318,/Plaza Heights Rd
160,43.638383,-72.247851,School St/Prospect St Exd
160,44.030717,-71.697067,Sargent St
185,43.639042,-72.222625,Bank St/Hardy Hill Rd
160,44.083919,-72.025270,Mountain View Rd/
418,43.644480,-72.255264,/Hough St
160,43.859426,-71.604126,Boulder Ct
160,43.649777,-72.252634,I- 89
160,43.926406,-71.889767,Studio Rd/Island Rd
305,44.048377,-71.684904,Old Airport Rd/Riverside Cemetery Rd
160,43.846090,-71.910510,Moosilauke Rd
160,43.994131,-71.670645,I- 93
579,43.642166,-72.252327,/W Park St
160,43.896136,-72.147109,Orford Rd
160,43.689562,-71.636634,Dixon Hill Rd/Depot St
185,43.770888,-71.753304,Yeaton Rd/Tenney Mtn Hwy
160,44.035880,-71.686750,Alpine Village Dr
185,43.567123,-72.149038,Grantham Ln/
160,43.691441,-71.625616,/Winona Rd
160,43.760839,-71.658942,Heritage Hill Rd
185,44.035974,-71.688001,Alpine Village Dr/Adams Dr
3925,43.759125,-71.692074,Langdon St/Edmunds Ct
216,43.652563,-72.244929,Heater Rd
276,44.060053,-71.631918,Hardwood Ridge Rd/Whaleback Rd
3531,43.701453,-72.289415,Allen St/S Main St
891,43.761095,-71.684239,Boe Rd
246,43.582103,-72.162112,I- 89
390,43.707950,-72.283741,College St
1641,43.761710,-71.687133,Merrill St/Main St
246,43.953602,-71.681016,Daniel Webster Hwy
160,43.638234,-72.244450,Forest Ave/Prospect St Exd
185,43.774300,-71.539967,Deep Haven Rd/Bacon Rd/Playhouse Rd
216,44.062562,-71.622321,Ravine Ln/Birch Rd
160,43.567691,-71.960690,Mascoma Valley Rd
185,44.204157,-71.919092,Dartmouth College Highway (Rt 10)
160,43.641632,-72.230786,Liberty Ln
246,43.935826,-71.867146,Batchelder Park Rd
160,43.676924,-72.264120,Centerra Pkwy
160,43.647842,-72.115113,/W Farms Rd
276,44.047245,-71.671004,Pollard Rd/Plummer Hill Dr
160,43.646331,-72.022437,Gristmill Hill Rd/Mascoma Valley Rd
185,43.647069,-72.265392,I- 89/
160,44.172006,-71.687853,/I- 93
160,44.331718,-71.880260,/I- 93
160,44.152098,-72.032000,Ammonoosuc St/Gordon St
216,44.144902,-72.033687,Smith St/High St
334,43.810619,-72.158600,on the Cmn
185,44.047341,-71.671816,Maple St Exd
160,43.609034,-71.672442,Newfound Rd/River Rd
185,43.725710,-71.604478,US Hwy 3/Sebec Rd
185,43.627911,-71.756895,W Shore Dr
160,44.145917,-71.987718,Goose Ln
160,44.064679,-71.690568,/I- 93
185,43.771019,-71.742649,/Tenney Mtn Hwy
185,44.026963,-71.684614,Resnick Cir
160,44.059995,-71.632584,Hardwood Ridge Rd
185,43.803843,-71.675492,I- 93
160,44.028820,-71.975698,/Becket Dr
185,43.642844,-72.150468,Mascoma Valley Rd/C-More Farm Dr
160,43.782044,-71.664170,Short St/State Rte 175
185,44.047274,-71.664874,Main St
160,43.774568,-71.541258,Armstrong Rd
216,43.729923,-71.578857,Serenity Ln/Manor Dr
185,43.635304,-72.211918,I- 89/Mascoma Valley Rd
246,44.054378,-71.631698,Ram's Horn Dr
246,44.055393,-71.629913,Blue Ox Ln
526,43.951332,-71.509343,Tyler Spring Way
185,43.862240,-71.604885,Winter Brook Rd/Caldon Ct
160,43.868405,-71.600358,Marden Dr
185,43.934709,-71.687756,I- 93
185,43.644414,-72.309593,Main St
185,43.646611,-72.255318,Summer St/Ela St
276,43.703762,-72.300179,Main St
160,43.643496,-72.115520,W Farms Rd
160,44.228283,-71.746965,/I- 93
185,43.646576,-72.245859,Thompson St/Kendrick St
216,43.596594,-72.165511,I- 89
160,44.282055,-71.654616,Cedar Dr/Main St
216,43.635409,-72.212200,I- 89/Mascoma Valley Rd
160,44.055999,-71.688012,Daniel Webster Hwy
160,43.750353,-72.214263,Lyme Rd
160,43.886407,-71.611559,Berry Knoll/Sugar Run Rd
185,43.765274,-71.712425,Hitchner Rd
185,43.885033,-72.108873,Evansville Dr
246,43.647639,-72.255217,Davis Dr/Ela St
362,44.144880,-72.035392,High St
185,43.692515,-71.769677,Merrill Rd/
246,43.637920,-72.281943,/US Hwy 4
160,43.976117,-71.682254,Pemi Ln
160,44.153964,-72.040798,Central St
160,43.846335,-71.910626,Moosilauke Rd
276,43.590928,-71.736096,Central Sq/Central Square St
185,43.645686,-72.308492,Church St W/Maple St
160,43.710809,-71.525134,US Hwy 3
160,44.035131,-72.062655,School St
160,43.808432,-72.150411,Dorchester Rd/High St
499,44.306783,-71.775361,Ammonoosuc St
185,43.689333,-72.269248,Mount Support Rd
185,43.757497,-71.697064,Cooper St
160,43.716479,-71.660807,Daniel Webster Hwy
160,43.637074,-72.315999,Waterman Ave
185,44.213554,-71.910944,Hioro Blvd/Depot St/Dartmouth College Rd
472,44.049089,-71.659571,Lodge Rd
160,43.943941,-71.695810,Mirror Lake Hamlet
216,43.575550,-71.774509,McMurphy Rd/
276,43.686870,-71.642141,I- 93
160,43.868716,-71.637949,/Mad River Rd
160,44.111551,-71.968994,Hill Top View Dr/Town and Country Rd
305,43.696239,-71.632306,Highland St/School St/Cottage Pl
160,43.854898,-71.616584,Richardson Trl
160,43.602695,-71.679511,Newfound Rd/Summer St
185,44.057615,-71.623354,Black Mountain Rd
216,43.969229,-71.675540,I- 93
390,43.644332,-72.141058,Baltic St/US Hwy 4
246,43.766038,-71.715015,Highland St/Old 25 Rd/Plaza Village Rd
305,43.738031,-71.664401,Fairway Dr/N Ashland Rd
276,43.957338,-71.509297,High Country Way/Osceola Rd
216,43.763068,-71.698326,Merrill St
5167,43.764371,-71.688642,Tobey Rd
160,44.041896,-71.664033,Cooper Memorial
579,43.703931,-72.282305,S Park St/E Wheelock St/N Park St
160,43.754827,-72.223239,River Rd/Purling Brooks Dr
160,43.694380,-72.284578,/Barrett Rd/Mitchell Ln
334,43.731184,-71.586937,US Hwy 3
6062,43.762060,-71.690625,Merrill St/Tobey Rd
216,44.137406,-72.025316,Swiftwater Rd/Ralston Rd/Swiftwater Dr
362,44.308079,-71.768767,Pleasant St/Cross St
1020,44.038391,-71.675204,West St/Main St
216,43.644015,-72.235196,Cooper St/Bank St Exd
185,43.721994,-71.554174,/US Hwy 3
185,43.764911,-71.713173,Hitchner Rd/Highland St
276,43.648934,-72.098993,Royal Rd
160,43.695181,-72.282151,Ridge Rd
160,43.700200,-72.293138,Pleasant St/Maple St
185,43.631145,-72.313768,I- 89
160,44.312048,-71.784808,Rockstrain Dr/W Elm St
160,43.638780,-72.299708,Tenley Dr
216,43.871722,-71.671661,/I- 93
305,43.651587,-72.252961,Hanover St/Evans Rd
246,43.638506,-72.316236,Romano Cir
185,44.148450,-72.033992,Perkins Pl
216,43.722398,-72.263717,Town Rd
246,43.959411,-71.510647,Birch Brook Ln
160,43.630457,-71.736081,Main St/Sunset Dr
185,43.627396,-71.754437,Shackettis Rd/W Shore Rd
276,43.637898,-72.281346,/US Hwy 4
160,43.643515,-72.245485,Bank St/Shaw St
160,43.650440,-72.303792,Butternut Ln
160,44.267254,-71.815815,/Mt Eustis Rd
216,43.958500,-71.680043,Daniel Webster Hwy/I- 93
160,43.714282,-71.528808,US Hwy 3
445,44.047341,-71.686272,Daniel Webster Hwy/Connector Rd
160,43.650821,-72.258426,I- 89
185,43.770342,-71.687528,/Tenney Mtn Hwy
185,43.602573,-71.717082,/Danforth Brook Rd
246,43.893721,-71.660376,Willow Brook Rd/S Branch Rd
216,44.152726,-72.037524,/Central St
185,43.644700,-72.235338,Lilac Ave/Benton St
160,43.623063,-71.777148,Bailey Rd/Fowler River Rd
631,44.043506,-71.670546,Pleasant St
276,44.308290,-71.756037,Hill St
216,43.640382,-72.270502,Ora Ave
216,43.721928,-71.655284,I- 93
160,43.694802,-71.793458,N Shore Rd
216,43.599098,-71.725047,Danforth Brook Rd/Summer St
216,43.590643,-71.740337,Pleasant St
185,44.033703,-71.697897,Merrithew Dr
160,43.965485,-71.523383,/Ski Area Rd/Tripoli Rd
160,44.122870,-71.785605,Reel Brook Rd
246,43.664961,-72.248784,Wolf Rd Stone Farm Exn
160,43.721375,-71.549030,Turtle Alley Rd/Chabot Dr/US Hwy 3
185,43.634221,-72.305265,/Glen Rd
160,44.211085,-71.917301,West St
160,43.772477,-71.734711,Artisan Ln/Smith Bridge Rd
185,43.650207,-72.261250,I- 89
472,43.631951,-72.319630,/Main St
160,43.640244,-72.269793,Ora Ave/Myra Ave
160,43.902791,-71.667269,State Rte 175/Main St
246,43.704430,-72.280524,E Wheelock St/N Balch St/S Balch St
185,43.627131,-71.752979,Manor Estates Dr
418,44.061089,-71.626412,Big Rock Rd/Fox Run Rd/Overlook Rd
160,44.128399,-71.958499,White Mt Dr
185,43.703017,-72.280215,Valley Rd/S Balch St
160,43.801639,-71.678027,Beaver Brook Rd/Bonnaccolto Pl
160,43.656811,-72.248732,Old Etna Rd/Wolf Rd
160,43.762892,-71.711046,Birchwood Dr
216,43.632703,-71.759835,Gallahad Ln/Lancelot Ln
160,44.121675,-71.955925,White Mountain Dr/White Mt Dr
305,43.770551,-71.719735,Tenney Mtn Hwy
216,44.053526,-71.641512,Loon Brook Rd/Big Stone Rd
160,44.056650,-71.623704,E Branch Dr/Beechnut Dr
246,43.626129,-71.751241,Manor Estates Dr
334,43.868656,-71.604793,Green Cir/Hodgmans Hill Rd
305,43.590624,-71.735951,Central Square St
216,43.590604,-71.733860,Merrimack St/Central St
305,43.724266,-71.609829,US Hwy 3
160,43.696603,-71.637796,Main St/Industrial Dr
185,43.939681,-71.691195,Dance Hall Dr
246,44.036448,-71.689952,Alpine Village Dr/Hays Dr
160,43.704753,-72.277281,Brewster Rd
160,43.773964,-71.701514,Quincy Rd/Fairgrounds Rd
3419,43.754447,-71.689510,Gould Ter/Russell St
160,43.880996,-71.596471,Andys Dr
160,43.684627,-72.269128,/Mount Support Rd
160,43.798202,-71.676536,I- 93
246,43.868046,-71.664925,I- 93
160,43.756396,-71.699621,Pleasant St/Broadway St
160,44.032270,-71.696061,Sargent St/Lost River Rd
216,44.310198,-71.785960,Patriots Dr/State Rte 18
216,44.299986,-71.770095,Mount Eustis Rd
445,44.042023,-71.669241,Papermill
185,43.658450,-72.024948,Corno Rd/Fernwood Farm Rd
160,43.839065,-71.692495,Morris Ln
160,43.562903,-71.768330,Berry Rd
160,44.315411,-71.782016,Rock Strain Dr/Tuck Ln
160,44.028599,-71.979492,Mt Moosilauke Hwy
185,44.215630,-71.913965,Woolson Rd/Grafton St
216,43.575500,-71.774108,McMurphy Rd/Karl Gordon Rd
3447,43.702429,-72.289340,W Wheelock St/E Wheelock St/S Main St/N Main St
185,43.645748,-72.102564,Jones Hill Rd/Blackwater Rd
216,43.621754,-72.146144,Water Lily Ln/Chosen Vale Ln
4699,43.764450,-71.689624,Tobey Rd
2895,43.760037,-71.687347,Main St/High St
185,43.627113,-71.753885,Waring Rd/W Shore Rd
160,43.871318,-71.607768,Snowood Dr/Hodgmans Hill Rd
185,44.144956,-72.032264,Smith St/Central St
216,44.030778,-71.688244,Fadden Dr
160,43.649208,-72.253613,Barrows St/Hanover St
2168,43.705110,-72.291431,Tuck Mall/
160,43.942558,-71.687969,Tannery Rd
1824,43.753732,-71.687845,Main St
185,43.625800,-71.751110,Weedburg Dr
216,43.791841,-71.802561,Beaulah Ave
185,43.567146,-72.149010,Grantham Ln
276,43.643321,-72.255355,High St/Light St
185,43.747250,-71.686438,Chaddarin Ln
160,43.839419,-71.692341,Mespelli Rd
216,43.629370,-72.309718,Airport Rd
160,44.326925,-71.807438,/N Littleton Rd
185,43.589848,-71.736969,2nd St/Beech St
865,43.642715,-72.252413,W Park St
390,44.040314,-71.673021,Franklin St/Paper Mill Dr/Main St
160,44.038340,-71.682638,Ridge Dr C
246,43.687076,-71.641537,Collins St
445,44.042594,-71.665679,Cooper Memorial Dr/Bunker Ln
185,43.960490,-71.682317,Daniel Webster Hwy
185,43.625864,-71.750725,W Shore Rd
216,43.920618,-71.641506,Falls Rd
160,43.793859,-72.132142,Baker Hill Rd
160,43.684147,-72.268975,Mount Support Rd
684,44.042620,-71.670376,Papermill/Main St
216,43.783226,-71.665028,Morin St
216,43.658767,-71.793028,S Face/S Ledge Loop
185,43.870393,-71.643167,State Rte 175
246,43.867860,-71.665288,I- 93
160,43.620358,-72.147254,State Rte 4a
185,43.699118,-72.214052,Partridge Rd
246,43.641143,-72.147268,Main St/Blacksmith Aly
160,43.586901,-71.749060,Pleasant St
246,43.858952,-71.598413,Forest Dr
305,43.645089,-72.253823,Hanover St/Eldridge St
160,43.809988,-72.154876,on the Cmn/Market St
185,43.653782,-72.090265,Stark Hill Rd/US Hwy 4
185,43.619619,-71.733376,Lake St/Ravine Dr/Main St
160,43.965466,-71.687442,Rocks Village Dr
160,44.060862,-71.624482,Brookside Rd
216,43.782417,-71.663867,State Rte 175/Trapper Brown Rd
160,44.301969,-71.750928,/Keeler Rd
185,44.300890,-71.768618,Mount Eustis Rd/Cottage St
185,43.634140,-72.327757,I- 89
160,43.644665,-72.116111,/W Farms Rd
185,43.640873,-72.269556,Myra Ave/Freeman Ave
216,43.650308,-72.255144,I- 89
185,44.295144,-71.768661,I- 93/Cottage St
185,43.685859,-72.293841,Scott Ave
1149,44.037923,-71.675736,Main St
216,43.945984,-71.500312,Forest Rim Way/Bobcat Way
276,43.758143,-71.673239,S Campus Rd/Chapel Ln
246,44.119705,-71.682116,/I- 93
160,43.640719,-72.148648,Main St
160,43.903592,-71.989718,Upper Baker Pond Rd/Camp Rd
160,43.945235,-71.506759,Forest Knoll Way
160,44.168923,-71.962194,Lisbon Rd/High St
3225,43.702138,-72.289348,S Main St/Old Nugget Aly
160,43.868248,-71.668545,/Daniel Webster Hwy
276,43.656717,-71.741675,/Whittemore Point North Rd
185,43.960156,-71.679076,I- 93
160,43.642466,-72.257447,Child St/Granite St
3115,43.702405,-72.290263,W Wheelock St/Massachusetts Row
160,44.307269,-71.771010,Hill View Ter
216,43.632914,-71.758923,Kay Ln/Gallahad Ln/Gareth Ln
185,43.618655,-72.143765,/Landing Rd
216,43.691513,-71.791550,Lakeshore Dr
160,43.690222,-72.291359,Wyeth Rd/S Main St
216,44.302077,-71.772977,Bronson St
160,43.648639,-72.311972,Commercial Dr
160,43.644365,-72.177591,State Rte 4a/Olympic Trailer Park
160,43.804473,-71.812971,Quincy Rd/Buffalo Rd/Main St
185,43.619390,-71.733969,Silver Shares
185,43.643838,-72.234576,Fortune St/Bank St Exd
160,43.690129,-72.291411,S Main St/Dunster Dr
185,43.729044,-72.267502,Lyme Rd
160,43.690505,-72.265555,Mink Dr
160,43.643460,-72.233099,Alden Rd/Bank St Exd/Bank St Exn
160,43.659478,-71.795393,S Ledge Loop
185,43.897463,-72.144693,Sawyer Brook Rd
160,43.659420,-72.248877,Wolf Rd
216,43.621025,-72.145965,Chosen Vale Ln/Caleb Dyer Ln
160,44.310607,-71.745269,McBean Cir
216,43.644333,-72.233565,Heater Rd
160,43.908092,-71.691739,I- 93
160,43.693583,-72.219995,Etna Rd/School House Ln
160,43.944442,-71.510168,Tripoli Rd
160,43.642024,-72.247803,Green St/Elm St
185,43.850681,-71.648262,Campton Village Rd
160,43.716122,-71.530460,US Hwy 3/Laurel Island Ln
579,44.042160,-71.669609,Papermill
185,43.634552,-72.329231,I- 89
160,43.589058,-72.099192,King James Rd
246,43.905283,-72.137102,Dartmouth College Hwy/Bridge St
185,43.846925,-71.645183,/I- 93
658,43.695206,-71.632572,Main St/Gordon St
160,44.261530,-72.058392,Frazier Rd/McIndees Falls Rd
216,44.020615,-71.676207,I- 93
736,43.702397,-72.292110,W Wheelock St/Cemetery Ln
160,43.612057,-72.191483,Whaleback Mountain Rd
160,44.056644,-71.623858,E Branch Dr/Sams Way
160,43.644405,-72.232014,Alden Rd/I- 89
160,43.639274,-72.278313,I- 89
246,44.051695,-71.652528,W Branch Rd
160,43.643455,-72.257259,/Light St
160,43.616290,-71.739002,Williams St/Cottage Rd
160,44.090597,-71.683702,Daniel Webster Hwy
1252,43.702379,-72.291481,School St/W Wheelock St
185,44.150605,-72.032481,Gordon St
160,43.773741,-71.701646,Cooksville Rd/Fairgrounds Rd
160,43.988906,-71.674200,/Tripoli Rd
185,43.617745,-71.741493,Hillgate Rd/Holiday Hills Rd
305,43.753367,-71.671097,I- 93
185,44.064897,-71.689189,/I- 93
160,43.849612,-71.666157,Daniel Webster Hwy/Turkey Jim Rd
185,43.647160,-72.135335,Chester Ln/Anderson Hill Rd
362,43.643674,-72.254874,High St
334,43.620793,-72.144779,Choosen Vale Ln/Chosen Vale Ln/Caleb Dyer Ln
216,43.606023,-72.129886,State Rte 4a/Marsten Ln
185,44.051419,-71.657631,/Kancamagus Hwy
160,43.953089,-71.504617,/Valley Rd
160,43.585677,-71.737846,Ellen Ln/Chestnut St
160,43.693332,-72.219836,School House Ln
185,43.838766,-71.650750,I- 93
160,44.152509,-72.034580,Holly St/Ammonoosuc St
160,43.616424,-71.739899,/Cottage Rd
160,43.851888,-71.627278,McCoy Ct
185,43.855715,-71.608960,Winter Brook Rd/Porcupine Dr
185,43.658573,-72.248411,Wolf Rd
160,43.585013,-71.731343,/Green Acres Dr
160,43.717114,-71.666786,Highland Ter
362,43.641814,-72.250586,School St
1485,43.703659,-72.285967,/Observatory Rd
160,43.910830,-71.656620,Millbrook Rd/Robin Hill Rd
160,43.761246,-71.671539,State Rte 175/State Rte 175A
160,44.124801,-71.956786,Rogers Rd/White Mt Dr
5972,43.758242,-71.692337,Highland St/Langdon St
160,43.960071,-71.681632,/Daniel Webster Hwy
216,43.781636,-71.672872,Valley View Ln/Pemi Dr
185,43.636768,-72.212541,I- 89/
160,43.892540,-71.613338,Tree Line Rd
246,43.954188,-71.680328,Fairway Dr
185,43.851175,-71.635052,State Rte 175/Bluff Rd
160,43.725437,-71.600902,Old Ledger Rd
160,44.064162,-72.047588,Indian Corn Mill Rd/Castle Rd
305,44.064942,-71.686341,Daniel Webster Hwy/Drummer Ln
246,43.617056,-71.738425,Williams St/O'Brien Rd
216,43.850746,-71.664841,Chesley Rd
160,44.196591,-71.719467,Champions Way
185,43.639412,-72.251762,Valley St/Church St
185,43.644441,-72.303832,Village Green
160,44.240791,-71.877785,Jeep Trl
216,44.052357,-71.639492,Westwood Dr
160,43.745430,-71.760531,John French Dr
160,43.945341,-71.505175,Tecumseh Rd/Valley Rd
185,43.640979,-72.252027,Church St
160,44.213061,-71.918767,Forest Hill Rd/Highland Ave
605,43.643598,-72.251465,/Flynn St
185,43.898609,-71.651163,Sunrise Hill Rd
362,44.308387,-71.782496,Saranac St/Meadow St
362,43.695029,-71.630626,Main St
160,43.957156,-71.508236,Tree House Ln/Boulder Park Rd
246,43.881963,-72.076513,Quinttown Rd/Brothers Rd
160,44.277595,-71.674334,James St
160,43.602208,-72.101385,/Woodland Ln
160,43.855086,-71.616372,/Richardson Trl
160,44.047589,-71.669525,Pollard Rd/O'Brien Ave
160,43.737858,-71.665084,Fairway Dr/Meadow Ln/Fox Meadow Dr
160,44.080000,-71.996065,Cold Spring Dr/Benton Rd
185,43.921412,-71.676067,River Run Rd/Herbert St
216,43.653925,-72.251501,/Hanover St
160,43.673752,-72.272745,Hitchcock Loop Rd/Lahaye Dr/Medical Center Dr
185,43.616253,-71.743810,Wind Ridge Rd/Windridge Dr
216,43.743472,-71.662347,N Ashland Rd/I- 93
160,43.638128,-72.139727,Mill St/Shaker Hill Rd
160,43.646530,-72.160322,Adams Rd/Mascoma Valley Rd
160,44.030145,-71.689036,Courtney Rd
185,44.061764,-71.687543,Daniel Webster Hwy/I- 93
334,43.854899,-71.634728,Winter Brook Rd/State Rte 175
160,43.922581,-71.685849,/Daniel Webster Hwy
160,43.638743,-72.245698,Millen Ln
246,43.652948,-72.244038,State Rte 120
160,44.223478,-71.743124,Harvard St/Dow Ave
160,43.567693,-72.150816,I- 89
185,43.627186,-71.753770,Waring Rd
418,44.048251,-71.680526,Duck Pond Way
1329,43.704217,-72.286145,/Ivy Ln/Observatory Rd
185,43.772805,-71.701603,Cooksville Rd
160,43.908462,-71.685081,Downing Rd
160,43.738677,-71.666146,Fox Meadow Dr
418,43.850675,-71.643392,Vintinner Rd
160,43.653628,-71.736578,/Mayhew Tpke
362,43.792788,-71.805215,Tabernacle St/Gilford Ave
7414,43.757593,-71.689878,Highland St/Summer St
185,43.901185,-72.142106,Orford Rd
185,44.299539,-71.770536,Mount Eustis Rd
160,43.855012,-71.616411,Richardson Trl
216,43.651626,-72.243030,Labombard Rd/Lombard Rd/Heater Rd
334,43.768406,-71.682107,I- 93
160,43.616044,-71.735879,Bennett Ln/Main St
276,43.958292,-71.508560,Stone Tower Ln/Boulder Park Rd
160,44.208791,-71.774661,Carpenter Rd/Hayward Ln
185,43.850797,-71.660127,/Branch Brook Rd
185,43.698971,-72.213830,Etna Rd/Partridge Rd
246,43.594493,-72.166121,/I- 89
160,43.613574,-71.800026,Town Well Rd/Washburn Rd
160,43.628086,-71.766126,W Shore Rd
185,43.643008,-72.256834,Jordan Ct/West St
160,43.768121,-71.686099,Daniel Webster Hwy/Main St
160,43.650451,-72.060215,US Hwy 4/Lafortune Rd
246,44.052522,-71.640684,Adams Woods Dr
160,43.675366,-71.757670,Mayhew Tpke
185,44.144013,-71.681165,I- 93
160,43.622478,-72.147336,Simple/gifts Ln
160,44.258971,-71.467250,Crawford Ridge Rd
160,43.647410,-72.101941,US Hwy 4
185,43.953611,-71.501639,Flat Mountain Rd
362,44.049505,-71.663069,Boyle St/Pollard Rd
160,43.767056,-71.719527,Adrians Way
362,43.646934,-72.253538,Hanover St
216,43.788219,-71.914180,River Rd/Dorchester Rd
160,43.618584,-72.146765,State Rte 4a/Landing Rd
246,44.142337,-71.683222,Lafayette Place Campground
305,44.053508,-71.639697,Govenors Ln/Sasparilla Ct/Governors Rd
160,43.623268,-71.656283,River Rd/
160,43.637525,-72.301073,Hampshire Ter/US Hwy 4
246,43.603717,-72.129077,Turner Pl
1278,43.759112,-71.684278,Avery St/S River Rd/Avery Rd
276,43.947151,-71.508595,Garage Way/Meadowbrook Ln
160,43.627645,-71.734189,Wicom Rd/Fox Run
216,43.658576,-72.245830,Old Etna Rd
160,43.600560,-72.167491,I- 89
160,43.778594,-71.701875,Beech Hill Rd
216,43.696252,-71.637068,School St/Main St
160,43.805014,-71.812828,Quincy Rd/Main St
160,44.057567,-71.682801,I- 93
185,44.280088,-71.691308,Park Ave/Main St
160,44.019298,-71.683822,Parker Ledge Rd
276,43.650274,-72.312129,Bridge St/Commercial Dr/Crafts Ave
1355,43.706296,-72.291150,Tuck Dr/Webster Ave
160,43.692256,-71.630927,Mill St
305,43.854992,-71.634497,Winter Brook Rd
185,43.618379,-71.735306,Silver Shares
185,43.894118,-72.087251,/Dame Hill Rd
334,44.046590,-71.685242,Riverside Cemetery Rd/Connector Rd
276,43.647247,-72.250895,State Rte 120
185,43.700207,-72.293664,Maple St/Prospect St
390,44.304067,-71.769667,South St/Cottage St
160,43.730817,-71.584010,Perkins Ln/US Hwy 3
160,43.603881,-72.094472,Doolittle Dr/Beckwith Ln
3197,43.759103,-71.692831,Edmunds Ct
185,43.833453,-71.659916,King Rd/Daniel Webster Hwy
246,43.947325,-71.508864,Pine Tree Way/Meadowbrook Ln
160,43.604559,-72.133155,Marsten Ln
246,44.029473,-71.683698,Profile Dr
185,43.587907,-71.803687,Cass Mill Rd
160,44.284880,-71.685538,Cemetery St/Croft St
160,43.635770,-72.213248,Mascoma Valley Rd
185,44.284432,-71.743960,I- 93/Main St
216,44.020747,-71.676805,I- 93
185,44.311051,-71.787842,Farr Hill Rd/State Rte 18
160,44.308115,-71.779530,/Main St
334,43.760010,-71.678349,State Rte 175A
185,43.863955,-71.614245,Pegwood Rd/McLaren Dr
185,43.811528,-71.808702,/Mill Rd
160,43.718739,-71.618854,Old Tl Rd
305,43.774253,-71.543560,Rockywold Rd/Playhouse Rd
185,43.643147,-72.114776,W Farms Rd/Blackwater Rd/US Hwy 4
216,43.958676,-71.680416,/I- 93
526,43.758773,-71.694507,Highland St/Emerson St
160,44.284500,-71.742889,Dartmouth College Rd
185,44.215347,-71.913684,School St/Grafton St
185,43.870303,-71.671522,Adams Farm Rd
185,43.886915,-71.620881,Strawberry Ln
276,43.713174,-71.650641,I- 93
185,43.791992,-71.804565,Praise St/Glory Ave
305,43.642814,-72.124810,US Hwy 4
276,44.030647,-71.681309,Deer Park
160,44.326789,-71.807331,/N Littleton Rd
216,43.596624,-72.165737,I- 89
216,44.046219,-71.684751,Connector Rd/Bern-Dibner Rd
185,43.960860,-71.682610,Daniel Webster Hwy
160,43.649959,-72.188533,/Sunset Rock Rd
160,43.654371,-72.308018,Estabrook Cir/Maple St
160,44.279558,-71.680781,Blandin St
246,43.644482,-72.234523,Benton St
160,43.635742,-71.760854,Old Peter
658,43.646507,-72.253717,/Summer St
160,43.950560,-71.501143,Valley Rd
216,43.649913,-72.303773,Thomas Ave/Highland Ave
3170,43.764997,-71.690239,Tobey Rd
185,43.850829,-71.645846,I- 93/Waterville Rd
160,44.054647,-71.639456,Riverside Dr
579,43.643593,-72.251786,/Flynn St
788,44.306215,-71.770850,Eames Way/Main St
160,43.654292,-72.309017,Chandler St/S Main St
185,43.665401,-72.257515,/Mount Support Rd
160,43.814372,-71.633982,/Birch Cir
160,44.047465,-71.669574,O'Brien Ave
185,43.638614,-72.279892,I- 89
160,43.642781,-72.272447,I- 89/Mascoma St
185,43.828723,-71.656034,I- 93
160,43.870568,-71.643367,State Rte 175/Wallace Dr
305,43.850152,-71.640317,/Riverside Dr
276,43.695478,-71.629146,Thompson St/High St
160,43.831989,-71.897629,Moosilauke Rd
160,43.696852,-71.769222,Mayhew Tpke/Mowglis Dr
390,43.621266,-72.144870,/Choosen Vale Ln
246,43.769115,-71.685495,Foster St//Daniel Webster Hwy
160,43.635747,-72.295082,US Hwy 4
185,44.309433,-71.761975,Pine St
160,43.706732,-71.854856,Sculptured Rocks Rd
160,44.324930,-71.882615,Wagonwheel Rd
246,44.053336,-71.652533,Brookline Rd
160,44.171581,-71.687020,I- 93
185,43.947148,-71.499983,Bobcat Way
390,43.643866,-72.254640,Hough St/High St
216,43.950429,-71.508252,Snow's Brook Rd/Village Rd
160,43.960815,-71.683498,Dwarf Condo Rd
160,43.634184,-72.207826,Mascoma Valley Rd
216,44.144185,-72.033658,Smith St/Birch Ln
185,43.618382,-72.144080,Landing Rd/Mastro Ln
160,44.320328,-71.672796,Whitefield Rd
160,44.281923,-71.659150,Main St/Maplewood Farm Rd
160,44.054898,-71.688564,Daniel Webster Hwy/Maltais Farm Rd
185,43.875018,-71.630512,Uhlman Dr
160,44.022042,-71.681896,Eastside Rd
160,44.079105,-71.996342,Cold Spring Dr/Blackberry Acres/Blackberry Dr
216,43.958785,-71.680352,Daniel Webster Hwy/I- 93
160,43.640634,-71.735501,Souse St/Mayhew Tpke
185,43.702003,-72.085009,Goose Pond Rd
160,43.881728,-71.596521,State Rte 49
216,44.152010,-72.038682,/Pleasant St
185,43.650173,-72.304911,Spring St W/Highland Ave
185,43.642854,-72.255561,West St/High St
185,43.865998,-71.634276,Village Rd
160,43.603126,-71.680167,Newfound Rd
160,44.314006,-71.775534,Lilac Ln
160,43.812965,-71.675623,Pleasant Dr/Wildwood Dr
160,43.838943,-71.692303,Morris Ln
472,43.701683,-72.281783,Austin Ave/S Park St
472,43.950455,-71.506665,Village Rd
246,44.308066,-71.754292,Union St/Gilman Map
160,44.055226,-71.667255,Pinehill Ln
160,43.773920,-71.689489,Quincy Rd/Fairgrounds
160,44.308598,-71.776789,Church St/Merrill St
160,43.693940,-71.630652,Mechanic St
160,44.224898,-71.742046,Dow Ave
160,44.223356,-71.673966,/Daniel Webster Hwy
499,44.037642,-71.674495,Recycle Rd
160,44.026998,-71.684105,Resnick Cir
917,44.044979,-71.667720,Main St/Maple St
160,43.719113,-71.619219,Squam Point Ln/River St
216,43.865611,-71.633915,Village Rd
160,43.674309,-71.788488,Oak Ln/Beachwood Dr
185,44.045146,-71.661761,Riverside Terrace Dr
276,43.620507,-72.143664,Caleb Dyer Ln
362,43.644195,-72.254294,Hanover St
305,44.051744,-71.670532,Woodland Loop
160,43.607768,-71.780367,Foster Pond Rd/Mathews Rd/Town Pound Rd/Thissell Rd
4903,43.761997,-71.689951,Merrill St
160,43.798430,-71.678176,Beaver Brook Rd
160,43.617284,-71.740113,Old Rte 3a
216,43.627866,-71.756115,W Shore Rd
185,43.644862,-72.257065,Hough St/Granite St
160,43.950309,-71.680961,Daniel Webster Hwy
160,43.931086,-72.054559,Indian Pond Rd
160,43.654122,-72.052818,Switch Rd/Andrew Ln
160,43.713860,-71.669325,River Rd/Bridgewater Hill Rd
185,44.284499,-71.744564,I- 93/Main St
160,43.945808,-71.512643,Tripoli Rd
185,44.152130,-72.033874,Ammonoosuc St/Locust St
185,43.592646,-71.736468,School St/Winter St
334,44.058397,-71.629035,/Loon Village Rd
185,44.148835,-72.034400,Central St/Elm St
160,43.693631,-71.631200,Mechanic St/Hill Ave
216,44.056829,-71.622859,E Branch Dr/Kernwood Ave
160,43.868378,-71.633533,State Rte 49/Old Waterville Rd
160,43.645521,-72.256876,Eldridge St/Granite St
160,44.049548,-71.684228,Old Airport Rd
160,43.650794,-72.073036,Hersey Way
185,43.567104,-72.149063,Grantham Ln
160,43.729515,-71.689599,/Cummings Hill Rd
246,43.648441,-72.098799,Royal Rd/US Hwy 4
160,43.644140,-72.238848,Dartmouth College Hwy/Bank St
160,43.741575,-72.182516,/Hanover Center Rd
710,43.707183,-72.289132,Choate Rd/N Main St
246,43.581759,-72.162928,Old Rte 10
968,44.031830,-71.686624,Main St/Morris St
185,43.756678,-71.670216,State Rte 175
334,43.949432,-71.507719,Snow's Brook Rd
185,43.615290,-71.744032,/Wind Ridge Rd
160,43.665324,-71.743803,Mayhew Tpke/Pollard Path
160,43.869435,-71.606759,Condo Rd/Hodgmans Hill Rd/Webster Ct
334,43.760287,-71.671614,State Rte 175/State Rte 175A
160,43.691621,-72.227699,Stevens Rd/Etna Rd
276,43.649334,-72.247456,State Rte 120
185,43.596633,-71.745750,Lake St/Hillside Ave
185,43.616483,-71.738832,/Williams St
276,43.755708,-71.675110,I- 93
216,44.051306,-71.658030,Forest Ridge Dr/Kancamagus Hwy
160,43.642331,-72.245110,/Green St/Shaw St
445,44.036458,-71.677160,/Kancamagus Hwy
160,43.867619,-71.640006,State Rte 175/Dunn Ave
684,43.951482,-71.508898,Snow's Brook Rd/Tyler Spring Way
160,44.204302,-71.761361,/Lafayette Rd
160,44.213111,-71.909761,Whitcher St
579,43.948130,-71.508425,Pine Tree Way
160,43.724041,-71.537356,Pine Needle Pt
160,43.767731,-71.686361,Old N Main St/Main St
185,44.280067,-71.691582,Main St/Pinewood Ave
160,44.326535,-71.843997,Crazy Horse Campground
160,43.874346,-71.610530,Snowood Dr/Liberty Ln
160,43.689324,-71.638451,Pine Dr
216,43.709316,-72.290977,Occom Ridge
160,43.855905,-71.613685,Fanaway Ct
185,43.687306,-71.643287,Collins St
160,43.631289,-71.757259,Browns Beach Rd
334,44.044512,-71.661726,S Peak Rd
246,44.030020,-71.683850,Profile Dr
185,43.897868,-72.145802,Orford Rd/Sawyer Brook Rd
185,43.646223,-72.143627,Maple St/May St
185,43.838882,-71.651156,I- 93
216,43.627905,-71.756757,W Shore Dr/W Shore Rd
160,44.153906,-72.040444,Central St
160,43.638517,-72.302615,US Hwy 4
160,43.643379,-72.133570,Baltic St/US Hwy 4
160,43.924187,-71.672413,River Run Rd/State Rte 175
185,43.652052,-72.072611,Crate Ln
160,44.030809,-71.678925,I- 93
160,44.052278,-71.645201,Crooked Mnt Rd/S Peak Rd
185,44.038028,-71.683273,Ridge Dr C
2301,43.755840,-71.690002,Pleasant St/Winter St
160,43.881535,-71.597451,State Rte 49/Burbank Hill Rd
1278,43.756932,-71.686473,Green St
160,44.304809,-71.778090,South St
160,43.639478,-72.250478,Garrish Ct
160,44.120516,-71.955066,Monadnock Dr
160,44.033523,-71.692435,Hiltz Dr
185,44.061794,-71.687737,/Daniel Webster Hwy
216,43.946449,-71.507382,Tecumseh Rd
160,44.121543,-71.955798,Adams Dr/White Mt Dr
160,43.768107,-71.656294,/Mt Prospect Rd
216,44.061471,-71.625661,Fox Run Rd/Clearbrook Rd/Beech Rd
185,43.638692,-72.222409,Riverside Dr/Bank St
160,43.662075,-72.254303,Quarry Hill/Mount Support Rd
185,43.772200,-71.765031,Moosilauke Rd
499,43.695366,-71.631245,Highland St/Riverside Dr/Main St
185,43.663926,-72.250079,Wolf Rd
216,44.309639,-71.782344,Woodside Ave
160,43.607844,-71.780698,Town Pound Rd
185,43.943689,-71.501827,Bear Brook Ln
185,44.144317,-72.034558,Birch Ln
839,43.643572,-72.252366,Flynn St/Court St
160,43.638796,-72.245775,Drayer Ln
2705,43.764286,-71.687923,Weeks St/Tobey Rd
185,43.777883,-71.679277,I- 93
185,43.620311,-71.733123,Lake St/Shore Dr/Swiss View Dr
605,43.634595,-72.316906,Glen Rd/Main St
185,44.045604,-71.675294,Pollard Rd
160,44.078347,-71.985916,Cook Ln
390,43.740185,-71.667079,Airport Rd
216,43.597299,-72.165722,I- 89/Smith Pond Rd
160,43.736567,-71.579967,/Kesumpe Point Rd
160,44.171984,-71.687907,/I- 93
160,43.880046,-72.072738,Quinttown Rd
160,43.907561,-71.683844,/Daniel Webster Hwy
160,43.963540,-71.684943,Van Allen Rd/Daniel Webster Hwy
216,43.723206,-71.611332,Coopers Way/US Hwy 3
185,43.730401,-71.582137,Manor Dr/Shepard Hill Rd
160,44.005408,-72.089191,Sanborn Cir
160,43.586645,-71.748095,Worfield Cir/Westwood Dr
185,43.766891,-71.680872,I- 93
185,43.776240,-71.770363,Moosilauke Rd/Hobbs Rd
160,43.735259,-72.217824,/Dogford Rd
276,44.042147,-71.664625,Cooper Memorial
160,44.005091,-71.671277,/Cox Farm Rd
472,43.760084,-71.672576,Chapel Ln
216,43.773970,-71.695106,Quincy Rd/Allen Ave
334,44.307635,-71.777260,Church St/Main St
160,43.618275,-71.739072,W Shore Rd
362,43.642006,-72.250916,S Park St
160,43.669791,-72.203532,Laurel St/Aspen St
1903,43.755930,-71.691167,Pleasant St/Keeble St
160,44.226905,-71.747913,Easton Valley Rd
160,44.310751,-71.787151,State Rte 18
160,43.819009,-71.661837,I- 93
160,44.128984,-71.680975,I- 93
418,43.647203,-72.253542,State Rte 120/Hanover St
185,44.213815,-71.910663,School St
276,44.308667,-71.782058,Hillside Ave/State Rte 18
3060,43.702156,-72.289732,Old Nugget Aly
276,43.948113,-71.503509,Sunnyside Way/Packard's Rd
246,43.637883,-72.281206,I- 89/US Hwy 4/Mechanic St
216,44.119755,-71.682202,/I- 93
216,44.050650,-71.656645,Autumn Ave/Summer Dr
160,44.031910,-71.696307,Sargent St
185,43.641674,-72.255151,Mascoma St/Foundry St
160,44.144276,-72.027243,Kelley Ln/Montebello St
185,44.058346,-71.621714,Black Mountain Rd/Pemigewasset Dr
185,43.766363,-72.194168,Lyme Rd/Mulherrin Farm Rd
334,43.810694,-72.158975,Union St/on the Cmn
216,43.649509,-72.005878,/Parker St
305,44.181201,-71.712657,/Mittersill Rd
160,44.308389,-71.788548,Industrial Park Rd
160,44.041476,-71.679835,McGee Dr/Railroad St/Connector Rd
160,44.215280,-71.729162,Profile Rd/Sawmill Ln
160,43.947851,-71.503941,Sunnyside Way
305,43.636150,-72.250542,Calvin St/South St
185,43.775273,-71.738883,Smith Bridge Rd
160,43.604682,-72.132997,Merrill Pl/Marsten Ln
499,43.762760,-71.700675,Old Ward Bridge Rd
160,43.730921,-71.581186,Manor Dr
160,43.923450,-71.672351,Notch View Rd
216,43.868752,-71.668300,Daniel Webster Hwy
160,44.302018,-71.751480,Keeler Rd
305,43.759974,-71.671552,State Rte 175
160,43.627737,-71.733960,Mt View Rd/Wicom Rd
160,43.953706,-71.508235,Tripyramid Way
552,44.052175,-71.653658,Kancamagus Hwy/Marcalus Rd
185,43.640228,-72.226306,Bank St/Lr Dorothy Pexle Rd
160,44.308987,-71.778184,Merrill St/Elm St
185,43.766989,-71.707256,River Ridge Rd
160,43.642164,-72.228143,I- 89
160,43.732881,-71.630687,Field Dr
160,43.637297,-72.284670,US Hwy 4/Poverty Ln
160,43.872776,-71.663911,Daniel Webster Hwy
160,43.818356,-71.661644,I- 93
160,43.722778,-71.557814,/US Hwy 3
160,43.714193,-71.528677,US Hwy 3
185,43.644475,-72.242688,Bank St/Forest Ave
216,43.757238,-71.699670,Broadway St/Maple St
390,43.947386,-71.507665,Mountain Sun Way
160,44.272287,-71.684233,Huntoon Ln
160,44.041759,-71.663699,Cooper Memorial/Loon Brook Rd
160,43.580941,-72.162022,I- 89
160,43.908619,-71.684249,Daniel Webster Hwy/Downing Rd
216,43.606520,-71.662670,Summer St
160,43.888011,-71.611587,Sugar Run Rd
658,43.634102,-72.317321,Main St
334,44.046694,-71.685386,Connector Rd
579,44.307335,-71.775848,Saranac St/Main St
246,43.958864,-71.680305,Daniel Webster Hwy/I- 93
160,44.150642,-72.034916,Railroad St/Nelson St
246,43.648048,-72.243531,I- 89
216,43.850742,-71.647089,/Campton Village Rd/Waterville Rd
160,44.043478,-71.677355,Rue de Gionet/Lincoln Woods
216,43.641562,-72.149858,Oak Grove St
160,44.224504,-71.742338,Dow Ave Exd/Dow Ave/Academy St
185,43.794387,-71.804432,School St/Post Office Ln
246,43.591297,-71.736658,Main St
160,44.256750,-72.043469,Plains Rd
185,43.605434,-72.131173,/Marsten Ln
160,43.632715,-72.304088,I- 89
160,43.599452,-71.684372,Oakcrest
185,43.779165,-71.679400,Main St
185,43.589559,-71.735115,Church St/N Main St
418,43.739546,-71.667668,Reach Dr
160,43.875552,-71.669584,Laundromat Rd
160,44.319213,-71.711493,Alder Brook Rd/Whitefield Rd
216,44.033056,-71.683825,Cascade Dr/Riverfront Dr
185,43.933136,-71.687537,I- 93
160,44.311970,-71.767730,East St/Pine Hill Rd
216,43.707347,-72.283115,Parkway/N Park St
216,44.141741,-71.682948,I- 93
160,44.234742,-71.663219,Daniel Webster Hwy
710,44.306042,-71.771350,Mill St/Westhill St
160,43.725180,-71.586231,Sunset Ln
160,43.560056,-71.905768,Mascoma Valley Rd
160,43.603989,-72.094218,/Doolittle Dr
160,43.869286,-71.606518,Hodgmans Hill Rd/Webster Ct
160,43.879650,-71.610982,State Rte 49/Clover Dr
185,43.950397,-71.681103,Daniel Webster Hwy/Jack O Lantern Dr
160,43.549223,-71.819604,Corliss Rd/Ragged Mtn Hwy
579,43.629420,-72.321001,Interchange Dr/Airport Rd
160,44.058771,-71.621007,Black Mountain Rd/Pemigewasset Dr
185,43.950054,-71.971257,Lake Armington Rd
160,43.591968,-71.735669,Central Sq/Summer St
185,44.047920,-71.668325,Pollard Rd/Conifer Rd
160,43.578041,-71.797932,Cass Mill Rd/Cross Rd
246,43.661468,-71.739405,Mayhew Tpke
160,43.784449,-71.665929,Stardust Ln/Old Livermore Falls Rd
185,44.047484,-71.683944,/Conant Rd/Bern-Dibner Rd
160,43.719604,-71.620271,Scenic View Rd
160,43.637022,-72.300176,Old Pine Tree Cemetary Rd/US Hwy 4
160,44.319076,-71.711816,Alder Brook Rd/Whitefield Rd/Oxbow Dr
216,44.059591,-71.619053,Black Mountain Rd
160,43.863570,-71.805731,Community House
160,44.280949,-71.678826,Turner St/Main St
185,43.651242,-72.310183,S Main St/Highland Ave
276,43.632415,-72.323615,/I- 89
362,44.052015,-71.653604,Ridge Rd/Marcalus Rd
160,43.759933,-71.658145,Trivett Ln/Heritage Hill Rd
160,43.598120,-71.755621,Bristol Hill Rd/Daniels Rd
185,44.104915,-71.683272,/I- 93
216,43.642773,-72.250179,Bank St
160,43.581933,-71.751518,Pleasant St
160,43.697328,-72.289923,S Main St/Currier Pl
418,43.642445,-72.250597,Bank St/Campbell St
160,43.624943,-71.734881,Lakeside Rd
160,43.641873,-72.266947,Michael St
160,43.938100,-71.688125,Mirror Lake Rd/I- 93
2168,43.756043,-71.689342,Webster St/Russell St
216,43.852050,-71.649391,Depot St/Owl St
160,44.302322,-71.804352,Meadow St
160,44.120854,-71.956308,Monadnock Dr/White Mt Dr
334,44.038002,-71.673958,Recycle Rd
216,43.956107,-71.510235,High Country Way/Osceola Rd
418,43.645864,-72.254851,Clark St
362,44.306521,-71.774791,Ammonoosuc St
185,43.761237,-71.596031,Beede Rd/Perch Pond Rd
185,43.641704,-72.269287,Findley Dr
185,43.775955,-71.770640,Hobbs Rd
160,44.128503,-71.957263,Sugar Hill Ln
185,43.646680,-72.256588,Colburn St/Summer St
1877,43.753965,-71.687848,Main St/Railroad Sq
160,43.730776,-71.675338,Main St/Cummings Hill Rd
160,43.604649,-71.709771,/Peaked Hill Rd
160,44.320274,-71.673246,/Pond Vw
160,43.746418,-71.646163,State Rte 175/Hickshill Rd
160,43.696028,-72.282051,Brockway Rd/Woodrow Rd
216,44.217303,-71.750260,Meadow Crest Dr/Easton Valley Rd
216,43.644140,-72.237219,/Bank St
160,43.669419,-72.044665,Canaan St
160,43.690015,-71.634720,Depot St
160,43.942715,-71.870041,Richardson Rd/Sawyer Hwy
305,44.021475,-71.676264,I- 93/Cox Farm Rd
160,43.625060,-71.752209,Woodbury Dr
160,43.596378,-71.693011,Pemigewasset Shores Dr/Summer St
160,44.021194,-71.734828,Kinsman Ridge Dr/Lost River Rd
216,43.691430,-71.791575,Lakeshore Dr
160,43.602042,-72.101360,/Woodland Ln
160,44.144105,-72.027640,Kelley Ln
305,43.731280,-71.587910,Squam Lake Rd/US Hwy 3
160,44.208079,-71.724116,Profile Rd
216,43.702968,-72.297286,W Wheelock St/Main St
305,43.739744,-71.666147,Airport Rd/Reach Dr
472,43.758876,-71.696001,Highland St/Avery St
246,43.948152,-71.509520,Mountain Brook Way
390,43.647223,-72.252904,State Rte 120
160,43.700202,-72.295527,Sargent St/Maple St
160,43.661992,-72.248720,Wolf Rd
160,43.693402,-72.220406,Etna Rd
160,44.056161,-71.687988,Daniel Webster Hwy/Burts Way
216,44.031436,-71.681767,Kancamagus Hwy/Deer Park/Deer Park Dr/Crossing at Riverplace
160,44.258960,-71.467104,Crawford Ridge Rd
185,43.638447,-72.279796,I- 89
185,44.213367,-71.911333,Hioro Blvd/Dartmouth College Rd
160,43.650515,-72.258368,I- 89
216,43.869624,-71.667532,Daniel Webster Hwy/I- 93
216,43.866841,-71.662929,I- 93
160,43.876898,-71.645914,Upper Mad River Rd/Susi Ln
2868,43.759448,-71.691625,School St/High St
216,44.284434,-71.744508,I- 93/Main St
185,44.058724,-71.636420,Big Coolidge Rd/Coolidge Falls Rd
160,43.647637,-72.234035,Congress St
160,43.958044,-71.510088,Stone Tower Ln
185,43.769378,-71.711110,Tenney Mtn Hwy
276,43.645590,-72.234910,Lilac Ave
185,43.649873,-72.253075,I- 89
216,43.588270,-71.734550,/High St
605,44.030164,-71.686054,Kancamagus Hwy/Morris St
418,43.642136,-72.253331,Mascoma St/US Hwy 4
185,43.864846,-71.634551,Fifield Rd
160,43.725665,-71.601508,Old Ledger Rd
788,43.704394,-72.285481,Ivy Ln
276,43.740775,-71.660722,I- 93
762,43.764493,-71.686750,Old N Main St
2141,43.703277,-72.290814,Cemetery Ln
160,43.628295,-71.765277,Bear Mountain Rd/W Shore Rd
160,43.757674,-71.704678,Maple St/Hilltop Dr
160,44.028616,-71.979604,Mt Moosilauke Hwy
160,43.588967,-71.736355,Walnut St/2nd St
160,43.770303,-71.759867,Tenney Mtn Hwy
160,44.314979,-71.782945,Heather Ln/Rock Strain Dr/Rockstrain Dr
160,43.884473,-71.582712,/Sandwich Notch Rd
160,43.597282,-72.166331,Smith Pond Rd
334,43.792825,-71.806146,Tabernacle St/Victory Ave
246,43.945003,-71.502849,Mountain Village Rd
160,44.136665,-72.024511,Swiftwater Rd/Harmony Dr
246,43.727480,-71.598104,/US Hwy 3
160,43.647168,-72.164674,/Mascoma Valley Rd
362,43.640321,-72.276434,I- 89/
160,43.862081,-71.603870,Caldon Ct
160,44.063787,-71.623374,Clearbrook Rd/Moose Ln
160,43.658304,-71.759531,Pine St N/Maple St N
185,43.619788,-71.740665,Pasquaney Shores Dr/W Shore Rd
891,43.758187,-71.684597,Avery St
160,43.993639,-71.670826,/I- 93
216,44.055727,-71.622825,/Beechnut Dr
216,43.783313,-71.664102,Carla Ct
246,44.058952,-71.687155,/Eagle Cliff Rd/Liberty Rd
362,44.038564,-71.684719,Deer Park Dr
160,43.888040,-71.610598,Fox Hollow Rd
418,44.060844,-71.626739,Big Rock Rd/Beech Rd
276,43.724601,-71.609267,US Hwy 3
185,44.137949,-72.025870,Swiftwater Rd/Dartmouth College Hwy/Forest St
160,44.267065,-71.620660,Main St
185,43.697890,-71.631424,Cottage St/Prospect St
276,44.046987,-71.681237,I- 93
445,43.700166,-72.280471,Teagan Ave
160,44.030899,-71.678959,I- 93
160,43.604308,-72.132485,Merrill Pl
185,43.642448,-72.144358,Riverside Dr
216,43.643615,-72.250447,Flynn St/Campbell St
305,44.036718,-71.690117,Cleveland Dr
216,43.772228,-71.734922,Artisan Ln
390,43.642100,-72.253398,Mascoma St/US Hwy 4
216,43.949074,-71.509135,Tyler Spring Way
305,43.702985,-72.281103,Valley Rd
216,43.907107,-72.139507,Bridge St
160,44.104614,-71.682604,/Daniel Webster Hwy
185,43.695858,-71.638400,Industrial Dr
216,43.627932,-71.757156,W Shore Dr/Lakeview Ln
216,43.683390,-72.285490,Sachem Cir/Gould Rd
160,44.032849,-71.700024,Woodside Dr
185,43.769134,-71.540222,Deep Haven Rd
160,43.777918,-71.701874,/Beech Hill Rd
185,44.136716,-72.024637,Swiftwater Rd/Hospital Dr/Harmony Dr
160,43.718899,-71.622264,Scenic View Rd/Highwoods Trl
185,44.057968,-71.638324,Coolidge Falls Rd/Westview Rd
472,43.699270,-72.283063,Lebanon St/Summer St
160,43.976562,-71.682229,N Station Rd
1798,43.705855,-72.290446,Massachusetts Row
160,43.801662,-71.675969,Colonel Spencer Rd
185,43.605130,-72.070516,Oak Hill Rd/Lockehaven Rd
185,43.649286,-72.243427,Foch Ave/Pershing St
216,43.770660,-71.720530,Tenney Mtn Hwy
185,44.059442,-71.619375,Black Mountain Rd/Sunset Dr
160,43.802537,-71.656891,State Rte 175/Ken Mar Dr
185,43.861294,-71.605740,Winter Brook Rd/Donovan Farm Rd
160,43.947034,-72.105551,Dartmouth College Hwy/Grimes Hill Rd
160,44.120565,-71.955525,Monadnock Dr
160,44.097221,-72.025032,Clark Pond Rd/Dartmouth College Hwy
185,44.135745,-72.017400,Tree Top Ests
185,43.628603,-72.313065,Commerce/Airpark Rd
276,43.762015,-71.705680,Highland St/Old Ward Bridge Rd/Reservoir Rd
160,44.062705,-71.687260,/Daniel Webster Hwy
160,43.693326,-71.629285,/Main St
160,43.703610,-72.277134,Chase Rd/Valley Rd
160,44.240402,-71.735565,Wallace Hill Rd
160,43.761446,-71.659510,Hob Nob Ln/Heritage Hill Rd
185,44.214048,-71.910847,School St
276,44.053546,-71.641242,Loon Brook Rd
160,43.773869,-71.542731,Playhouse Rd
160,43.676392,-72.044776,Fox Hill Rd/Prospect Hill Rd
943,43.752911,-71.687874,Main St/Crawford St
216,43.658774,-72.244964,Etna Rd
160,44.107890,-71.957365,Bear Rd/French Pond Rd
216,43.782518,-71.663787,State Rte 175/Easy St
246,43.674187,-72.261420,State Rte 120/Lahaye Dr
160,43.724752,-71.585436,Perkins Ln/Sunset Ln
160,43.901531,-72.141664,Dartmouth College Hwy/State Rte 25A/Orford Rd
334,43.851327,-71.641129,State Rte 49
216,43.867494,-71.664010,I- 93
216,44.137483,-72.025287,/Ralston Rd
276,43.627482,-72.207475,I- 89
160,43.922327,-71.685797,Daniel Webster Hwy/Steele Building Rd
185,43.951698,-71.509736,Emerson Way
160,43.729383,-71.675874,Daniel Webster Hwy/Main St
185,43.636348,-72.247968,College Ave
185,44.295187,-71.768766,/I- 93
276,43.675018,-72.260641,Centerra Pkwy/Morgan Dr
185,43.685666,-72.294717,Oakridge Rd/Pinewood Village Rd
185,43.789405,-71.796639,Moosilauke Rd
185,43.638405,-72.251741,Church St/Davis St
246,43.696433,-72.286693,Buell St/Hovey Ln
3197,43.755976,-71.687754,Main St
160,44.311945,-71.782006,N Fairview St/Fairview St/Helter Skelter Rd
160,43.872365,-71.706406,Tyler Way
445,43.752772,-71.679042,Lower Fields Rd
160,44.053720,-71.649007,W Branch Rd/Kancamagus Hwy
185,43.933717,-71.681821,Depot Rd
160,43.863223,-71.805994,Community House Rd/Community House
185,43.693169,-71.630086,/Mill St
160,43.672949,-72.120820,W Farms Rd
216,43.735970,-72.215027,/Dogford Rd
160,43.748388,-71.764079,Bills Way
160,43.762302,-72.212953,Grant Rd
185,44.035361,-72.062890,School St/Dartmouth College Hwy
216,43.597309,-72.165489,I- 89/Smith Pond Rd
943,44.044913,-71.667794,Sawmill Dr/Main St
216,43.699282,-71.643155,West St/North Ave
160,44.136166,-72.025039,/Harmony Dr
246,43.646422,-72.309935,S Main St/Railroad Ave
160,43.867449,-71.640821,Dunn Ave
160,43.634487,-72.155381,Main St/Pine Dr
762,43.706654,-72.286256,Maynard St/College St
160,44.075898,-72.015555,Sand Rd/Brushwood Rd
185,43.652399,-72.172752,Ruddsboro Rd
216,43.862785,-71.606219,Dubeau Cir
216,43.783104,-71.664102,Carla Ct/Morin St
305,43.946943,-71.507460,Mountain Sun Way/Garage Way/Tecumseh Rd
160,44.241565,-71.734770,Wallace Hill Rd
216,43.613024,-72.191449,/I- 89
185,43.762737,-71.696689,Merrill St/Batchelder St
276,44.031124,-71.681977,Kancamagus Hwy
472,44.056442,-71.633261,/Loon Brook Rd
246,43.646662,-72.143526,May St
160,43.632561,-71.758194,Gareth Ln/Hector Ln
160,43.817273,-71.662710,Daniel Webster Hwy/I- 93
185,44.048900,-71.664171,Dodge Pl/Pollard Rd
160,44.034091,-72.063744,Dartmouth College Hwy/Court St
762,44.307058,-71.774554,Ammonoosuc St/Main St
216,44.308279,-71.768458,Pleasant St
246,43.694573,-71.643830,I- 93
499,43.649519,-72.310323,Bridge St/Dana St/S Main St
160,43.642806,-72.113528,Blackwater Rd
579,43.643594,-72.251633,Flynn St
216,44.053742,-71.665321,Hillside Cir
160,44.312744,-71.739422,Union St/Parker Village
185,44.044179,-71.679323,Pollard Rd/Manson Hill Dr/E Spur Rd
160,43.559967,-72.100892,Bog Rd
3197,43.757164,-71.688364,Highland St/Post Office Sq
246,43.860145,-71.807414,/Cross Rd
216,43.617388,-71.738103,W Shore Dr/Williams St
160,43.608552,-71.672113,River Rd/
160,44.204254,-71.761707,Lafayette Rd/Ridge Rd
305,43.961607,-71.674811,Koa Campground
216,43.644050,-72.127539,Lovejoy Brook Rd
472,44.048940,-71.661510,Lodge Rd/Main St
160,43.814410,-71.666396,I- 93
216,43.781858,-71.665406,Old Eastside Rd
305,44.038612,-71.685310,Lakeside West Dr/Deer Park Dr
276,43.753013,-71.671196,I- 93
160,43.839236,-71.692765,Morris Ln
185,43.731983,-71.570559,US Hwy 3
185,43.637991,-72.247593,/Messenger St
185,43.582473,-71.751343,Robie Rd/Pleasant St
160,44.222810,-71.743625,Dow Ave
246,44.025774,-71.685022,Daniel Webster Hwy/Main St
160,44.295479,-71.656861,/Casey Ln
305,44.180606,-71.714340,Sunset Ridge Rd
160,44.028638,-71.979728,Mt Moosilauke Hwy
1850,43.759974,-71.691821,Langdon St/Rogers St
160,44.171493,-71.686976,I- 93
160,43.631366,-72.278301,Buckingham Pl/Wellington Cir
160,44.076620,-72.017596,Powers Rd
160,43.640870,-72.219089,/Farr Rd
160,43.656615,-71.743434,Whittemore Point North Rd/Clubhouse Rd
185,44.031538,-71.688415,School St/Center St
160,43.638685,-72.266323,Slayton Hill Rd/Mechanic St
160,43.585478,-71.731472,S Main St/N Main St/High St
160,43.953745,-71.509333,White Cap Way/Osceola Rd
185,43.647032,-72.266160,I- 89
390,43.650930,-72.253463,Hanover St
216,43.622973,-72.133563,Donahue Dr
160,43.598533,-71.695797,Nyberg Rd/Gilpatric Rd
418,43.769468,-71.719183,Highland St
160,44.051507,-71.654319,Marcalus/Marcalus Rd
968,44.032201,-71.686593,School St/Main St
276,43.695361,-72.279623,Lebanon St/Crowley Ter
246,43.773591,-71.681844,/I- 93
185,43.793542,-71.680083,Lower Loop
813,43.759928,-71.685781,Holderness Rd
552,44.306095,-71.770304,Union St/Main St/Cottage St
185,43.642615,-72.148764,Oak Grove St/Mascoma Valley Rd
216,44.296440,-71.657200,Casey Ln
185,43.957677,-71.679822,Daniel Webster Hwy
185,43.811926,-72.158438,Latham Ln
160,43.708887,-71.570187,Coxboro Rd/Lane Rd
185,43.693916,-72.282583,Storrs Rd
160,43.592899,-71.733920,Summer St/Spruce St
185,43.851718,-71.666872,Daniel Webster Hwy/Butler Rd
185,44.301121,-71.768707,Cottage St
185,43.667421,-71.744856,Brookstone Ter
160,43.715766,-71.530072,W Wind Shores/US Hwy 3
185,43.631410,-71.771428,Wulamat Rd/W Shore Rd
160,43.594328,-71.731605,Merrimack St/Summer St
160,43.771544,-71.704033,Cooksville Rd
160,44.153356,-72.036543,Oak Hill St/N Court St
390,43.644032,-72.254391,Hanover St/High St
216,43.659161,-71.793151,N Ledge Loop/S Ledge Loop/Beach Side
160,43.761887,-71.671983,State Rte 175
160,43.941782,-71.696198,Mirror Lake Rd/Mirror Lake Hamlet
160,43.879108,-71.611845,State Rte 49
4468,43.762132,-71.691174,Langdon St/Merrill St
160,43.865022,-71.910030,Moosilauke Rd/Hilltop Rd
160,44.303431,-71.773643,Bronson St/South St
185,43.872593,-71.705942,Tyler Way/Alden Dr
160,44.237854,-71.880324,Dartmouth College Rd
276,44.034728,-71.679625,/I- 93
160,44.031856,-71.688273,School St/Bell St
160,44.142824,-72.027583,Byrne Dr
160,43.965320,-71.523993,/Tripoli Rd
276,43.868042,-71.604516,Hodgmans Hill Rd
160,44.022346,-71.735084,Kinsman Ridge Dr
160,43.612354,-72.191026,I- 89
185,43.954844,-71.682642,I- 93
160,43.637902,-72.230329,Dartmouth College Hwy/Moulton Ave/Mascoma Valley Rd
160,43.773903,-71.701872,Quincy Rd/Fairgrounds Rd
526,44.306719,-71.774701,Ammonoosuc St
160,43.754842,-71.656941,Mayfarth Rd
185,44.293836,-71.759784,I- 93
160,43.645496,-71.745143,/Whittemore Point South Rd
160,43.766485,-71.681121,I- 93
160,44.032407,-71.680864,/Kancamagus Hwy
631,44.043924,-71.668933,Coolidge St/Main St
160,43.645513,-72.256594,Colburn St/Eldridge St
160,44.064136,-72.048410,Dartmouth College Hwy/Newbury Bridge Rd
216,43.688743,-71.643415,Collins St
185,43.845076,-71.680486,/Sring Hill Rd/Spring Hill Rd
185,43.641231,-72.271212,Freeman Ave
185,43.773905,-71.690149,Crescent St/Quincy Rd/Fairgrounds
160,44.227156,-71.742502,Lafayette Dr/Berwick Ct
216,43.850896,-71.664991,Mayhew Rd/Chesley Rd
185,43.944698,-71.505845,Jennings Peak Rd/Valley Rd
185,43.799792,-71.658146,State Rte 175/Rosy Ln
917,44.037483,-71.676591,Railroad St
185,43.641245,-72.144084,/Shaker Hill Rd
160,44.293057,-71.806611,Meadow St
246,43.869362,-71.667773,Daniel Webster Hwy/I- 93
160,43.909530,-71.658524,Bear Tree Ln/Mateus Dr
160,43.898119,-71.571013,State Rte 49
160,43.618936,-71.742711,Westlake Dr
185,43.947559,-71.509331,Mountain Brook Way/Meadowbrook Ln
185,43.760828,-71.697399,Buckland St/Batchelder St
1278,43.704117,-72.289476,Wentworth St/N Main St
185,43.642576,-71.735395,Mayhew Tpke/Foxtail Ln
160,44.047731,-71.669009,Pollard Rd
246,44.280370,-71.687093,Main St/Maple St
305,43.737930,-71.664289,N Ashland Rd
160,43.705164,-72.278350,E Wheelock St/Smith Rd
160,44.309195,-71.788391,Meadow St/Industrial Park Rd
216,43.688667,-71.642156,I- 93/Collins St
160,43.618121,-71.738295,/Shore Dr
185,43.647457,-72.310221,S Main St/Railroad Ave/Tracy St
160,43.789164,-71.838414,Old N Groton Rd
160,43.825534,-71.643411,Champagne Cir
160,44.268710,-71.817134,/US Hwy 302
160,43.770226,-71.688183,/Tenney Mtn Hwy
185,43.721788,-72.271614,Lyme Rd/Dresden Rd
160,43.870521,-71.606304,Condo Rd
185,43.597311,-72.165154,Smith Pond Rd
160,43.719704,-71.619960,Scenic View Rd/River St
185,43.855296,-71.608142,Porcupine Dr
160,44.150902,-72.033141,Cherry St
185,43.619699,-72.146135,Caleb Dyer Ave
160,44.053535,-71.649032,W Branch Rd/Penstock Rd
445,43.758956,-71.696787,Highland St/Cooper St
160,43.610451,-72.188949,I- 89/Eastman Hill Rd
216,43.591908,-71.735769,School St/Summer St
276,44.047299,-71.684042,Arthur Salem Way/Bern-Dibner Rd
160,43.657030,-71.739271,Whittemore Point North Rd
160,43.643181,-72.274971,/Mascoma St
160,43.791957,-71.673159,Shared Dr
160,43.746000,-71.760393,Sam Hall Dr
160,43.619906,-72.147038,State Rte 4a
160,43.867434,-71.604270,Winter Brook Rd/Hodgmans Hill Rd/Goose Hollow Rd/Donovan Farm Rd
160,43.892324,-71.620870,/Strawberry Ln
185,43.672547,-72.258785,State Rte 120
185,43.793819,-71.680105,Lower Loop Rd
160,44.031139,-71.679049,I- 93
160,44.055614,-71.667362,Pinehill Ln/Spruce Dr
160,43.985719,-71.674505,/I- 93
160,43.610307,-72.113451,Esterbrook Dr/Shaker Hill Rd
160,43.876391,-71.663414,Daniel Webster Hwy/Rolling Hills Rd
276,44.287830,-71.682491,Maple St
160,43.691301,-71.625482,Winona Rd/Avery Rd
216,43.683303,-72.285169,Sachem Cir/Gould Rd
710,44.084774,-71.683815,Shadow Lake Ln
185,43.627982,-71.754621,/Belmore Ct Rd
1252,43.702811,-72.286561,/E Wheelock St
216,43.627899,-71.756611,Browns Beach Rd/W Shore Rd
276,44.059512,-71.618837,Sunset Dr
305,44.146449,-72.036405,King St/Beech St
305,43.641966,-72.253770,Mascoma St
305,44.051884,-71.670362,/Woodland Loop
839,44.045277,-71.667358,Cooper Memorial/Cooper Memorial Dr/Main St
216,43.696133,-71.769316,Mayhew Tpke/Mowglis Dr
185,43.706446,-71.781650,Range Rd
160,44.171477,-71.686946,I- 93
160,43.635090,-72.226355,Prospect St Exn/Hillcrest Dr
185,44.126744,-71.964623,Amherst Ln
160,44.062244,-71.687491,Daniel Webster Hwy/I- 93
246,43.652484,-72.308547,Pearl St
160,44.283668,-71.732153,Main St
185,43.955750,-71.510041,Osceola Rd
185,43.953260,-71.503547,Lost Pass Rd/Drake's Brook Rd
185,43.693284,-71.630000,Fire House Ln/
390,43.762394,-71.693300,Langdon Park/Merrill St
185,43.796263,-71.676781,I- 93
2035,43.705527,-72.290516,Massachusetts Row
185,43.679210,-72.259454,Cavendish St/Lafayette St
185,43.618471,-71.735019,Silver Shares
305,43.771211,-71.685091,Daniel Webster Hwy/Tenney Mtn Hwy
216,43.853133,-71.657493,/Branch Brook Rd
160,43.906846,-71.683570,Daniel Webster Hwy
552,43.773350,-71.543824,Rockywold Rd/Ice House Rd
216,44.040139,-71.681030,I- 93
160,43.914366,-71.671496,Chester's Way/State Rte 175
216,43.792027,-71.805072,Hallelujah Ave/Glory Ave
160,43.731445,-71.589015,/US Hwy 3
216,43.652337,-72.244380,State Rte 120/Heater Rd
246,43.866703,-71.638892,State Rte 175/Owl St
160,43.794166,-71.679697,/Beaver Brook Rd
185,44.148404,-72.034137,Perkins Pl/Central St
160,44.046853,-71.662533,Bunker Ln
160,44.074894,-71.687756,I- 93
216,43.637849,-72.274635,Buckingham Pl/Mechanic St
185,44.047636,-71.671116,Plummer Hill Dr
185,43.850667,-71.648497,Owl St/Campton Village Rd
246,43.702645,-72.280739,Austin Ave
185,43.635796,-71.779165,Village W
160,44.064986,-71.996865,County Rd
160,43.703882,-71.630146,Scenic View Rd/Riverside Dr/River St
160,43.757820,-71.671778,State Rte 175/Chapel Ln
276,43.946726,-71.507461,Klosters Way/Tecumseh Rd
160,44.136554,-72.024147,Swiftwater Rd/Boomhower Rd
160,43.634272,-72.208895,/Mascoma Valley Rd
216,43.954051,-71.680900,Daniel Webster Hwy
160,44.049157,-71.671744,/Woodland Loop
160,43.756764,-71.706950,Binks Hill Rd
305,43.649411,-72.309274,Dana St/Central Ave
216,44.043138,-71.666934,Papermill
246,44.296669,-71.768645,/Cottage St
185,43.882039,-72.106016,/Huckins Hill Rd
276,43.859877,-71.807022,/Cross Rd
390,44.050690,-71.658455,Winter Way
160,43.767348,-71.657025,Mt Prospect Rd
216,43.610945,-72.080649,Lockehaven Rd/Ibey Rd
160,43.629757,-71.758400,Birch Dr
160,44.030531,-71.688832,School St/Lost River Rd
185,44.066741,-71.686678,Paris Dr
631,44.030496,-71.685904,Morris St
185,44.309258,-71.760045,Bishop St
160,43.599346,-72.096729,Crystal Lake Rd
160,44.027863,-71.976805,Mt Moosilauke Hwy
2759,43.759500,-71.691953,School St/Langdon St
160,44.280002,-71.692678,Log Cabin Ln/Main St
160,43.909201,-71.684126,Avery McGee Rd
160,44.304954,-71.777735,Riverside Park/South St
185,43.933079,-71.686884,I- 93
2678,43.705148,-72.289547,Tuck Mall/N Main St
160,43.615314,-71.734946,Tamarack Ter
185,43.638059,-72.217415,Riverside Dr
185,43.661283,-72.250184,Wolf Rd
579,43.754179,-71.693308,Langdon St/Fox St
185,43.629941,-72.209607,I- 89
160,44.036598,-71.681918,Ridge Dr B/Deer Park Dr
160,43.624788,-71.745316,/W Shore Rd
445,43.851029,-71.643450,State Rte 49/Vintinner Rd/Southmayd St
160,44.257066,-71.895568,Mountain Meadows Rd/Lyman Rd
160,43.619007,-71.733290,Main St/Elm St
160,43.851786,-71.639977,State Rte 49/Southmayd St
160,43.646737,-72.009592,US Hwy 4
160,43.810241,-72.155045,Lyme Village A Rd/on the Cmn/Dorchester Rd/Main St
160,43.724696,-72.270092,Lyme Rd
1459,43.753553,-71.690471,Winter St/Fox Park Dr
160,44.181378,-71.782653,Fobes Rd
684,43.757029,-71.695182,Hospital Rd/Cummings St
246,44.051976,-71.652208,W Branch Rd
160,44.032346,-71.696310,Lost River Rd
160,43.616246,-71.740140,Cottage Rd
160,44.120066,-71.957154,White Mt Dr
160,43.678210,-72.102072,Strawbrook Ln
185,43.644372,-72.246921,Parkhurst St
160,44.235781,-71.716602,/Forest Hill Rd
185,43.645080,-72.135883,Prospect Pines Rd
160,44.167159,-71.965933,/W Bath Rd
160,43.741585,-71.744538,Edwards Ln
160,43.633784,-72.313250,Glen Rd
185,43.713159,-72.286385,Hilton Field Rd/30 - 48/Occom Ridge
418,43.763744,-71.693138,Langdon Park
185,44.060477,-71.617460,Cliff Rd
1304,43.705099,-72.292268,Tuck Mall/
185,43.926094,-71.685790,Lebrecque Rd
160,44.150012,-72.036262,School Ln/Church St
185,43.880683,-72.101158,Brook Rd
160,43.945069,-71.511615,Cleanwater Ln/Tripoli Rd
160,44.062636,-71.687129,/Daniel Webster Hwy
418,44.036617,-71.677014,Kancamagus Hwy
736,44.039477,-71.673957,Main St/Labreque St
216,43.590304,-71.735730,N Main St/Central Square St/Beech St
160,43.647496,-71.752803,Iroquois Path
160,43.622320,-72.148225,Butternut Pl/Chosen Vale Ln
246,43.873064,-71.646296,State Rte 175/Day Rd
185,44.062162,-71.615441,Waldo Dr/Kancamagus Hwy
160,43.875250,-71.632276,Uhlman Dr
216,44.054425,-71.631491,Ram's Horn Dr/Blue Ox Ln
276,43.674423,-72.260998,/Centerra Pkwy
362,43.641992,-72.253169,Mascoma St/US Hwy 4
362,43.641618,-72.250400,School St/Green St
216,43.637690,-71.768685,Greenpath Pkwy
160,43.637976,-72.267102,Baxter Ct
160,44.246452,-71.935066,Clough Hill Rd/Quebec Rd
185,44.054295,-71.641342,Riverside Dr
246,43.595880,-72.166547,Old Rte 10/Rice Rd
185,43.651052,-72.308926,Prospect St W/Highland Ave
185,44.035822,-71.688721,Adams Dr
216,44.227245,-71.747755,Easton Valley Rd/Main St/Profile Rd
362,43.759260,-71.699765,Highland St/Broadway St
499,43.632159,-72.319370,/Main St
3755,43.756002,-71.688532,Webster St
160,44.050415,-71.680206,Hummingbird Rd
185,44.311162,-71.788125,State Rte 18
276,44.308198,-71.756049,Union St/Hill St
160,43.737735,-71.664987,Fairway Dr
160,43.638401,-72.302458,Carlton Dr/US Hwy 4
305,43.642793,-72.250504,Bank St/Campbell St
160,44.089352,-71.684115,Parkers Ct
185,43.659137,-72.244451,Etna Rd/N Lombard Rd
185,43.748786,-71.765290,Slopeside Dr
160,44.034604,-72.063400,Dartmouth College Hwy/Court St
276,43.647160,-72.238884,Riverdale Pkwy/I- 89
160,44.057542,-71.624235,Iappin Ln
276,43.761478,-71.704516,Highland St/Smith St
185,43.781757,-71.762448,Quincy Rd
276,43.647340,-72.238915,Riverdale Pkwy/I- 89
216,44.066281,-71.685957,Daniel Webster Hwy/Hanson Farm Rd
160,43.688360,-71.622752,Winona Rd
362,44.041303,-71.675772,Franklin St
216,43.846268,-71.645930,/I- 93
185,43.850618,-71.666783,Daniel Webster Hwy/Chesley Rd
185,44.309543,-71.774455,Maple St/High St
160,44.046652,-71.678134,Mansion Hill Dr/White Birch Ln
276,43.753383,-71.671766,I- 93
160,43.925376,-71.891115,Water St
160,43.778889,-71.654161,Fairway Dr
276,43.651858,-72.252783,Hanover St/Evans Rd
216,43.589891,-72.109005,Ricky Ln
185,44.327959,-71.741383,Broomstick Hill Rd
185,43.674454,-72.261606,State Rte 120
160,43.959550,-71.681205,/Daniel Webster Hwy
160,43.637626,-72.143271,Lake St/Dartmouth St
472,43.696020,-71.633067,School St/Ernest Way
160,43.718875,-71.618994,River St
216,43.780183,-72.198758,Wilmot Way
160,44.051723,-71.658186,Forest Ridge Dr
160,44.308291,-71.659019,Maple St
865,44.055896,-71.634755,Ram's Horn Dr/Loon Brook Rd
216,43.870825,-71.654450,Lafayette Rd/Clubhouse Ln
185,43.637804,-72.280228,/Mechanic St
160,44.167065,-71.680663,I- 93
160,43.858694,-71.664026,Squeaky Ln
185,44.126803,-71.965488,Amherst Ln
160,43.602926,-72.288932,/Poverty Ln
160,43.777332,-71.703705,Brookside Dr
185,43.945260,-71.504890,Chippewa Way
246,43.605885,-72.130417,/Marsten Ln
160,44.308856,-71.747220,Hilltop Manor Mobile Home Park
305,43.793542,-71.804838,Moosilauke Rd/Gilford Ave/Post Office Ln
160,43.703417,-72.299005,Main St
160,43.623987,-71.731737,Fox Run
160,44.063447,-72.022677,Allagash Rd
276,44.036976,-71.692512,Madison Dr
160,43.660309,-72.306093,S Main St
160,43.650463,-72.258782,I- 89
216,44.122185,-71.682038,I- 93/The Basin
526,43.769263,-71.682091,I- 93
160,43.641407,-72.269767,Findley Dr/Mascoma St
1226,43.754025,-71.687021,/Railroad Sq
216,43.616833,-71.737536,W Shore Dr/Lake St
160,43.875966,-71.671345,/Laundromat Rd
246,43.771257,-71.730918,Tenney Mtn Hwy/Smith Bridge Rd
3559,43.758404,-71.687711,/Main St/Court St
185,44.116823,-71.963735,Montview Dr
160,43.877109,-71.647596,Upper Mad River Rd
160,44.280607,-71.683712,Main St
418,43.643798,-72.254725,High St
305,43.645575,-72.233990,I- 89/Heater Rd
160,43.703248,-72.279002,Valley Rd/Dana Rd
943,43.759992,-71.680684,Fieldhouse Rd/Holderness Rd
160,43.917275,-71.684896,Daniel Webster Hwy/Levasseur Ln
160,44.226400,-71.741830,I- 93
160,43.650250,-72.305278,White Ave/Highland Ave
185,43.789605,-71.797052,School St/Moosilauke Rd/Groton Hollow Rd
160,44.041823,-71.682547,Connector Rd
362,43.949302,-71.507682,/Snow's Brook Rd
3419,43.758076,-71.687916,Post Office Sq
160,44.188219,-71.919869,Sym Noyes Rd/Mill Brook Rd
160,43.721516,-72.270474,Dresden Rd/Curtiss Rd
246,44.037408,-71.693568,Monroe Dr
185,44.308033,-71.753838,Union St/Coreys Mobile Home Park
418,43.944944,-71.501973,Hillside Way
216,43.683823,-72.285300,Drake Ln/Sachem Cir
185,44.135527,-72.017562,/Tree Top Ests
185,43.642412,-72.256979,Jordan Ct
160,43.678362,-72.264478,Centerra Pkwy/Lafayette St
160,43.722921,-71.558345,Cromwell Point Rd/US Hwy 3
216,44.152405,-72.038375,Pleasant St
185,43.588698,-71.803976,Cass Mill Rd/Sye Ali Rd
185,43.769777,-71.689165,/Tenney Mtn Hwy
185,43.691310,-71.634069,Winter St/Reed St
160,43.646190,-72.256602,Colburn St/Wheatley St
246,43.591251,-71.733025,Merrimack St/Spring St
185,43.643204,-72.114598,US Hwy 4
246,43.869353,-71.667891,/Daniel Webster Hwy
160,43.685418,-72.293525,Oakridge Rd/S Main St
185,43.644201,-72.236984,Bank St
160,43.703408,-72.298775,Tuck Dr/Main St
160,43.710837,-72.288920,Occom Ridge
160,43.782278,-71.673520,Pemi Dr/Main St
185,43.765542,-71.714805,Old 25 Rd
3925,43.759396,-71.691301,School St
160,43.641501,-72.255779,Mascoma St
762,44.307046,-71.774502,Main St
160,43.904058,-71.988970,Camp Rd
216,43.628809,-71.756037,Woodland Rd
216,43.641632,-72.144346,Depot St/Shaker Hill Rd
2408,43.754513,-71.687804,Gould Ter/Main St
160,44.144222,-72.025167,Mill St
276,43.864288,-71.635621,State Rte 175
276,44.034289,-71.686407,Main St/Paradise Rd
418,43.793219,-71.804992,Gilford Ave/Railroad St
160,43.846160,-71.665985,Ellsworth Hill/Miclon Rd/Dan Web Rd
276,43.641819,-72.144651,Shaker Hill Rd
276,43.850822,-71.640442,/Riverside Dr
246,43.647693,-72.256196,Davis Dr
246,44.049232,-71.648670,Crooked Mtn Rd/Crooked Mnt Rd
276,44.038572,-71.684141,Riverfront Dr/Deer Park Dr
160,43.747403,-71.651403,State Rte 175/Jenness St
160,43.799864,-71.721026,Lower Beech Hill Rd
246,43.864476,-71.635864,State Rte 175/Fifield Rd
185,43.700533,-71.777997,Vista Dr
185,43.792963,-71.680114,Lower Loop
185,44.142254,-71.681778,Trailhead Parking
185,43.643084,-72.271506,I- 89
185,43.880152,-71.667182,Maxie's Way/Daniel Webster Hwy/Beacon Hill Rd
160,44.079425,-71.996301,Cold Spring Dr/Blackberry Acres
305,43.793327,-71.806010,Victory Ave
185,43.997430,-71.607675,Tripoli Rd
160,44.288381,-71.714799,Lyons Rd/Cherry Valley Rd
185,43.707426,-72.270874,E Wheelock St/Rip Rd/Rayton Rd
160,43.665498,-72.042698,/Hinkley Rd/Canaan St/Apple Blossom Rd
526,44.306835,-71.775343,Ammonoosuc St/Green St
305,43.760046,-71.677795,I- 93/State Rte 175A
160,44.144896,-72.030483,Park St/Forest St
684,44.031241,-71.686689,Main St/Center St
185,43.644279,-72.303697,Floyd Ave/Village Green
216,44.089584,-71.683638,Daniel Webster Hwy/Parkers Ct
160,43.875956,-71.671201,Laundromat Rd/Morrill Ln
185,43.943858,-71.501757,/Bear Brook Ln/Noon Peak Rd
160,44.051443,-71.656271,Seasons Rd
160,43.622896,-71.777028,Bailey Rd/Fowler River Rd
246,43.905492,-72.137459,Bridge St
160,43.707585,-71.651615,/Daniel Webster Hwy
185,43.699606,-72.213534,Etna Rd/Ruddsboro Rd
160,43.718257,-71.534966,/US Hwy 3
185,43.597290,-72.166065,/Smith Pond Rd
216,43.610279,-72.189231,/Eastman Hill Rd
160,44.029969,-71.677272,I- 93
216,43.792097,-71.803499,Beulah Ave
160,43.637210,-72.213021,I- 89
185,43.644880,-72.309405,S Main St
160,43.884916,-71.664028,Mountain River Ave
160,44.030550,-71.678827,I- 93
185,43.635966,-71.778836,Village W
185,43.657905,-71.738964,Brookdale Rd
160,44.032488,-71.699630,Lost River Rd/Woodside Dr
160,43.633887,-72.155764,Main St
160,44.150312,-72.035373,Church St/Central St
160,44.042596,-71.677191,Lincoln Green
276,43.641975,-72.252284,W Park St/US Hwy 4
160,44.309198,-71.799522,I- 93
185,43.764245,-71.679972,I- 93
185,44.309550,-71.762136,Pine St
185,44.145702,-72.033673,Smith St/King St
160,43.621729,-72.264777,Hetzel Rd/Kings Hwy
160,43.639273,-72.299033,Tenley Dr
160,43.762285,-72.212341,/Grant Rd
185,43.640094,-72.147462,Wells St
160,44.284483,-71.742224,/Main St/Dartmouth College Rd
160,43.684120,-72.268848,Mount Support Rd
160,43.727908,-71.602077,Lower Meadows Rd
185,44.213973,-71.754781,Ridge Rd
160,43.648775,-72.169034,/Mascoma Valley Rd
216,44.141909,-71.683091,Lafayette Place Campground/I- 93
276,43.673964,-72.261065,/State Rte 120
246,43.849720,-71.641082,/Sunset Cir
160,43.972049,-71.641385,Dick Bradley Rd
160,43.716200,-71.612769,Loon Ln/Carl Ln/Leavitt Hill Rd
185,43.791731,-71.803663,Beulah Ave/Glory Ave
160,43.584376,-71.736989,Ellen Ln/Virginia Dr
185,44.061286,-71.687035,I- 93
362,43.649427,-72.309376,Dana St/Prospect St W
185,43.610060,-72.189608,Eastman Hill Rd/Whaleback Mountain Rd
246,43.693223,-72.087825,Goose Pond Rd
160,43.958343,-71.505261,/Greely Hill Rd
160,43.756432,-71.700230,Pleasant St
160,43.645452,-72.304144,Pleasant St
216,43.683600,-72.284127,Ralston Ln/Gould Rd
160,43.692805,-71.629299,Parkway/Short St/Depot St
160,43.638201,-72.244660,Perley Ave/Prospect St Exd
185,43.933201,-71.687571,I- 93
160,44.238017,-71.880027,US Hwy 302/Dartmouth College Rd
216,43.641785,-72.149770,Oak Grove St
216,43.590728,-71.740279,Pleasant St
185,43.693850,-71.629503,Main St
216,44.307923,-71.778639,Main St/Elm St
185,43.740531,-71.691742,/Notchview Dr
160,43.650877,-72.073390,/Hersey Way
160,44.049773,-71.657538,Summer Dr
160,43.622680,-72.147932,Butternut Pl
276,43.651843,-72.252520,Evans Rd
160,44.049160,-71.672235,Woodland Loop
185,43.757732,-71.697009,Hawthorne St/Cooper St
160,43.639728,-72.260288,Mascoma St/Masoma
185,43.650101,-72.253015,/I- 89
472,44.036565,-71.676923,Kancamagus Hwy
246,43.696329,-71.632985,Ernest Way
2035,43.762188,-71.691623,Merrill St/Bayley St
160,43.813805,-71.811076,Mill Rd/Main St/Stinson Lake Rd
160,43.645828,-72.245674,Spencer St/Thompson St
160,44.166415,-71.965435,/Lisbon Rd
185,43.641622,-72.255305,Mascoma St/Mechanic St
216,43.707598,-72.281262,Parkway/N Balch St
160,43.867301,-71.655946,Balsam Ln
305,43.648173,-72.310349,Atwood Ave/S Main St
185,44.214731,-71.907460,Dartmouth College Rd/Whitcher St
246,43.712128,-72.284625,Hilton Field Rd/Rope Ferry Rd
499,43.947631,-71.502330,Packard's Rd/Valley Rd
891,44.037098,-71.676553,Main St
185,44.303527,-71.766952,Willow St/Grove St
160,43.690147,-72.290657,Dunster Dr
160,43.859750,-71.652199,I- 93/Owl St
246,43.641885,-72.252246,W Park St/Church St/S Park St/US Hwy 4
160,44.278576,-71.806811,/Mount Eustis Rd
160,43.778918,-71.679820,Main St/Piper Notch Rd
418,43.899840,-72.139064,School Dr/State Rte 25A
334,43.642935,-72.129389,/US Hwy 4
216,43.645194,-72.308694,Orcutt Ave/Maple St
185,43.725668,-71.605296,Squam Lake Rd/US Hwy 3
160,43.636832,-72.246432,Messenger St
216,43.659309,-71.794663,Birchwood
160,43.627689,-71.734078,Wicom Rd/Sable Dr
2194,43.705955,-72.289562,Webster Ave/N Main St
276,43.769992,-71.720442,Highland St
160,44.287069,-71.747912,Main St
185,44.213604,-71.918016,Highland Pl/Highland Ave
160,43.643299,-72.153601,Cemetery Rd
216,43.770003,-71.738701,/Industrial Dr
276,43.772499,-71.684940,/Daniel Webster Hwy/Main St
246,43.645226,-72.235115,Lilac Ave/Barnes Ave
216,43.697824,-71.646001,/Daniel Webster Hwy/I- 93
160,43.619302,-71.741840,Holiday Hills Rd
160,44.152101,-72.031952,Ammonoosuc St/Gibson St
160,43.727895,-71.612188,Howe Rd
160,43.645242,-72.303256,Pleasant St
160,43.611543,-72.083312,Lockehaven Rd
216,43.781890,-71.665221,Falls Rd
185,43.731077,-71.574947,Vinga Ct/US Hwy 3
865,43.705042,-72.294305,Tuck Mall
160,43.724153,-71.537692,Pine Needle Pt
160,43.598682,-71.683462,Summer St
160,43.775769,-71.703622,/Carpenter Park Rd
216,43.597165,-71.729106,Sugar Hill Rd/Summer St
605,43.699961,-72.287532,South St/Currier Pl
472,43.899966,-72.138858,School Dr
160,44.049171,-71.671652,Woodland Loop
246,43.950573,-71.507569,/Village Rd/Black Bear Rd
185,43.636787,-72.212802,I- 89
445,43.851157,-71.642012,State Rte 49
276,43.619110,-71.739941,W Shore Rd/Holiday Hills Rd
160,43.639390,-72.278513,I- 89
216,43.722325,-71.654838,I- 93
216,43.626492,-71.752336,/Manor Estates Dr
185,43.716513,-71.539029,/Wildwood Rd
216,43.944431,-71.501065,Boulder Wood/Hillside Way/Noon Peak Rd
246,43.694689,-72.279188,/Lebanon St
160,43.895962,-71.679044,Daniel Webster Hwy/Rooster Dr
246,43.658835,-71.793269,Rock Pt
160,43.965228,-71.524255,/Tripoli Rd
160,43.872201,-71.640672,Night Rd
160,43.640374,-72.246198,Union St/Kimball St
160,43.870350,-71.668739,/I- 93
160,43.945551,-71.505539,Innsbrook/Tecumseh Rd
160,43.641710,-72.266973,Shortcut St/Michael St
246,43.709163,-71.624405,Mill Stream Dr
160,43.644210,-71.826198,Robie Rd/Fowler River Rd
160,43.843897,-71.646768,I- 93
160,44.301537,-71.768928,Owen Dr/Cottage St
160,43.653605,-72.083721,/US Hwy 4
216,43.719073,-72.270798,Woodmore Dr/Curtiss Rd
160,43.625591,-71.752330,/Woodbury Dr
246,43.648414,-72.255115,Winter St/Ela St
216,43.774352,-71.545290,Ice House Rd
305,44.044966,-71.678820,Mansion Hill Dr/Manor Rd
160,43.587384,-71.748083,Pleasant St/Worfield Cir
246,43.618863,-71.740903,Hillgate Rd/Holiday Hills Rd
185,43.622281,-72.145769,Water Lily Ln
160,43.643369,-72.276202,/Mascoma St
788,43.700942,-72.285683,Lebanon St/Sanborn Rd/Crosby St
2141,43.753999,-71.690356,Winter St
185,44.004059,-71.673381,I- 93
160,43.614669,-72.141218,Glen Rd/Wolfson Ln
216,44.311735,-71.783709,Winter St/W Elm St
246,43.859050,-71.598171,Forest Dr/Taylor Dr
185,43.645858,-72.308454,Pleasant St/Maple St
185,43.772539,-71.701603,Lacourse St/Cooksville Rd
185,44.270674,-71.909917,Ogantz Rd
185,43.636880,-71.768233,/Greenwood Path
160,43.653253,-72.172440,/Ruddsboro Rd
185,43.639868,-72.250509,Gerrish Ct/Garrish Ct
160,44.041856,-71.663937,Cooper Memorial
216,43.590302,-72.109931,/State Rte 4a
160,44.034453,-71.687900,Young St/Paradise Rd
4439,43.758923,-71.688870,Court St
216,43.863006,-71.606847,Dubeau Cir/Donovan Farm Rd
160,43.967276,-71.962771,Pub Access Rd
216,44.312518,-71.777738,Oak Hill Ave/Lilac Ln
276,43.639036,-72.263834,/Mascoma St
185,43.653345,-71.752663,Dix St/Woodside Dr
185,43.622842,-72.149394,Chosen Vale Ln/Willow Ln
160,43.867793,-71.668703,/Daniel Webster Hwy
160,43.645851,-72.040196,US Hwy 4
552,43.695507,-71.631504,Highland St
276,43.752066,-71.690357,First St
246,43.696267,-71.634833,School St/Education Dr
160,43.943268,-71.503557,Jomica Way/Jamaica Way
526,44.305607,-71.770119,Cottage St
1355,43.759835,-71.686322,Holderness Rd/Green St
216,43.955975,-71.510163,Rey Ln/Osceola Rd
160,43.810058,-72.155169,/on the Cmn
246,44.141853,-71.683142,/I- 93
185,44.044897,-71.671712,Govoni Ln/School St/Henry Ln
185,43.955529,-71.510597,Moose Way
160,44.043446,-71.677404,Greenridge Rd/Rue de Gionet
160,43.637232,-72.212759,/I- 89
160,44.282037,-71.655142,Main St
160,43.642092,-72.246720,Union St/Green St
185,44.232671,-71.757814,River Rd
246,43.712332,-72.284452,Rope Ferry Rd
276,43.694073,-71.629577,Mill St/Main St
160,43.641471,-72.228287,Colby Ave
160,44.142177,-72.029331,Trailer Park Rd/Forest St
160,44.181681,-71.713991,/Pioneer Rd/Hubertus Ring
185,44.037144,-71.688810,Grant Dr
185,43.695380,-71.628134,Potter Pl
160,44.323579,-71.796903,I- 93
276,43.760089,-71.677359,I- 93/State Rte 175A
160,44.063384,-71.589214,Kancamagus Hwy/E Branch Rd
160,43.804246,-71.676464,Bog Rd
185,43.866737,-71.668783,Daniel Webster Hwy
160,43.719992,-72.260829,Reservoir Rd/Town Rd
788,44.050882,-71.659931,Kanc Rec Rd/Pollard Rd
160,44.235833,-71.716128,Forest Hill Rd
216,43.731053,-71.585069,Christian Ln/US Hwy 3
160,43.641896,-72.230530,Bank St Exn/Liberty Ln
160,43.623155,-72.149755,Willow Ln
305,43.724169,-71.609982,US Hwy 3
246,43.658679,-71.794667,Birchwood/S Ledge Loop
160,43.636049,-71.777456,Village W/W Shore Rd
185,43.969091,-71.675146,I- 93
185,43.757844,-71.651858,Sargent Rd
185,43.850670,-71.648439,Gearty Way/Campton Village Rd
160,43.726146,-71.600853,US Hwy 3
160,43.775271,-71.701767,Carpenter Park Rd/Beech Hill Rd
216,44.045175,-71.671553,Govoni Ln
185,43.865843,-71.634115,Village Rd
160,44.303744,-71.795147,I- 93/Industrial Park Rd
160,43.989435,-71.672777,I- 93/Tripoli Rd
276,44.047120,-71.671495,Pollard Rd/Maple St/Maple St Exd
160,43.647693,-72.259019,Young St/Downes Ave/Downes St
246,44.047375,-71.679435,Chickadee Way/Manor Rd
160,44.046810,-71.678632,Bear Path
160,44.278527,-71.714336,Parker Rd/Main St
160,43.977043,-71.684646,Daniel Webster Hwy/Bryant Ledge Dr
160,44.142842,-71.682202,/I- 93
813,44.076311,-71.686135,Orourke Dr
160,43.945294,-71.506810,Forest Knoll Way
160,43.619087,-72.146858,State Rte 4a
160,43.647072,-72.017783,Bruce Rd/Mascoma Valley Rd
160,43.615467,-72.141488,Al Wood Dr/Wolfson Ln
216,43.693197,-71.769703,Mayhew Tpke/Hillside Dr
185,43.943139,-71.695834,Mirror Lake Hamlet
526,43.696065,-71.632798,School St/Gordon St
216,44.036174,-71.681895,Ridge Dr A/Deer Park Dr
216,43.627930,-71.757065,W Shore Dr
185,43.851984,-71.640442,Southmayd St
160,43.738526,-71.667794,Fairway Dr
305,43.641916,-72.254055,Water St/Mascoma St
185,43.700335,-71.779227,Loon Island Ln
499,43.649575,-72.310722,Bridge St
160,44.052913,-71.669137,Woodsview Ln/Whiteoak Ln
305,43.700275,-72.284659,Lebanon St/Hovey Ln
160,43.777696,-71.795021,Groton Hollow Rd
216,44.285022,-71.745015,/I- 93
334,43.731182,-71.586872,US Hwy 3
684,43.629811,-72.321731,Interchange Dr/N Plainfield Rd
185,43.772188,-71.734332,Artisan Ln/Smith Bridge Rd
160,43.901343,-72.141415,State Rte 25A
160,43.625574,-72.127887,Patricia Ct/Mountain View Dr
185,44.053935,-71.666208,Pinehill Ln/Hillside Cir/Pinehall Ln
246,43.940273,-71.691109,Mirror Lake Rd
3336,43.757070,-71.688038,Highland St
160,43.877424,-71.606449,Welch View Dr
160,43.641470,-72.259903,Guyer St/Young St
276,43.763464,-71.679102,/I- 93
160,43.615169,-72.141510,Wolfson Ln
334,43.758020,-71.699721,Broadway St/Hawthorne St
160,43.774066,-71.701692,Beech Hill Rd/Fairgrounds Rd
276,43.698281,-72.285650,Ledyard Ln/Hovey Ln
160,44.143856,-72.031500,Bridge St
418,44.037259,-71.677224,Donovan Dr
185,43.716806,-71.531428,US Hwy 3/Donniewood Dr
216,44.044770,-71.671475,School St/Edgewood St
160,44.039243,-71.676280,West St
418,43.769502,-71.682647,I- 93
185,43.947371,-71.676830,Daniel Webster Hwy
160,43.804782,-71.676085,Gray Hill Rd/Bog Rd
839,43.764193,-71.687137,Main St/Tobey Rd
185,43.643537,-72.234713,Fortune St
185,43.717109,-71.531879,Wildwood/US Hwy 3
390,43.765892,-71.687258,Main St
390,44.167719,-71.681695,/I- 93
185,43.887008,-71.620152,Strawberry Ln
246,43.905104,-72.137322,Morey House Dr/Dartmouth College Hwy
216,44.054161,-71.689145,Daniel Webster Hwy
2009,43.705113,-72.290480,Tuck Mall/Massachusetts Row
185,44.006756,-71.684292,Birchway Dr
472,43.752700,-71.702348,Cross Country Ln/Ash Hill Rd
418,44.048866,-71.661100,Lodge Rd
160,44.176969,-71.717959,Deer Pass Rd
160,44.085643,-72.023558,Aldrich Ln
160,43.691273,-72.289904,Mourlyn Rd
185,44.324192,-71.812822,I- 93
246,43.946195,-71.501844,Mountain Village Rd/Noon Peak Rd
216,44.285855,-71.682199,Situ Rd
160,43.632772,-72.273050,Tuck Rd/Nottingham Cir
160,43.945148,-71.967802,Cape Moonshine Rd
160,44.304945,-71.777708,South St
216,43.784434,-71.675772,I- 93
362,43.768649,-71.685193,Foster St
160,44.121771,-71.682066,/I- 93
160,44.027384,-71.974697,Mt Moosilauke Hwy
216,44.296125,-71.768608,/Cottage St
185,43.880184,-71.617685,Old Meadow Rd
216,43.691154,-71.633957,Winter St/Mill St
160,43.952385,-71.501301,Golden Heights Rd
305,43.639507,-72.257066,Blacksmith/Mechanic St
216,43.783131,-71.665741,Old Eastside Rd
160,43.690039,-72.269202,Mount Support Rd
160,44.128807,-71.957833,Sugar Hill Ln
185,43.957461,-71.510933,High Country Way
160,43.696753,-72.278706,Carter St/Crowley Ter
160,44.001489,-71.676841,Eastside Rd/Mountain Park Dr
160,43.636787,-72.252883,/Spring St
185,44.204176,-71.919212,Acre Dr
160,43.909903,-71.686736,Levi Rd
160,43.650838,-72.257645,/I- 89
160,44.199353,-71.725044,Wells Rd
305,43.755786,-71.674646,I- 93
160,44.136500,-72.023986,Swiftwater Rd
160,43.722330,-71.671992,River Rd/Daniel Webster Hwy
160,43.867311,-71.637505,Osgood St/Cross St
276,44.043961,-71.671262,Pleasant St
160,43.687833,-72.204921,King Rd/Hayes Hill Rd
185,44.062326,-71.624672,Clearbrook Rd/Birch Rd
185,43.644064,-72.303677,Floyd Ave
160,43.640595,-72.148949,Main St
305,43.771288,-71.684874,/Tenney Mtn Hwy
334,44.038872,-71.675896,West St
216,43.792205,-71.803046,Tabernacle St
160,43.782575,-71.660993,Trapper Brown Rd
605,44.053312,-71.653266,Brookline Rd
334,44.043414,-71.672075,Lin-Wood Dr
390,44.046797,-71.685528,Connector Rd
160,43.762581,-72.190701,Mulherrin Farm Rd
160,44.001655,-71.672958,I- 93
185,43.809005,-71.653725,Blair Rd/State Rte 175
185,43.704742,-72.279510,E Wheelock St
185,43.731172,-71.575829,US Hwy 3
160,43.678495,-72.194101,Etna Highland Rd
160,43.748274,-71.686410,Chaddarin Ln
185,43.604913,-71.679327,Newfound Rd
160,43.689571,-72.094551,Pvt Rd Off W Shore/W Shore Rd
160,44.315120,-71.754302,Redwing Ln
185,43.747730,-71.686416,Chaddarin Ln
305,43.751998,-71.689838,Warren St
160,43.686310,-72.294723,/Pinewood Village Rd
216,43.637654,-72.278389,/Mechanic St
185,43.697798,-72.286186,Ledyard Ln/Hovey Ln
160,43.782328,-71.662111,Trapper Brown Rd
865,44.084774,-71.684538,Daniel Webster Hwy/Shadow Lake Ln
390,43.747929,-71.664967,I- 93
216,44.153045,-72.038197,Pleasant St/Central St
185,44.006916,-71.684401,Spruce Ln/Birchway Dr
160,44.308767,-71.747174,Hilltop Manor Mobile Home Park/Union St
160,43.764028,-71.714092,Blueberry Hill Rd
216,43.743790,-71.662083,N Ashland Rd/I- 93
185,43.952285,-71.510736,Avalanche Way
246,44.145902,-72.035179,King St
160,43.634215,-72.208524,Stoney Brook Rd/Mascoma Valley Rd
160,43.773961,-71.694194,Quincy Rd/Page St
216,43.685107,-72.269262,/Mount Support Rd
276,43.713104,-71.651064,I- 93
658,43.753409,-71.693287,Langdon St/Prince Haven Rd
160,43.584636,-71.800475,Adams St/Cass Mill Rd
658,44.037537,-71.674674,Recycle Rd
160,43.739808,-71.584856,Goss Rd/State Rte 113
185,43.691716,-72.266656,Gibson Rd/Greensboro Rd
216,43.866447,-71.602370,Wanosha Trl/Timber Trl
185,44.055082,-71.688321,Cold Springs Campground Rd
185,43.619327,-71.733555,Lake St/Main St
305,43.673995,-72.260872,/State Rte 120
185,44.303196,-71.769536,Kilburn St/Cottage St
160,43.688546,-71.638130,Birch Dr/Ash Dr
160,43.641992,-72.259840,Young St/Bliss St
185,43.647105,-72.310977,/Railroad Ave
160,43.615223,-72.114958,Mascoma Heights Dr/Shaker Hill Rd
185,43.828850,-71.656426,I- 93
305,44.307765,-71.801171,/Meadow St
160,44.167009,-71.680681,I- 93
160,44.281234,-71.673938,/Main St
216,43.590976,-71.740095,Lake St/Pleasant St
160,43.625008,-71.751940,Woodbury Dr
418,43.643991,-72.251488,/Taylor St
185,43.658759,-72.245207,State Rte 120/Etna Rd/Old Etna Rd
362,44.044499,-71.661963,Riverside Terrace Dr
185,44.062117,-71.687361,Daniel Webster Hwy/I- 93
334,43.755258,-71.674598,I- 93
160,43.958583,-71.510966,W Branch Rd/Stone Tower Ln
216,43.906674,-72.139091,Bridge St
160,43.676595,-72.044565,Prospect Hill Rd/Back Bay Rd
160,43.648617,-72.259033,Williams St
216,43.764861,-71.714345,Old 25 Rd/Blueberry Hill Rd
994,43.758472,-71.683568,S River Rd
216,44.045002,-71.671263,Edgewood St/Corbeil Ln
160,43.850276,-71.635547,Bluff Rd
160,44.217974,-71.912900,Lincoln A/Lincoln Ave
185,43.953004,-71.504444,Village Rd/Valley Rd
160,43.876806,-71.671842,Morrill Ln
246,44.308154,-71.754287,Corless Mhp/Gilman Map
246,44.057766,-71.629057,/Kancamagus Hwy
276,43.699597,-72.291456,School St/Pleasant St
160,43.719318,-71.620088,/Squam Bridge Lndg
160,43.548677,-71.819983,Ragged Mtn Hwy
185,43.658818,-72.249892,Wolf Rd
185,43.701038,-71.778910,Loon Island Ln/Crescent St
246,43.792282,-71.782946,/Quincy Rd
276,43.864795,-71.636285,State Rte 175/Mad River Rd
185,43.732187,-71.571257,Tall Timber Dr
160,43.747025,-71.562386,State Rte 113
216,43.629889,-71.757490,Lakeview Ln/Birch Dr
246,44.041356,-71.681493,I- 93/Connector Rd
160,44.219941,-71.898545,Dartmouth College Rd
160,43.640258,-72.258534,Cameron Ave/Mascoma St
160,43.641670,-72.255615,Mascoma St/High St
246,44.029944,-71.683825,Profile Dr
216,43.742978,-71.662004,I- 93
216,43.649968,-72.253517,I- 89/Hanover St
160,43.878971,-71.802383,Stinson Lake Rd
418,43.643781,-72.254486,Hanover St/High St
160,43.718037,-71.667309,Highland Ter/Birch Pl
160,43.690426,-72.095774,Pvt Rd Off W Shore/W Shore Rd
185,43.568854,-72.152503,I- 89/
160,44.007224,-71.684689,Scenic Dr/Birchway Dr
334,43.644062,-72.249754,Spencer St/Campbell St/Parkhurst St
2435,43.753847,-71.689625,Russell St
246,43.962476,-71.675792,Koa Campground
390,44.180515,-71.713832,/Mittersill Rd
160,44.032348,-71.680796,Kancamagus Hwy
185,43.634593,-72.211858,/I- 89
762,43.642574,-72.252394,/W Park St
216,43.626972,-71.752849,Manor Estates Ln/Manor Estates Dr
216,43.588804,-71.734801,Prospect St/High St
605,44.043885,-71.667911,Sawmill Dr
185,43.904595,-72.137947,Dartmouth College Hwy/Wheeler House Dr
552,43.762030,-71.682794,Fieldhouse Rd
185,44.305778,-71.750026,Tamarac St/Redington St
160,44.312426,-71.798124,Dells Rd
160,44.144006,-72.027317,Kelley Ln/Montebello St
160,43.589757,-72.112057,/Goodhue Hill Rd
185,43.771589,-71.538326,Red Hill Rd
160,43.813569,-72.149925,/High St
160,43.643832,-72.232718,Alden Rd
160,43.624817,-71.745925,/W Shore Rd
160,43.691964,-72.269802,Lebanon St/Greensboro Rd
160,43.757384,-71.706937,/Binks Hill Rd
334,43.641287,-72.146653,Main St/Blacksmith Aly
185,43.627934,-71.755256,/Belmore Ct Rd
246,43.944781,-71.503718,/Chippewa Way/Windsor Hill Way
160,43.867524,-71.668717,Daniel Webster Hwy
160,43.957221,-71.508250,Boulder Park Rd/Osceola Rd
160,43.881911,-72.105023,Huckins Hill Rd
160,44.052432,-71.644410,S Peak Rd/
160,43.954044,-71.508487,King Ln
185,44.179256,-71.691773,I- 93/Profile Rd
2114,43.703303,-72.289407,N Main St/Cemetery Ln
526,43.707915,-72.288483,Maynard St/N Main St
160,43.645412,-72.304409,Pleasant St/Village Green
334,43.958703,-71.508692,W Branch Rd/Boulder Path Rd/Boulder Park Rd
246,43.958374,-71.680108,Daniel Webster Hwy/I- 93
216,43.641970,-72.252545,/US Hwy 4
276,44.030328,-71.681076,Deer Park
160,43.765716,-72.210412,River Rd
658,43.951898,-71.508214,Black Bear Rd
185,43.775389,-71.739221,Smith Bridge Rd
185,43.635088,-71.759106,/Wulamat Rd
499,43.695242,-71.631455,Pleasant St/Main St
160,43.737627,-71.580714,/Kesumpe Point Rd
2009,43.702553,-72.287765,E Wheelock St/College St
185,44.057878,-71.618452,Queens Way
276,43.686601,-71.642997,Collins St
276,43.694346,-71.629648,Thompson St/Main St
160,43.721893,-72.274826,Chandler Dr
216,43.688622,-72.269299,Mount Support Rd
216,43.658884,-72.248813,Wolf Rd
216,43.798397,-71.677587,I- 93
276,43.640881,-72.275431,I- 89
246,43.648062,-72.249187,State Rte 120/
160,44.031726,-71.682161,Deer Park/Deer Park Dr
185,43.665177,-72.257312,Mount Support Rd
185,44.222628,-71.733207,Frontage Rd/Forest Hill Rd
160,43.827913,-71.662015,Daniel Webster Hwy/Town Pound Rd
160,43.599638,-71.724707,Danforth Brook Rd/Maple Grove Ln
185,43.640696,-72.268625,Avon Ave/Mascoma St
160,44.216285,-71.785216,Sugar Hill Rd/Birches Rd
216,43.647581,-72.142777,Stark Ln
216,44.063676,-71.615858,Highwood Rd
216,43.817089,-71.664263,Dan Web Hwy
246,43.693824,-71.643523,I- 93
246,43.900648,-72.142748,Hebb Dr/Boat Landing Rd/Orford Rd
526,43.948475,-71.508609,Mountain Brook Way
216,43.949630,-71.685857,I- 93
160,43.943388,-71.503350,/Jomica Way
185,43.615470,-71.738139,Lakewood Pines
160,43.881809,-72.105591,/Huckins Hill Rd
160,43.715041,-71.581636,Lane Rd
160,43.643629,-72.232978,Alden Rd/Heater Rd
160,44.027097,-71.684160,Resnick Cir
160,43.802211,-71.657038,State Rte 175
185,43.718244,-72.274075,Lyme Rd/Reservoir Rd
276,43.634199,-71.758171,Wulamat Rd
216,44.142184,-71.682532,I- 93/Trailhead Parking
160,44.171470,-71.686732,/I- 93
305,43.757686,-71.673429,S Campus Rd
160,43.645454,-72.303717,/Pleasant St
216,43.697306,-71.645598,/I- 93
472,44.031292,-71.687192,/Center St
788,44.036952,-71.676666,Main St/Kancamagus Hwy
246,43.693764,-71.643021,I- 93
276,44.044907,-71.678998,Mansion Hill Dr/Manson Hill Dr
1174,43.703003,-72.285766,E Wheelock St/Crosby St/Observatory Rd
160,44.224746,-71.742163,Dow Ave
552,43.642643,-72.254320,Hanover St
216,43.808335,-71.663571,Hoyt Rd
160,44.281161,-71.647345,Twin Dr
216,44.004213,-71.672900,I- 93
160,43.648800,-72.169342,Mascoma Valley Rd
160,43.585346,-71.738551,Putnam Dr/Chestnut St
185,43.769042,-71.692643,Tenney Mtn Hwy
160,43.880392,-71.620553,Terrace Rd
305,43.644184,-72.251598,Taylor St
185,43.641402,-72.255477,Mechanic St
160,44.320479,-71.673080,/Whitefield Rd
216,43.673744,-72.261917,Lahaye Dr
160,43.611526,-72.083078,Mud Pond Rd/Lockehaven Rd
216,43.649192,-72.243494,Foch Ave
246,43.697180,-71.633093,Highland St/Cottage St
216,43.762806,-71.697042,Merrill St
185,43.637183,-72.219118,Mascoma Valley Rd
160,43.642900,-72.237602,Franklin St/Dartmouth College Hwy
762,43.754176,-71.692537,Fox St
160,43.604825,-72.131819,Rocky Hill Way/Marsten Ln
185,43.643545,-72.257492,Mason St/Granite St
160,44.054459,-71.638904,Riverside Dr/Loon Brook Rd
160,44.209092,-71.724493,/Profile Rd
185,43.697199,-71.633686,Education Dr
526,44.305379,-71.770021,Cottage St
185,43.656120,-72.249589,Heater Rd/Old Etna Rd
246,44.308629,-71.793595,/Meadow St
185,43.664071,-72.250048,Wolf Rd Stone Farm Exn
216,43.674350,-72.261676,/State Rte 120
216,43.643665,-72.233933,Bank St Exd/Excelsior St
334,43.641622,-72.145812,Main St
684,44.043233,-71.669691,Main St
246,44.037639,-71.693390,Alpine Village Dr/Monroe Dr
185,44.178319,-71.717254,Woodchuck Trl
736,44.306336,-71.771250,Pleasant St/Main St
185,43.683499,-71.768578,Mayhew Tpke//S Mayhew Tpke
185,43.775513,-71.769444,Moosilauke Rd/Risley Rd
160,43.879158,-71.802177,Stinson Lake Rd
762,44.052575,-71.653478,Marcalus Rd
160,43.777819,-71.679314,I- 93
216,43.647778,-72.143269,Stark Ln/May St
160,43.599489,-72.169401,Old Rte 10
185,44.213698,-71.910657,School St/Dartmouth College Rd
246,44.308208,-71.756179,Hadley St/Union St
185,43.771849,-71.678994,Pemi River Hts
160,43.897511,-72.073219,Gov Meldrim Thomson Scenic Hwy/Dame Hill Rd/State Rte 25A
160,43.619751,-72.145722,Caleb Dyer Ave/Chosen Vale Ln/Caleb Dyer Ln
160,43.880226,-72.099074,Co Rd 50/Brook Rd
390,43.769695,-71.719694,Highland St
160,44.128953,-71.958132,Sugar Hill Ln/White Mt Dr
246,43.674133,-72.261340,State Rte 120/Lahaye Dr
390,43.761319,-71.694253,Emerson St/High St
160,44.064339,-71.623195,Big Bear Ln
216,44.311700,-71.783607,W Elm St/Sunset Dr
185,43.619824,-71.740579,Pisquaney Shores Dr/Pasquaney Shores Dr
276,43.760117,-71.671546,State Rte 175
185,44.171293,-71.686275,/I- 93
246,43.945624,-71.500856,Hillside Way/Bobcat Way/Noon Peak Rd
160,44.051124,-71.653432,W Branch Rd
362,44.280193,-71.756774,/W Farms Rd
160,43.746654,-71.647379,Wadleigh Rd/State Rte 175
160,44.262314,-71.579063,Daniel Webster Hwy
1407,43.704475,-72.290394,/Massachusetts Row
185,43.811458,-71.670074,Blair Rd/I- 93
160,43.980312,-71.685984,Downing Dr/Potato Hill Rd
160,43.703319,-72.278610,Tyler Rd/Valley Rd
160,43.612063,-71.768435,Mountain View Dr
185,43.617582,-71.742032,Hillgate Rd
160,44.312489,-71.740365,Union St/Parker Village
160,43.648020,-71.752184,Tomahawk Trl/Tomahawk St
185,43.802618,-71.676101,I- 93
185,44.148140,-72.034001,Pine St/Central St
216,44.051299,-71.656913,/Winter Way
216,44.053103,-71.641247,Big Stone Rd
160,44.214230,-71.911003,School St
185,44.145602,-72.032706,Central St
160,43.638099,-72.266170,Slayton Hill Rd
2623,43.754548,-71.690215,Winter St/Wentworth St
526,43.649532,-72.310648,Bridge St
160,43.645771,-72.246183,Spencer St/Mahan St
334,43.772155,-71.682502,/I- 93
160,44.019042,-71.683795,Kimball Dr/Parker Ledge Rd
160,43.688131,-71.638795,Spruce Dr
160,44.143757,-72.028534,Terrace St/Central St
276,43.762470,-71.694049,Merrill St/Emerson St
160,43.690035,-71.622072,Ledgewood Ln
160,43.857533,-71.805191,/Anderson Rd
185,43.811921,-71.671336,/Blair Rd
185,43.775824,-71.769838,/Moosilauke Rd
276,43.810358,-71.667118,Blair Rd
185,44.051640,-71.656337,Kancamagus Hwy/Seasons Rd
216,43.781921,-71.665422,Falls Rd/Old Eastside Rd
160,44.141660,-72.024587,/Dartmouth College Hwy
160,43.880974,-71.647240,Nathan Dr/Susi Ln
160,43.793216,-71.784632,/Quincy Rd
160,44.294042,-71.761329,Morrow Dr/Bethlehem Rd
185,44.090383,-71.683699,/Daniel Webster Hwy
185,43.649482,-71.980597,Eastman Rd
216,43.869701,-71.667591,/Daniel Webster Hwy
968,43.759992,-71.680424,Lower Fields Rd/Holderness Rd/State Rte 175A
160,43.745631,-71.761394,John French Dr
160,43.688671,-71.639672,Collins St
160,43.667357,-72.197494,Blueberry Hill Dr
185,43.627743,-71.755455,Belmore Ct Rd/W Shore Rd
246,44.147046,-72.037081,Pine St/King St
160,43.793770,-72.131958,Village View Farm Rd
246,44.308399,-71.754273,Corless Mhp
499,44.031804,-71.686101,Morris St
160,44.221753,-71.734626,Forest Hill Rd
160,44.186466,-71.683027,/I- 93
472,43.695227,-71.633467,Winter St/Main St
160,43.661962,-72.249134,Wolf Rd
160,43.858528,-71.663949,Squeaky Ln
891,44.306821,-71.773446,Main St
185,43.769339,-71.710823,Tenney Mtn Hwy
216,43.638076,-72.213635,I- 89/
276,43.751645,-71.702417,Ash Hill Rd
185,43.844482,-71.646843,I- 93
185,43.954533,-71.680672,Daniel Webster Hwy
