Estimated daily crossings,Latitude,Longitude,Name
305,32.459846,-86.458891,Knob Hill Rd/E Main St
185,32.434435,-86.482204,Selma Hwy
160,32.428971,-86.466229,Spring St
160,32.431198,-86.417276,Padres Pl
305,32.493451,-86.415837,Westbrook Ct
526,32.448690,-86.426026,Sheila Blvd/Jay St
305,32.471708,-86.485760,Durden Rd/Unamed Paved Trailer Park Dr
160,32.444892,-86.653650,Fox Quarter Rd
276,32.470832,-86.451707,N Memorial Dr
160,32.495663,-86.454527,US Hwy 31
276,32.508082,-86.419239,Rushmore Dr/Clearbranch Rd
216,32.470405,-86.471652,9th St/Martin Luther King Dr
216,32.455953,-86.454129,Cardinal Ln/Partridge Ln
216,32.466662,-86.439473,Poplar St/E Poplar St/Plum St
160,32.588208,-86.414958,Lisa Ct/Denny Dr/Traul Ct
246,32.447049,-86.481067,Andiron Ct
216,32.469541,-86.487562,Danny Lynn Ct/Danny Lyn Ct
185,32.467283,-86.462309,Harlem St/Booth St
246,32.456919,-86.456506,Jeanette Dr
276,32.488211,-86.420927,Riverton Dr
305,32.530616,-86.444060,I- 65
216,32.452402,-86.443956,/Old Hwy 31/S Memorial Dr
160,32.446232,-86.436723,S Memorial Dr/Overlook Dr
305,32.501460,-86.478856,Coleman Way
445,32.472028,-86.466986,Bent Tree Ct
185,32.447756,-86.457076,Summer Hill Rd/Ceresa Dr/Marlette Dr
362,32.471223,-86.454936,Magnolia Ct
185,32.454892,-86.450488,Smith Ave/Honeysuckle Dr
305,32.472203,-86.468872,Cosby Ct
216,32.468698,-86.438552,Kay St/Gail St
246,32.590322,-86.475427,I- 65
362,32.455581,-86.415233,Dee Dr/Doss Ct
246,32.486168,-86.419742,Ashton Oak Dr
246,32.429038,-86.459809,Langford Way
418,32.436112,-86.422965,Serenity Dr/S Memorial Dr
1355,32.463352,-86.450697,S Memorial Dr/Gillespie St
160,32.495865,-86.417451,Holly Brooke Ln
160,32.569898,-86.467945,Daffadil Ct
276,32.443196,-86.482264,Robbins Dr/US Hwy 82 Byp W
472,32.655236,-86.499868,Sabrina Ln
276,32.459859,-86.508213,Bell Ln
276,32.437865,-86.467319,Johnson St
216,32.478202,-86.444556,Holly Ln/Sycamore Dr
216,32.476636,-86.470736,Bunche Ave/Martin Luther King Dr
160,32.501334,-86.437051,Valridge W
246,32.444000,-86.469862,Gray Dr/Clubview Dr
305,32.430151,-86.416052,Candlestick Way
246,32.481544,-86.480929,Upper Kingston Rd/Melmar Dr
246,32.456806,-86.444734,Deramus St/Deramus Ct/Oates Rd
276,32.608051,-86.479084,I- 65
1407,32.465114,-86.450709,Wright St/N Memorial Dr
216,32.478541,-86.414118,Sadie Cir
216,32.466571,-86.468596,Pine St
160,32.624954,-86.424370,Autauga County 85
185,32.448853,-86.428127,Beth Manor Ct
216,32.486396,-86.423945,Overton Dr
216,32.586008,-86.464323,/US Hwy 31
160,32.434748,-86.525490,Rhodes Ln/Simmons Rd
579,32.469191,-86.417346,Chancellor Ridge Rd
246,32.483488,-86.487057,Wooten St
160,32.513362,-86.497590,Autauga County 85/Bridge Creek Rd/Breakfast Creek Rd
160,32.472217,-86.515434,Norris Rd
160,32.659793,-86.844664,Co Rd 110/Cr 110
305,32.436371,-86.424067,Brandy Ln
968,32.466365,-86.450817,N Memorial Dr/Fairview Ave
305,32.470672,-86.418266,N McQueen Smith Rd
185,32.467229,-86.461835,Duncan Ln/Booth St
390,32.431061,-86.468981,Autauga County 4/Abe Ct
276,32.457647,-86.472274,Oak Creek Cir
390,32.469747,-86.426176,Cumberland Ct/Cumberland Dr
276,32.485538,-86.471739,Hughes St
185,32.436183,-86.648207,Autauga County 165/Blossom Rd
160,32.659917,-86.844335,Co Rd 110
160,32.547100,-86.444346,Martin Dr/Alpha Springs Rd
160,32.448590,-86.489015,Old Autaugaville Rd
305,32.612820,-86.481027,I- 65/Autauga County 61
216,32.435277,-86.426505,Longview Heights Rd
160,32.502989,-86.439690,Valridge N
185,32.466512,-86.444666,Wright St/Till St
472,32.467199,-86.417504,Little Farm Rd/Glen Meadow Ct
994,32.459766,-86.473731,W Main St
246,32.474558,-86.439881,Bedford Ter/Warwick Dr
160,32.701475,-86.460681,Autauga County 96/Autauga County 20
160,32.434527,-86.468347,Lewis St/Jensen Rd
499,32.466343,-86.417487,Regent Rd/Little Farm Rd
418,32.481941,-86.469560,Wilberforce Ave/M L King Jr Dr/Martin Luther King Dr
160,32.423871,-86.451626,/Autauga County 4
390,32.491193,-86.466765,Powell Rd/N Chestnut St
216,32.570588,-86.467813,Daffadil Ct/River Birch Dr
160,32.701485,-86.480393,Autauga County 20
185,32.488348,-86.418051,Old Ridge Rd N/Riverton Dr
160,32.677334,-86.434087,Autauga County 68/Autauga County 131
276,32.434438,-86.420693,S Memorial Dr
160,32.430985,-86.419186,Mets Ct/Dodgers Dr/Twins Pl
160,32.490054,-86.453557,N Memorial Dr
185,32.480942,-86.462536,Mimosa Rd
160,32.552433,-86.576704,Olmstead Ln
216,32.435468,-86.422121,Hare Cir/S Memorial Dr
185,32.463358,-86.479717,W 4th St
185,32.485771,-86.420295,Ashton Oak Dr
185,32.431067,-86.490478,Autauga County 4/Selma Hwy
579,32.458256,-86.421200,Commerce Ct
526,32.460323,-86.447448,Spencer St/E Main St
185,32.543645,-86.451462,I- 65
160,32.475350,-86.491186,Birdsong St/Seamon St
185,32.468649,-86.440959,Kay St/Doris St
185,32.603102,-86.463534,David Dr
445,32.467286,-86.419607,Hampstead St/Wynford St
305,32.436463,-86.467351,Johnson St/Hwy 82 Byp E
246,32.429420,-86.464948,Washington Ferry Rd/Autauga County 4
305,32.436430,-86.477647,Selma Hwy
362,32.462907,-86.473096,W 4th St
246,32.437434,-86.475414,Selma Hwy
160,32.452705,-86.488668,Carter Rd
276,32.486329,-86.424556,Overton Dr/Riverchase N Blvd
334,32.476414,-86.421096,Kelse Pl
472,32.482038,-86.414758,Old Farm Ln/Covered Bridge Pkwy
160,32.473741,-86.412318,Chancellor Ridge Rd
185,32.489159,-86.476485,Gardner Rd/Kingston Green Dr
185,32.545565,-86.447925,Northpointe Dr/Alpha Springs Rd
160,32.453345,-86.481402,Evergreen St/Deer Run Dr
160,32.479934,-86.451833,N Memorial Dr/Heritage Hills Dr
276,32.467295,-86.431594,Lake Haven Way
216,32.432299,-86.657711,N Taylor St/Houser St
305,32.464305,-86.473047,Branch St/W 5th St
362,32.469454,-86.416360,Dundee Dr/Chancellor Ridge Rd
276,32.472572,-86.448417,Shadow Ln/Lynn Dr/Shawdow Ln Dr
216,32.494596,-86.418085,Old Ridge Rd N/Calumet Pkwy
305,32.454738,-86.428507,Silver Hills Ct
216,32.469136,-86.450093,Tew Ct
839,32.438784,-86.426524,S Memorial Dr/US Hwy 82
334,32.449106,-86.462757,Vindale Rd/Fleetwood Rd
246,32.457091,-86.432379,Planters Ridge Rd/Running Brook Dr
216,32.447546,-86.418101,Constitution Ave/S McQueen Smith Rd
276,32.469025,-86.476889,Easy Ct/Upper Kingston Rd
185,32.475347,-86.450547,Skidmore Ave/Walker St
362,32.431086,-86.469267,Autauga County 4/Hazel St
160,32.490405,-86.567373,/US Hwy 82 W
246,32.490007,-86.417590,Calumet Pkwy
246,32.435592,-86.421993,S Memorial Dr
160,32.494790,-86.443488,Old Ridge Rd
631,32.461623,-86.428773,Silver Hills Dr
305,32.473210,-86.438523,Creely Dr/Graylynn Dr
390,32.454088,-86.418984,Tara Dr/Summer Ln
185,32.445754,-86.656599,/Seaside Rd
160,32.430982,-86.553241,Autauga County 41/Selma Hwy
1097,32.466363,-86.450985,/N Memorial Dr/Fairview Ave
185,32.516271,-86.433140,I- 65
160,32.688668,-86.549570,Autauga County 57
499,32.455606,-86.415634,Doss Ct
418,32.605015,-86.479421,Autauga County 61
216,32.471919,-86.413829,Grasmere Ct
185,32.562102,-86.456692,Laurel Hill Dr
216,32.472067,-86.413728,Grasmere Ct/Stapleford Trce
865,32.438794,-86.426251,S Memorial Dr/US Hwy 82 Byp E/US Hwy 82
276,32.553773,-86.458590,Laurel Hill Dr/US Hwy 31
445,32.438020,-86.425535,Dunn Ln/S Memorial Dr
160,32.435136,-86.423327,Hare Cir
334,32.471018,-86.416580,Mill Ridge Ct
334,32.491087,-86.474516,Kingston Ridge Rd/Kingston Garden Rd
418,32.453266,-86.418824,Summer Ln
185,32.486993,-86.463392,Auburn Rd
1563,32.464200,-86.450930,S Memorial Dr/Gipson St
216,32.469844,-86.474726,Newby St/N Court St
246,32.440016,-86.488047,Marshall Dr
445,32.548707,-86.457721,/US Hwy 31
631,32.467297,-86.415335,Regent Ct
552,32.460305,-86.448904,E Main St/Chambliss St
276,32.681801,-86.512617,I- 65
185,32.498088,-86.478833,Crenshaw Ct/Coleman Way
362,32.471834,-86.449423,Colonial Ct
160,32.430537,-86.663610,/State Rte 14
605,32.460552,-86.472677,S Chestnut St/Tichnor Ave
276,32.451932,-86.472662,Sally Ridge Rd
216,32.466051,-86.455471,N Wildwood Dr
185,32.491760,-86.414529,Strodes Creek Cir
160,32.427061,-86.461023,Autauga County 4
246,32.434120,-86.657307,Tyus St/N Washington St
185,32.446350,-86.431792,Teri Ln/Lori St
276,32.474437,-86.457268,Wisteria Rd/Camellia Dr
276,32.467740,-86.413965,Regent Rd/Little Farm Rd
246,32.503764,-86.412744,Grand Park Dr
334,32.435619,-86.423456,Serenity Dr
246,32.454665,-86.469857,Flintlock Close/Selma Hwy
216,32.453452,-86.476586,Thomas Ln
216,32.533569,-86.424687,Larsen Ln/Autauga County 39
605,32.459404,-86.452401,Loder St/Davis St
472,32.459307,-86.475368,Bridge St
418,32.551471,-86.459653,I- 65
246,32.454296,-86.478539,Deer Wood Run/Deer Run Dr
246,32.445368,-86.418071,S McQueen Smith Rd
418,32.466780,-86.477916,Walnut St
445,32.438583,-86.468650,McGriff St
216,32.480741,-86.451822,N Memorial Dr/Wynwood Dr
160,32.438185,-86.476966,Country Club Commercial Park Dr
160,32.616068,-86.479988,Bluebird Ct
185,32.497959,-86.480677,Carson Dr
185,32.425542,-86.458657,Autauga County 4
160,32.441440,-86.525500,Rhodes Ln/Simmons Rd
160,32.436543,-86.486343,Avant St/Florida St
160,32.471294,-86.412074,Wee Lovett Dr
2247,32.460459,-86.417758,/E Main St
216,32.470680,-86.412977,Castle Brook Dr
185,32.602322,-86.464280,US Hwy 31
216,32.439981,-86.488925,Marshall Rd/Marshall Dr
160,32.465711,-86.499274,Hwy 82 Byp W
445,32.437935,-86.426812,Dunn Ln
216,32.435020,-86.659791,Pine St/N Taylor St
246,32.532054,-86.456966,Arrid Hill Rd
305,32.467730,-86.441912,Wright St/E Poplar St
160,32.495545,-86.447647,Mill Village Ln
160,32.423874,-86.451913,Autauga County 4
185,32.489199,-86.474121,Gardner Rd
552,32.657547,-86.500232,I- 65/Autauga County 68 W
160,32.588518,-86.699274,US Hwy 82 W
185,32.445585,-86.482324,Nobles Ln
276,32.590356,-86.475174,I- 65
185,32.435598,-86.654655,N Pickett St/Tyus St
276,32.477715,-86.488809,Cargill St/Utah Ct
216,32.494616,-86.476148,Parkview Dr/Upper Kingston Rd
160,32.483500,-86.488735,Durden Rd/Wooten St
334,32.478163,-86.438597,Diane Dr/Fairview Ave
631,32.438777,-86.472907,Selma Hwy
445,32.431103,-86.466598,/Hazel St
390,32.500276,-86.469151,Moses Rd/Upper Kingston Rd
246,32.462269,-86.422999,Pebble Creek Dr
305,32.464123,-86.444681,Odell St/Newton St
276,32.444167,-86.472280,Stakley Dr/Gray Dr
160,32.438406,-86.525568,Simmons Rd
185,32.485397,-86.453430,Henderson Ln/N Memorial Dr
185,32.463703,-86.485016,W 4th St
160,32.533444,-86.421103,Courtney Dr/Dogwoods Dr/Jennifer Cir
246,32.612395,-86.477948,US Hwy 31
246,32.462418,-86.428985,Pebble Creek Dr
390,32.452818,-86.423491,Harvest Loop
246,32.470967,-86.510740,US Hwy 82 W
276,32.476566,-86.476449,Portree Dr/Live Oak
160,32.549781,-86.514163,Bridge Creek Rd
185,32.449835,-86.488649,Gin Shop Hill Rd
276,32.490540,-86.412894,Calumet Pkwy
216,32.463496,-86.481880,W 4th St/Gin Shop Hill Rd
305,32.481521,-86.486228,Marlyn Dr/Carleton St
390,32.467647,-86.476108,7th St/Upper Kingston Rd
246,32.465866,-86.462333,E 6th St
246,32.480798,-86.458928,Mimosa Rd
185,32.474626,-86.474915,Willow Oak Dr/Willow Oak Ct
499,32.572267,-86.469417,Daffadil Ct
216,32.445151,-86.480692,Hearthstone Dr
185,32.470908,-86.413355,Castle Brook Dr/Chancellor Ridge Rd
276,32.435957,-86.477625,/Echlin Blvd
216,32.454672,-86.481403,Evergreen St
305,32.466392,-86.420691,Cambridge St
579,32.459601,-86.456650,Pratt Plaza Mall/Jeanette Dr
216,32.425714,-86.531948,/Pecan Ave
305,32.432357,-86.468371,Moore Dr
276,32.514542,-86.430890,I- 65
658,32.496380,-86.471218,Cross Creek Rd/Dorchester Dr
276,32.434713,-86.657785,Dutch Bend St/N Washington St
160,32.537929,-86.641485,US Hwy 82 W/W D Dr
160,32.484487,-86.488900,/Durden Rd
185,32.452303,-86.477986,Fireside Dr
246,32.469752,-86.420762,Sweet Meadow Ct
160,32.570224,-86.473842,Cedar Ridge Loop
246,32.463614,-86.454193,Kathleen Ct
526,32.469287,-86.416662,Chancellor Ridge Rd
185,32.486057,-86.455851,Greencrest St/Ridgewood Rd
390,32.655073,-86.498751,I- 65
160,32.547807,-86.433342,Dove Ln/Autauga County 87
160,32.542688,-86.438372,Nummy Rd
160,32.429180,-86.468718,Hill St
160,32.442030,-86.437068,Doster Rd
334,32.656476,-86.499424,I- 65
160,32.469907,-86.507391,US Hwy 82 W
390,32.482571,-86.422489,Medical Center Dr/Fairview Ave
185,32.511460,-86.456338,US Hwy 31/Martin Luther King Dr
246,32.567880,-86.463959,Autauga County 107/US Hwy 31
246,32.504393,-86.467280,Crows Pass/Upper Kingston Rd
305,32.464356,-86.467324,Northington St
334,32.542755,-86.450992,I- 65/Alpha Springs Rd
276,32.535586,-86.446138,I- 65
216,32.465322,-86.487227,Dawson St
160,32.665520,-86.702167,/Maul Dr
216,32.433411,-86.652933,S Pickett St/N Pickett St/State Rte 14
185,32.397931,-86.544354,Smithville Rd
160,32.455074,-86.432530,Sugar Creek Ct
216,32.456695,-86.429143,Old Creek Rd
160,32.459500,-86.793889,Shady Valley Rd
160,32.578493,-86.454238,Rogers Ln
276,32.440506,-86.472076,Country Club Dr/Country Club Manor
305,32.472054,-86.419514,Briarcliff Pl
160,32.447564,-86.459095,Festival Dr/Cranbrook Dr/Marllette Dr
185,32.425082,-86.412213,S Memorial Dr
276,32.441983,-86.464707,Washington Ferry Rd/Mc Bride St
246,32.485260,-86.422982,Ashton Oak Dr
362,32.452185,-86.450426,Honeysuckle Dr/Danya Ct
276,32.572243,-86.470966,Daffadil Ct/Cedar Ridge Loop
160,32.465879,-86.473262,Railroad St/W 6th St
185,32.477118,-86.439889,Fairview Ave
160,32.603727,-86.429379,Autauga County 85
390,32.447912,-86.484199,Malone Ct
216,32.452616,-86.472495,Lost Creek Loop/Sally Ridge Rd
185,32.452084,-86.484346,Stag Rd
2061,32.460490,-86.418088,E Main St/S McQueen Smith Rd
276,32.479115,-86.414015,Sadie Cir
160,32.495807,-86.447652,Mill Village Ln
160,32.447210,-86.438108,S Memorial Dr
305,32.479315,-86.459774,Japonica Rd/Lilac Dr
472,32.457102,-86.425302,Sheila Ct
160,32.454493,-86.482906,Fawn Ln
445,32.474103,-86.416619,St Andrews Ct/Chancellor Ridge Rd
185,32.432665,-86.486196,Selma Hwy
305,32.456255,-86.451103,Loder St/Partridge Ln
185,32.448014,-86.458075,Marlette Ct/Marllette Dr/Marlette Dr
216,32.474845,-86.522039,US Hwy 82 W/Golson Rd
160,32.496561,-86.580758,US Hwy 82 W
246,32.498057,-86.477763,Prairie View Dr/Prairieview Dr
334,32.505668,-86.418197,Sparrow Pointe Ct/Autauga County 39
334,32.462451,-86.458294,Pinecrest Rd/Oakland Dr/Pinecrest Dr
160,32.455393,-86.519300,Choctaw Ridge
390,32.455579,-86.424997,Seasons Dr/Seasons Ct
160,32.417369,-86.556953,Autauga County 41
160,32.460515,-86.503962,Morningview Dr/High Place Dr
1537,32.460333,-86.450288,/E Main St
276,32.438198,-86.489776,Anderson St
160,32.496394,-86.580580,Windy Valley Ln/US Hwy 82 W
160,32.432799,-86.485883,Selma Hwy
305,32.471173,-86.459920,Gardenia Cir
185,32.459355,-86.502937,Indian Hills Rd
185,32.457796,-86.474184,Pletcher St/Maple St
362,32.485487,-86.412178,Fairview Ave
305,32.538387,-86.471770,Autauga County 85/Keiln Ln
185,32.456865,-86.442631,Perrydale Loop/Oates Rd
362,32.472608,-86.451851,N Memorial Dr/Camellia Dr
216,32.628570,-86.739107,US Hwy 82 W/Autauga County 37
160,32.446468,-86.427359,Teri Ln/Amanda Ln
185,32.531118,-86.455436,Forrester Dr/US Hwy 31
216,32.480316,-86.435822,Fairview Ave
160,32.425455,-86.461870,Reynolds Mill Rd
216,32.447389,-86.486903,Hwy 82 Byp W/US Hwy 82 Byp W
445,32.473010,-86.476269,Spanish Oak Dr
418,32.469862,-86.451704,N Memorial Dr/E 6th St
185,32.448051,-86.435706,Beth Manor Dr/Overlook Dr
185,32.454352,-86.483436,Fawn Ln
362,32.485518,-86.424615,Ashton Oak Dr/Riverchase N Blvd
334,32.445673,-86.427114,Cynthia St/Amanda Ln
160,32.451881,-86.457129,Rebecca Ct
362,32.448429,-86.470537,Weatherby Trl
185,32.473723,-86.465376,10th St/Northington St
276,32.489776,-86.415887,Calumet Pkwy
579,32.455616,-86.418919,Summer Ct
160,32.588289,-86.412930,Denny Dr
160,32.454468,-86.483069,Fawn Ln
185,32.536968,-86.456096,Autauga County 85/Snowdrift Rd
362,32.471497,-86.417708,Chancellor Ridge Rd
185,32.468209,-86.444657,Till St
499,32.466468,-86.418129,Regent Rd/S McQueen Smith Rd
185,32.508091,-86.418267,Graff Rd/Autauga County 39/Clearbranch Rd
160,32.452419,-86.499842,Northington Rd
160,32.431260,-86.477592,Echlin Blvd
276,32.500020,-86.477243,Sammy Dr
216,32.461340,-86.443890,Kerlin St/Gaddis Ave/Mary Dr
160,32.447167,-86.513125,Wynchase Dr/Wynfield Dr
185,32.424461,-86.449682,Buena Vis Lp
445,32.462752,-86.455598,Gillespie St
334,32.469167,-86.413905,Dundee Dr
526,32.458380,-86.425751,Sheila Blvd/Summer Ln
160,32.451099,-86.739718,Autauga County 33/State Rte 14
334,32.451124,-86.426011,Sheila Blvd/Weaver St
216,32.491723,-86.454952,Powell Rd
390,32.582538,-86.471504,I- 65
160,32.458593,-86.442741,Josephine Ave/Geneva St
276,32.465331,-86.428865,Rambling Brook Ln/Mossy Oak Ridge
552,32.466692,-86.418129,S McQueen Smith Rd
246,32.506050,-86.418120,Grand Park Dr
276,32.479112,-86.443432,Sycamore Ct/Sycamore Dr
160,32.463340,-86.479449,W 4th St
185,32.471530,-86.431689,Fiveash Oak
160,32.654412,-86.469234,Autauga County 70
160,32.473973,-86.418881,Old Prestwick Ct
334,32.469727,-86.446031,Walker St
334,32.505600,-86.418698,Sparrow Pointe Ct
246,32.429523,-86.467460,Spring St
160,32.466251,-86.445738,Wright St/Buckner St
185,32.434525,-86.653806,N Pickett St/Houser St
246,32.439780,-86.471407,Selma Hwy/Country Club Manor
185,32.427252,-86.450521,Old Mill Way/Buena Vista Blvd
445,32.458722,-86.449913,S Memorial Dr/Thomas Ave
160,32.426639,-86.449818,Vintage Way/Buena Vista Blvd
160,32.443779,-86.464750,Washington Ferry Rd/Rice St
246,32.449925,-86.427521,Teri Ln/E Teri Ct
160,32.493692,-86.447420,Old Ridge Rd
246,32.475009,-86.422663,E Poplar St/Cullin Ave/Cullin St
276,32.460461,-86.434115,E Main St
276,32.471465,-86.420349,Kingsley Dr
246,32.453114,-86.444627,S Memorial Dr/Stonewall Dr
390,32.454670,-86.423907,W Autumn Ct/Autumn Rd/E Autumn Ct
160,32.493718,-86.447177,Old Ridge Rd/Mill Village Ln
160,32.532981,-86.421074,Courtney Dr/Autauga County 39
390,32.462626,-86.454161,Newton St
185,32.656118,-86.700109,Bear Dr/Autauga County 77
276,32.486119,-86.489024,Durden Rd/Ruth St
276,32.469645,-86.445641,Park St/Walker St
185,32.429695,-86.651997,N Autauga St/Stoudmire Rd
185,32.542354,-86.451605,Snowdrift Rd/Alpha Springs Rd
362,32.473262,-86.475461,Willow Oak Dr/Spanish Oak Dr
362,32.431939,-86.468905,Hill St
160,32.433738,-86.655143,N Autauga St/Houser St
185,32.480844,-86.423452,Medical Center Dr
160,32.437285,-86.424258,S Memorial Dr
160,32.450100,-86.513198,Wynfield Dr/Northington Rd
160,32.460225,-86.793926,Shady Valley Rd/State Rte 14
160,32.537366,-86.450829,White Cloud Dr
943,32.482477,-86.418986,Dolly Cir
185,32.656571,-86.700246,Autauga County 77
472,32.466475,-86.417487,Regent Rd/Little Farm Rd
246,32.450873,-86.430285,W Teri Ct
185,32.474469,-86.522264,Golson Rd
216,32.479183,-86.472278,Bunche Ave/Fisk St
185,32.456848,-86.441706,Oates Rd/Perrydale Loop
276,32.617312,-86.478886,Hummingbird Dr
390,32.507045,-86.420053,Rushmore Ct/Rushmore Dr
246,32.609954,-86.608869,Autauga County 111
185,32.473110,-86.518003,Michelle Dr
762,32.438554,-86.474057,/US Hwy 82
362,32.459196,-86.475433,Bridge St
160,32.455481,-86.478554,Deerwood Dr/Deer Wood Run/Quail Run
276,32.431041,-86.489074,Autauga County 4
276,32.465557,-86.438796,Poplar Ct
160,32.456082,-86.433247,Running Brook Dr/Sugar Creek Ct
185,32.511778,-86.456386,US Hwy 31
216,32.531204,-86.416155,Formosa Ct
472,32.499445,-86.478839,Coleman Way
160,32.477181,-86.498196,Eds Dr
185,32.492756,-86.487133,Belle Maison
276,32.434941,-86.424300,Serenity Dr
185,32.477161,-86.449875,Livingston Cir/Livingston Ave
160,32.455661,-86.514778,Indian Hills Rd/Red Eagle Rd
185,32.497193,-86.479151,Carson Dr
276,32.477519,-86.476390,Portree Dr
552,32.466012,-86.475134,W 6th St/N Court St/Upper Kingston Rd
160,32.532026,-86.636591,US Hwy 82 W
472,32.452569,-86.426001,Sheila Blvd
185,32.448149,-86.433303,Beth Manor Dr/Ivey Ln
445,32.663718,-86.503420,I- 65
160,32.456643,-86.512316,Indian Hills Rd
185,32.471840,-86.489385,Franklin St
185,32.458686,-86.509426,Bell Ln
276,32.446799,-86.465237,Cypress Creek Way
160,32.451749,-86.474193,Hunting Ridge Rd/Remington Way
160,32.543331,-86.438477,Nummy Rd
579,32.464154,-86.420713,Briarwood St/Cambridge St
362,32.467391,-86.429479,Mossy Oak Ridge/Ashwood Dr
216,32.648926,-86.421945,State Rte 143/State Rte 111
185,32.598088,-86.839173,Autauga County 16/Ousley Dr
418,32.475335,-86.451100,Skidmore Ave/Livingston Ave
216,32.698406,-86.466742,Mushat Ln
160,32.569001,-86.520010,Autauga County 40/Sunrise Dr
160,32.478524,-86.473579,Carver St/Dillard St
185,32.469137,-86.421025,Kingsley Dr
305,32.471050,-86.455046,Magnolia Dr/Magnolia Ct
390,32.463057,-86.475368,S Court St/W 4th St/N Court St
185,32.517290,-86.413606,Autauga County 39
246,32.620674,-86.481794,David Dr
160,32.455849,-86.450711,Loder St/Dozier Ave
160,32.556480,-86.541907,Viking Ln
160,32.479619,-86.458771,Mimosa Rd/Lilac Dr
160,32.658019,-86.491516,Autauga County 68 W
185,32.480876,-86.487891,Durden Rd
185,32.458953,-86.525093,Arrowhead Dr/Noccalula Ct
185,32.428145,-86.462842,Loren St/Autauga County 4
160,32.429183,-86.417438,Astros Ave
605,32.441372,-86.474949,Stewart St/Country Club Dr
246,32.447325,-86.463658,Doster Rd
216,32.469576,-86.460420,Juniper Ct
216,32.424529,-86.538000,Autauga County 27/Clear Creek Vw
185,32.430433,-86.415682,S Memorial Dr
160,32.469730,-86.438709,Poplar St/Gail St
185,32.428764,-86.464954,Washington Ferry Rd/Haley Ct
445,32.482303,-86.428707,Fairview Ave/Jasmine Trl
216,32.479125,-86.471470,Fisk St/Wilberforce Ave
160,32.505415,-86.585850,US Hwy 82 W
445,32.431189,-86.466517,/Hazel St
160,32.474435,-86.436644,Graham Ln
216,32.454148,-86.526967,Wind Rush Ln/Windrush Ln
305,32.475070,-86.421262,Hawthorne St/E Poplar St
445,32.464464,-86.475212,W 5th St/N Court St
216,32.541786,-86.456941,US Hwy 31
276,32.438102,-86.482717,Florida St
185,32.459412,-86.503929,Indian Hills Rd/Morningview Dr
216,32.473695,-86.468642,10th St/Taylor St
185,32.445092,-86.484610,Tremontana Dr/US Hwy 82 Byp W
276,32.448701,-86.427152,Teri Ln/Jay St
160,32.503298,-86.422154,Old Ridge Rd
185,32.453372,-86.477363,Thomas Ct
160,32.439981,-86.489149,/Marshall Rd
160,32.479604,-86.428725,Nisbbett St/Jasmine Trl
246,32.458874,-86.431462,Running Brook Dr/Forest Trl
185,32.614331,-86.480277,US Hwy 31/Autauga County 61
276,32.448155,-86.432118,Lori St/Beth Manor Dr
499,32.460333,-86.445971,Wingard St/E Main St
216,32.465231,-86.443301,Adell Pl
160,32.502944,-86.570909,Booth Cir/Autauga County 10
1877,32.460500,-86.418391,E Main St
160,32.470663,-86.439038,Guilford Ln/Warwick Dr
246,32.495708,-86.439182,Old Ridge Rd
160,32.448235,-86.472083,Stakley Dr/Stakely Dr
185,32.432297,-86.417688,S Memorial Dr
160,32.430957,-86.416225,S Memorial Dr
160,32.580084,-86.504912,Autauga County 59/Autauga County 61
362,32.458537,-86.427108,Sweet Ridge Rd/Summer Ln
160,32.660335,-86.708384,Maul Dr
276,32.454383,-86.470441,Flintlock Close
216,32.586599,-86.458386,Autauga County 40/Autauga County 107
185,32.494456,-86.416830,Calumet Pkwy
185,32.480213,-86.435995,Fairview Ave
276,32.470585,-86.443580,Bedford Ter
246,32.467726,-86.505905,Reed St
362,32.478485,-86.454434,Woodvale Rd/Cherry Dr
185,32.469057,-86.474806,N Court St/8th St
185,32.447522,-86.453250,Lina Dr/Abney Dr
276,32.535791,-86.445705,I- 65
160,32.627063,-86.424212,Autauga County 85/Fox Run
276,32.431091,-86.470120,/Autauga County 4
185,32.476382,-86.423366,Glasglow Pl
185,32.428719,-86.463780,Orton St/Autauga County 4
160,32.493848,-86.739154,Autauga County 33/Autauga County 45
246,32.480921,-86.459977,Japonica Rd/Mimosa Rd
160,32.659908,-86.913171,Autauga County 14
160,32.432642,-86.654270,N Autauga St/State Rte 14
445,32.461337,-86.447461,Spencer St/Gaddis Ave
390,32.431055,-86.468896,Autauga County 4/Hill St
334,32.453259,-86.484538,Cook Rd
472,32.460636,-86.473687,Tichnor Ave
1304,32.459196,-86.418099,S McQueen Smith Rd
160,32.467308,-86.499657,W 4th St
185,32.428078,-86.449549,Old Mill Way/Cotton Blossom
305,32.467519,-86.479091,Walnut St
276,32.481865,-86.413274,Old Farm Ln
185,32.588172,-86.415387,Lisa Ct
276,32.524120,-86.650538,Autauga County 40
362,32.505542,-86.419026,/Sparrow Pointe Ct
160,32.701732,-86.470800,Mushat Ln
216,32.523318,-86.625375,US Hwy 82 W/Shelton Dr
216,32.489390,-86.418047,Old Ridge Rd N
160,32.512631,-86.522904,Autauga County 57
276,32.431113,-86.469844,Autauga County 4/Jensen Rd
305,32.470405,-86.423379,Meadowbrook Dr
418,32.597234,-86.477616,I- 65
160,32.701856,-86.471076,Mushat Ln/Autauga County 20
160,32.529362,-86.511229,Bridge Creek Rd
499,32.468000,-86.420620,Abington St
185,32.459448,-86.444745,Deramus St/Faulk Ave
160,32.486406,-86.425557,Overton Dr/Trolley Rd
216,32.438580,-86.429637,US Hwy 82
160,32.440444,-86.525535,Simmons Rd
185,32.451735,-86.464440,Doster Rd/Mobile Dr
276,32.470647,-86.419090,Briarcliff Pl/Larkwood Dr
185,32.478882,-86.454432,Woodvale Rd
305,32.506490,-86.419984,Rushmore Ct
445,32.479666,-86.418045,Station Dr/Summit Pkwy
445,32.452833,-86.423891,Autumn Rd/Harvest Loop
160,32.454763,-86.499883,Fairwood Dr/Muirfield Dr
160,32.427199,-86.709928,/Autauga County 45
305,32.430446,-86.418353,Reds Ct
160,32.555922,-86.547736,Viking Ln
418,32.489342,-86.478867,Gardner Rd/Upper Kingston Rd
362,32.464035,-86.469431,E 5th St/N Washington St
362,32.469689,-86.441987,Poplar St/Wright St/E Poplar St
216,32.510790,-86.420841,Vonica Rose St
276,32.464779,-86.480108,W 5th St/Lower Kingston Rd
216,32.447412,-86.462789,Festival Ct
499,32.467899,-86.416105,Little Farm Pl
160,32.572407,-86.484980,Lambert Ln
185,32.482129,-86.462834,Ridgewood Rd
185,32.468797,-86.428855,Sandstone Trce/Sandstone Ct
160,32.659779,-86.717240,Norrell St/Maul Dr
362,32.485529,-86.411966,Fairview Ave
160,32.476550,-86.483100,Kingston Ct
334,32.467590,-86.426329,Jasmine Trl/Ashwood Dr
526,32.455851,-86.428537,Planters Hill Ct
276,32.435015,-86.424469,Serenity Dr/
362,32.485754,-86.411971,Fairview Ave
160,32.466301,-86.479519,W 6th St
160,32.533679,-86.638535,Autauga County 40/US Hwy 82 W
185,32.500346,-86.412697,Jasmine St
276,32.468532,-86.423850,Meadowbrook Ct/Meadowbrook Dr
160,32.505553,-86.585904,US Hwy 82 W
216,32.442875,-86.418046,S McQueen Smith Rd
160,32.454273,-86.474369,Antelope Cir
160,32.442313,-86.411775,US Hwy 82 Byp E
246,32.439807,-86.464765,Washington Ferry Rd/Lee Cir
276,32.469921,-86.427277,Sandstone Trce/Jasmine Trl
216,32.462829,-86.438941,Dora St/Adell Pl
305,32.458019,-86.470123,First St/S Washington St
160,32.486665,-86.470169,Jones St/Pressley St
418,32.453999,-86.416347,Tara Dr
185,32.610779,-86.455175,Ball Enwright Rd
246,32.476100,-86.461063,Camellia Dr/Daniel Dr
390,32.463133,-86.476309,W 4th St
276,32.479557,-86.430510,Nisbbett St/
305,32.453862,-86.427234,Sweet Ridge Rd
445,32.663705,-86.503148,I- 65
246,32.443617,-86.473267,Clubview Dr
185,32.438235,-86.432087,Hwy 82 Byp E
246,32.474459,-86.450522,Edgewood Ave/Walker St
216,32.430560,-86.416778,Cubs Pl
362,32.473005,-86.473014,White Oak Ct
185,32.500869,-86.414314,Hidden Valley Rd/Hidden Valley Ct
185,32.451568,-86.469997,Weatherby Trl
185,32.431692,-86.420071,Bluejays Pl
499,32.551254,-86.457859,US Hwy 31
216,32.538561,-86.471946,Autauga County 85/Autauga County 82
185,32.579456,-86.458375,Rogers Ln/Autauga County 107
185,32.583401,-86.903718,Autauga County 83
472,32.449523,-86.424092,Harvest Loop
160,32.466884,-86.500202,/Hwy 82 Byp W
839,32.456559,-86.418825,Sanford Dr
305,32.431099,-86.468352,/Hazel St/Moore Dr
185,32.468409,-86.506530,Walter St/Walter Ct
160,32.456856,-86.489758,Emerald Dr
216,32.453725,-86.477003,Thomas Ct/Thomas Ln
526,32.454667,-86.424900,W Autumn Ct
160,32.484177,-86.484768,Waverly Ln/Melmar Dr
276,32.430939,-86.469925,Jensen Rd
499,32.459308,-86.467354,S Northington St/E Main St
185,32.426785,-86.411907,Scenic Dr/Cooters Pond Rd
185,32.462321,-86.440090,Cooper Ave/Dora St
185,32.524127,-86.651084,/Autauga County 40
526,32.457738,-86.423206,Sanford Dr
472,32.473297,-86.414617,Thistle Rd
216,32.440814,-86.475774,Hidden Acres Dr
160,32.431041,-86.474586,Autauga County 4
472,32.551361,-86.457870,US Hwy 31
216,32.587060,-86.464319,/US Hwy 31
185,32.478930,-86.481323,Eswick Dr
160,32.432204,-86.417817,S Memorial Dr
390,32.496111,-86.472670,Yorkshire Dr/Jamestown Dr
216,32.441557,-86.418018,S McQueen Smith Rd/Big Oak Dr
160,32.481002,-86.415541,Josie Run
185,32.470632,-86.411773,Wee Lovett Dr
276,32.440630,-86.475428,Stewart St/Hidden Acres Dr
1641,32.460012,-86.450624,/S Memorial Dr
813,32.460262,-86.452466,Loder St/E Main St
185,32.454088,-86.525163,Arrowhead Dr
216,32.436946,-86.643179,State Rte 14/Selma Hwy
160,32.648913,-86.412877,State Rte 111
185,32.456035,-86.470517,Selma Hwy
1719,32.460352,-86.450856,S Memorial Dr/E Main St
160,32.446136,-86.436820,S Memorial Dr/Overlook Dr
305,32.449086,-86.453952,Abney Dr/Pelham Ln
246,32.478855,-86.488788,Mockingbird St/Cargill St
246,32.445977,-86.520008,Wyncove Way/Wyngate Dr
246,32.598080,-86.496878,Autauga County 66
216,32.441439,-86.418015,S McQueen Smith Rd
390,32.477913,-86.433819,Edinburgh St
276,32.472444,-86.414586,Bramble Trce/Stapleford Trce
185,32.476778,-86.437737,Diane Dr/Bedford Ter
276,32.537418,-86.449187,White Cloud Dr
185,32.471652,-86.439212,Radburn Way/Warwick Dr
499,32.474086,-86.476200,Black Oak Ct
185,32.434705,-86.468301,Lewis St/Jensen Rd
216,32.476720,-86.459853,Esther Ct
246,32.504814,-86.417968,Autauga County 39
305,32.490209,-86.563001,/US Hwy 82 W
1278,32.482709,-86.420105,N McQueen Smith Rd/Fairview Ave
160,32.488745,-86.487934,Francis St/Elizabeth St
160,32.584311,-86.680366,Autauga County 19
736,32.469197,-86.418089,Chancellor Ridge Rd
185,32.459632,-86.495091,Hwy 82 Byp W
762,32.479675,-86.419458,Station Dr
185,32.465189,-86.460736,Warren Cir
185,32.567295,-86.674859,US Hwy 82 W
216,32.471356,-86.485013,Unamed Paved Trailer Park Dr
334,32.461322,-86.448915,Chambliss St/Gaddis Ave
185,32.470259,-86.456858,Juniper Ct/Woodvale Rd
418,32.437553,-86.471340,Hwy 82 Byp E/US Hwy 82
736,32.469189,-86.418148,N McQueen Smith Rd/Chancellor Ridge Rd
185,32.432631,-86.418089,S Memorial Dr
216,32.477856,-86.473590,Tuskegee St/Carver St
216,32.466470,-86.482109,W 6th St/Lower Kingston Rd
216,32.466304,-86.438618,Poplar St/Gail St
246,32.490080,-86.417902,Calumet Pkwy
276,32.444997,-86.471972,Stakley Dr/Clubview Dr
185,32.455999,-86.444386,Deramus Ct
472,32.499042,-86.470632,Kingston Oaks Dr/Upper Kingston Rd
305,32.435030,-86.424106,Serenity Dr
160,32.471644,-86.412785,Wee Lovett Dr
305,32.547038,-86.455275,I- 65
185,32.434920,-86.426297,Longview Heights Rd
160,32.437375,-86.595145,/Selma Hwy
160,32.507252,-86.521741,Autauga County 57/Wyatt Loop Rd
246,32.477715,-86.489073,Utah Ct
1278,32.465094,-86.450956,Wright St/N Memorial Dr
185,32.497113,-86.478847,Carson Dr
160,32.453811,-86.520152,Choctaw Ridge
305,32.476323,-86.439063,Bedford Ter
445,32.470154,-86.414276,Chancellor Ridge Rd
305,32.694158,-86.518287,I- 65
276,32.467464,-86.421202,Abington St/Wynford St
160,32.430487,-86.548913,/Selma Hwy
160,32.428979,-86.414428,S Memorial Dr
160,32.435440,-86.656474,N Autauga St/Dutch Bend St
246,32.484854,-86.459870,Sweetbriar Ct
216,32.516486,-86.449518,Mims Ln/Floyd St
185,32.466625,-86.457372,Woodvale Rd
160,32.426856,-86.450100,Buena Vista Blvd
246,32.444868,-86.425731,Thames Dr/Amanda Ln
160,32.486127,-86.491209,Gaddis Pit Rd
246,32.506268,-86.418225,Autauga County 39
472,32.551144,-86.457850,/US Hwy 31
185,32.469459,-86.506509,Walter St
216,32.464785,-86.423086,Twelve Oaks Ct
1877,32.460217,-86.418080,/S McQueen Smith Rd
390,32.468259,-86.416864,Little Farm Rd
185,32.435539,-86.507898,Grouby Airport Rd
160,32.489340,-86.453561,N Memorial Dr
160,32.557404,-86.663352,US Hwy 82 W
160,32.431033,-86.487557,/Autauga County 4
579,32.479666,-86.420225,N McQueen Smith Rd/Station Dr
160,32.469020,-86.506537,Walter St
216,32.573802,-86.473827,Cedar Ridge Loop
160,32.451707,-86.474569,Remington Way
276,32.474276,-86.431812,Fiveash Oak
305,32.455981,-86.481404,Deerwood Dr/Evergreen St
160,32.609770,-86.604413,Autauga County 21
334,32.460389,-86.442060,E Main St/Mary Dr
216,32.459494,-86.505289,Indian Hills Rd
526,32.497470,-86.472560,Dorchester Dr/Upper Kingston Rd
185,32.508068,-86.420709,Rushmore Dr/Clearbranch Rd
216,32.467149,-86.461604,Booth St/Russell Ln
390,32.430706,-86.467357,Spring St/Autauga County 4
472,32.453792,-86.420011,Tara Dr/Winter Pl
185,32.424996,-86.412196,S Memorial Dr/Autauga County 4
160,32.701942,-86.471024,Autauga County 20
390,32.469504,-86.448642,Till Ct/Till St/Fairview Ave
552,32.459265,-86.464676,E Main St/Pratt St
160,32.558982,-86.437272,Alpha Springs Rd
305,32.464258,-86.417554,Briarwood St
362,32.463135,-86.473094,Branch St
216,32.448165,-86.431102,Beth Manor Dr/Janice St
185,32.454819,-86.433895,Running Brook Dr
499,32.442048,-86.431083,Sheila Blvd/S Memorial Dr
160,32.541247,-86.480928,Cheeks Ln/Autauga County 82
305,32.488331,-86.419662,Ashton Oak Ct/Riverton Dr/Ashton Oak Dr
160,32.451287,-86.445294,Sara Ln
160,32.476489,-86.454416,Woodvale Rd/Azalea Dr
305,32.617393,-86.480469,Robin Ct
160,32.452770,-86.487148,Pleasant Rd/Gin Shop Hill Rd
276,32.465434,-86.424591,Greystone Way
216,32.470402,-86.509012,US Hwy 82 W
185,32.456178,-86.470529,Selma Hwy
185,32.576040,-86.681347,Autauga County 19/Wyatt Rd
362,32.493679,-86.412463,I- 65
246,32.473697,-86.429864,High Pointe Ridge
160,32.437348,-86.598711,Autauga County 135/Selma Hwy
160,32.561272,-86.580455,Simuel Ln
160,32.478817,-86.486812,Mockingbird St/Durden Rd/Mockingbird Ct
160,32.476273,-86.428403,Jasmine Trl/Virginia Reed Ct
216,32.505023,-86.415905,Charlton Pl/Laurel Pl
246,32.428330,-86.460155,Langford Dr/Langford Ln
160,32.473658,-86.470619,10th St/Martin Luther King Dr
216,32.471514,-86.443379,Chatam Ln/Bedford Ter
216,32.439782,-86.427885,S Memorial Dr
390,32.451130,-86.424902,Harvest Loop/Weaver St
185,32.435696,-86.473253,Gallahad St/Lancelot Cir
390,32.463721,-86.467263,Wetumpka St/S Northington St/Northington St
216,32.450799,-86.412716,Saddle Rdg
246,32.468204,-86.474249,Faulk Quarters
160,32.448653,-86.517391,Wyncove Way
736,32.469234,-86.418148,N McQueen Smith Rd
334,32.436820,-86.476772,Country Club Commercial Park Dr/Selma Hwy
216,32.459117,-86.431831,Forest Trl
185,32.470888,-86.413303,Castle Brook Dr
185,32.486615,-86.420956,Overton Dr
160,32.580886,-86.566618,Co Rd 94
160,32.496626,-86.480681,Bridge Creek Rd
160,32.511820,-86.457823,Paula St
472,32.456249,-86.416223,Doss Ct
276,32.470860,-86.485836,Roy St
362,32.567442,-86.463866,US Hwy 31
216,32.481703,-86.451909,Camille Trce/N Memorial Dr
246,32.429808,-86.419210,Mets Ct
246,32.435043,-86.421514,/S Memorial Dr/Vivid Pl
499,32.466346,-86.417150,Regent Rd
472,32.468483,-86.454668,E 6th St/Primrose Dr
276,32.471884,-86.416769,Stapleford Trce
305,32.504575,-86.412743,Grand Park Dr
246,32.465593,-86.438030,Poplar St/Poplar Ct
246,32.478327,-86.458235,Mimosa Rd/Cherry Dr
246,32.475884,-86.423329,Windermere Ave/Glasglow Pl
160,32.450591,-86.469992,Weatherby Trl/Caliber Xing
160,32.441152,-86.490817,Caldwell Ln/Marshall Dr
160,32.476996,-86.486737,Cargill St/Sheffer Rd
246,32.467185,-86.416775,Glen Meadow Ct
788,32.438457,-86.473443,Selma Hwy/US Hwy 82
216,32.426566,-86.412558,Scenic Dr/S Memorial Dr
276,32.433992,-86.659056,N Taylor St/Dutch Bend St
216,32.431970,-86.487803,/Selma Hwy
160,32.520111,-86.481755,Lanes End
185,32.466856,-86.459942,E 6th St/6th St/Booth St
276,32.458098,-86.447695,Peachtree St/Dozier Ave
160,32.468987,-86.473489,Faulk Qtrs/8th St
246,32.428103,-86.413527,S Memorial Dr
216,32.619757,-86.488139,S Fox Ridge Dr/Fox Ridge Dr
216,32.469827,-86.476129,Easy Ct
216,32.465527,-86.443265,Plum St/Adell Pl
246,32.424156,-86.639432,Clarks Landing Rd
160,32.574140,-86.603969,Autauga County 40/Luberry Ln
185,32.452475,-86.457148,Patrick St/Rebecca Ct
472,32.449529,-86.424265,Harvest Loop
334,32.506988,-86.418936,Rushmore Dr/Rushton Ct
160,32.598526,-86.464283,Autauga County 100/US Hwy 31
276,32.473710,-86.467462,10th St/
160,32.494773,-86.443847,Ridge Trl/Old Ridge Rd
216,32.607926,-86.468689,/US Hwy 31
445,32.443762,-86.428066,Sheila Blvd/Patti Loop
185,32.569083,-86.478955,Davies Dr/Davies Rd
418,32.463614,-86.441855,Adell Pl/Julia St
305,32.431393,-86.469729,/Jensen Rd
160,32.453463,-86.470649,Deer Trce
246,32.559374,-86.463079,I- 65
246,32.452368,-86.483842,Stag Rd/Cook Rd
216,32.437419,-86.643092,Selma Hwy/Blossom Rd
334,32.436605,-86.467961,Hwy 82 Byp E/Jensen Rd
246,32.448802,-86.440290,S Memorial Dr/Pearson Pond Rd
185,32.466461,-86.472653,Railroad St
185,32.471085,-86.427309,E Poplar St/Jasmine Trl
917,32.460445,-86.428773,E Main St/Silver Hills Dr
276,32.463310,-86.437853,Dora St/Huie St
160,32.430833,-86.502712,/Selma Hwy
305,32.488337,-86.421742,Trolley Rd/Riverton Dr
334,32.470805,-86.418295,N McQueen Smith Rd/Larkwood Dr
362,32.459080,-86.428795,Summer Ln/Silver Hills Dr
160,32.535102,-86.642297,Wd Dr
216,32.435349,-86.457734,Hwy 82 Byp E
160,32.544054,-86.479372,Pink Lily Ln
216,32.440348,-86.467127,Gene St/Mc Griff St/McGriff St
390,32.475923,-86.444534,Shadow Ln/Sycamore Dr
499,32.454742,-86.415545,Dellwood Ct
160,32.512787,-86.543606,Windy Meadows Rd
160,32.490439,-86.416003,Keenlaw Cmn
631,32.457487,-86.418132,Seasons Dr/S McQueen Smith Rd
246,32.453052,-86.444705,Stonewall Dr/S Memorial Dr
216,32.481820,-86.484776,Melmar Dr
216,32.447111,-86.486658,/US Hwy 82 Byp W
216,32.436652,-86.482226,Alabama St
472,32.622082,-86.487507,I- 65
334,32.431552,-86.468328,/Moore Dr
160,32.512889,-86.497210,Bridge Creek Rd
185,32.449779,-86.412147,Constitution Ave/Saddle Rdg
276,32.466233,-86.418951,Coventry Ct
246,32.465904,-86.462854,Douglas Cir/E 6th St
276,32.459741,-86.458869,Knob Hill Rd/E Main St
216,32.446725,-86.460659,Redman Ln/Marlette Dr
276,32.482225,-86.488515,Durden Rd
160,32.461067,-86.469748,E 3rd St/S Washington St
160,32.533873,-86.455719,Hills & Hollows Ln/US Hwy 31
185,32.470545,-86.419968,Larkwood Dr
216,32.477311,-86.439700,Old Fairview Ave/Fairview Ave
185,32.447069,-86.727337,Gentry Dr
160,32.455967,-86.455512,Partridge Ln
246,32.574297,-86.474917,Cedar Ridge Loop
185,32.433555,-86.487179,Larry St
216,32.466608,-86.473575,Railroad St
160,32.437156,-86.630230,Autauga County 21
185,32.460808,-86.458970,Knob Hill Rd
334,32.453083,-86.450497,Hargis Dr/Honeysuckle Dr
216,32.466029,-86.465484,E 6th St/Booth St
160,32.495928,-86.418179,Old Ridge Rd N/Holly Brooke Ln
362,32.580472,-86.470462,I- 65
276,32.624284,-86.488555,I- 65
390,32.586407,-86.432010,Percy Dr/Kenner Creek Cir
276,32.436346,-86.471290,Merlin Blvd/Lancelot Cir
185,32.474038,-86.422524,Cullin Ave/Hawthorne Ln
305,32.469824,-86.478311,Easy St
499,32.456207,-86.424909,Seasons Ct
160,32.569432,-86.469138,Davies Dr
390,32.476149,-86.440733,Fairview Ave/Montview Ct
216,32.461373,-86.474052,W 3rd St/Hunts Aly
185,32.521493,-86.439575,I- 65
276,32.483590,-86.486261,/Marlyn Dr/Marilyn Dr
445,32.473225,-86.414003,Thistle Rd
246,32.461514,-86.506419,High Place Dr
246,32.426223,-86.450340,Vintage Way
185,32.437392,-86.593840,Selma Hwy
305,32.471667,-86.485629,Unamed Paved Trailer Park Dr
216,32.603173,-86.464317,US Hwy 31/David Dr
185,32.426948,-86.411369,Murfee Dr
160,32.468777,-86.540457,Asbury Dr/Asbury Ct
160,32.424036,-86.431547,Autauga County 4
185,32.560747,-86.457582,Laurel Hill Dr
276,32.463698,-86.426277,Twelve Oaks Ln
185,32.472074,-86.514272,US Hwy 82 W
334,32.539136,-86.456476,Autauga County 85/US Hwy 31/Alpha Springs Rd
445,32.465041,-86.416164,/Briarwood St
160,32.437175,-86.424388,S Memorial Dr/Longview Heights Rd
276,32.484009,-86.414524,Malwest St/Fairview Ave
185,32.509162,-86.418278,Autauga County 39/Vonica Rose St
276,32.456622,-86.461796,New Moon Dr/Parkwood Dr
472,32.688091,-86.515502,I- 65
334,32.434600,-86.470458,Lewis St
305,32.436996,-86.471306,Merlin Blvd/Gawain Dr
160,32.470047,-86.507845,Emmett Ave/US Hwy 82 W
160,32.611948,-86.604413,Autauga County 21/
305,32.430163,-86.417590,Dodgers Dr
160,32.468953,-86.430318,Mossy Oak Ridge
276,32.459092,-86.508086,Indian Hills Rd/Bell Ln
418,32.446526,-86.463482,Doster Rd/Marlette Dr
658,32.496985,-86.473177,Upper Kingston Rd
418,32.464475,-86.475386,W 5th St/N Court St
160,32.437160,-86.624194,Selma Hwy
499,32.466540,-86.414954,Regent Rd
160,32.479621,-86.484862,Honeybee Ct
160,32.438183,-86.496840,Old Autaugaville Rd
216,32.464720,-86.469387,Washington St
658,32.497199,-86.471202,Canterbury Ct
1278,32.464683,-86.450707,Wetumpka St/N Memorial Dr/S Memorial Dr
216,32.446114,-86.479633,Fireside Dr
305,32.457268,-86.452033,Loder St/Thomas Ave
362,32.446089,-86.480677,Hearthstone Dr/Fireside Dr
246,32.428181,-86.413358,/S Memorial Dr
246,32.466985,-86.428275,Ashwood Ct
1877,32.459896,-86.450797,S Memorial Dr
216,32.458872,-86.508694,Indian Hills Rd
362,32.460382,-86.442752,E Main St/Geneva St
305,32.472423,-86.429207,Ambrose Ln/Scarlet Oak Ct
216,32.586931,-86.464321,/US Hwy 31
216,32.478688,-86.415267,Sadie Cir/Covered Bridge Pkwy
246,32.437820,-86.483473,Florida St
185,32.439199,-86.443211,Doster Rd/Southern Dr
390,32.448543,-86.423104,Jay St
185,32.460879,-86.467179,S Northington St/E 3rd St
160,32.448104,-86.478878,Kindlewood Dr/Fireside Dr
246,32.477902,-86.487819,Montana Ct
276,32.467699,-86.431988,Windstone Way/Lake Haven Way
2274,32.460237,-86.416165,Jameson Ct/E Main St
216,32.452347,-86.444036,S Memorial Dr
160,32.535739,-86.640119,Wd Dr/US Hwy 82 W
305,32.465145,-86.418957,Hampstead Ct
1407,32.461317,-86.450741,S Memorial Dr/Gaddis Ave
160,32.437223,-86.641948,Cyrus Dr/Blossom Rd
216,32.498056,-86.478186,Prairie View Dr/Crenshaw Ct
160,32.516433,-86.448454,Floyd St
160,32.542834,-86.441566,Forge Rd
185,32.473886,-86.421329,Hawthorne St/Hawthorne Ln
160,32.484968,-86.425987,Ashton Oak Dr
160,32.452539,-86.454242,Patrick St/Lawrence St
552,32.464604,-86.441875,Huie St/Julia St
160,32.496045,-86.581075,Windy Valley Ln
216,32.490032,-86.474432,Kingston Garden Rd
216,32.468190,-86.429720,Windstone Way/Mossy Oak Ridge
185,32.492586,-86.415094,Dockery Ct
160,32.473032,-86.427341,Jasmine Trl/Appalachian Ridge
334,32.531277,-86.444325,I- 65
1615,32.460048,-86.414568,/E Main St
788,32.438377,-86.473595,Selma Hwy/US Hwy 82
246,32.477715,-86.489521,Utah Ct
160,32.466403,-86.435810,Shady Oak Ln/Scott Ln
160,32.466333,-86.445405,Wright St/Odell St
185,32.459635,-86.494904,Hwy 82 Byp W
185,32.445137,-86.652189,Co Rd 2
160,32.479850,-86.469554,Howard St/M L King Jr Dr/Martin Luther King Dr
160,32.544110,-86.479530,Pink Lily Ln
246,32.486703,-86.471250,Pressley St/Averhart St
185,32.434260,-86.477612,Competition St/Echlin Blvd
185,32.456311,-86.464110,Doster St
185,32.494524,-86.417421,Calumet Pkwy
160,32.436268,-86.507901,Grouby Airport Rd
216,32.590508,-86.484033,Flowers Ln/Autauga County 66
390,32.465590,-86.441842,Plum St/Julia St
276,32.493264,-86.472420,Cross Creek Rd/Jamestown Dr
160,32.597586,-86.840774,Alt Rte Route County Road 7/Autauga County 16
160,32.444125,-86.483189,Nobles Ln
185,32.433290,-86.660300,Dutch Bend St
216,32.462888,-86.428287,Oak Ridge Ct
185,32.440466,-86.440235,Doster Industrial Pkwy/Doster Rd
185,32.500180,-86.464642,N Chestnut St/Moses Rd/Martin Luther King Dr
216,32.463831,-86.465888,Wetumpka St
185,32.476653,-86.471409,Bunche Ave/Wilberforce Ave
216,32.452470,-86.453333,Hargis Dr/Patrick St/Lawrence St
334,32.471370,-86.486055,/Durden Rd
605,32.464121,-86.421898,Abington St
160,32.475399,-86.447523,Shadow Ln/Shadow Ln Dr/Hickory Ln
185,32.558945,-86.460950,Laurel Hill Dr/US Hwy 31
160,32.451067,-86.441255,Old Hwy 31
658,32.459501,-86.469937,E Main St/Main St/S Washington St
246,32.628555,-86.738736,Autauga County 37/Maul Dr
246,32.468775,-86.425023,Greystone Way/Cumberland Dr/Meadowbrook Dr
185,32.440320,-86.465931,Rice St/Mc Griff St
1772,32.461588,-86.418106,S McQueen Smith Rd
499,32.471271,-86.468498,Cottonwood Ct
276,32.548631,-86.456864,I- 65
246,32.459789,-86.427260,Running Brook Cir
276,32.429658,-86.416366,Candlestick Way/Dodgers Dr
246,32.431506,-86.657097,N Taylor St/State Rte 14
216,32.469768,-86.433442,E Poplar St/Lake Haven Way
216,32.471345,-86.487748,Lower Kingston Rd
276,32.562345,-86.447108,Laurel Hill Dr/Laurel Hill Rd
276,32.621729,-86.485025,US Hwy 31
305,32.453356,-86.484798,Cook Rd/Whitetail Ct
334,32.464647,-86.478186,W 5th St/Walnut St
445,32.475012,-86.443533,Fairview Ave/Brookhaven Dr
185,32.443234,-86.516682,Wynfrey Dr
160,32.570612,-86.484260,Autauga County 40/Lambert Ln
160,32.436509,-86.488989,Larry Ln
418,32.481991,-86.469560,Ridgewood Rd/Martin Luther King Dr
1615,32.460966,-86.450888,S Memorial Dr
160,32.647153,-86.716692,/Big Springs Church Rd
160,32.424554,-86.456932,Rueben Rd/Autauga County 4
160,32.584901,-86.467201,Pinelevel Ridge
185,32.607532,-86.467846,Ball Enwright Rd/US Hwy 31
276,32.459696,-86.508154,Bell Ln
305,32.542921,-86.450759,I- 65/Alpha Springs Rd
185,32.481057,-86.488017,Durden Rd/Greg St
160,32.512786,-86.543128,/Windy Meadows Rd
160,32.449365,-86.455176,Lina Dr
216,32.436385,-86.647842,Blossom Rd
246,32.457582,-86.464116,First St
216,32.611787,-86.480668,I- 65
579,32.466710,-86.417493,Little Farm Rd
579,32.462519,-86.425455,Greystone Way/Pebble Creek Dr
305,32.430996,-86.468366,Autauga County 4
246,32.476925,-86.460752,Esther Ct/Daniel Dr
160,32.521506,-86.615605,US Hwy 82 W
160,32.527613,-86.452546,Crimson Dr/Kimberly Ln
160,32.495523,-86.587622,Bonnie Blue Rd/Autauga County 165
185,32.453321,-86.482789,Doe Dr/Deer Run Dr
160,32.559054,-86.459240,Laurel Hill Dr
216,32.430177,-86.460157,Langford Ln
160,32.492025,-86.486218,Durden Rd/Belle Maison
160,32.527457,-86.452235,Crimson Dr
216,32.476579,-86.427123,Virginia Reed Ct
246,32.468164,-86.473454,Faulk Quarters/Faulk Qtrs
160,32.451918,-86.483510,Cook Rd/Doe Dr
276,32.467900,-86.444859,Till St
160,32.437091,-86.635102,State Rte 14
246,32.459396,-86.448883,Peachtree St/Chambliss St/Thomas Ave
160,32.437350,-86.598511,Autauga County 135/Selma Hwy
362,32.507061,-86.420372,Rushmore Dr
246,32.437578,-86.484027,/Florida St
160,32.485833,-86.458479,Sweetbriar Ln/Judson Rd/Sweetbriar Ct
160,32.444437,-86.520044,Wyngate Dr/Savannah Dr
160,32.436528,-86.657375,Pine St/N Autauga St
305,32.457990,-86.447589,Peachtree St/Dozier Ave
185,32.432333,-86.417963,S Memorial Dr/McQueen Smith Rd
160,32.441786,-86.468572,Cottage Ln/Selma Hwy
216,32.458781,-86.475776,Bridge St/Maple St
246,32.611868,-86.480437,I- 65
334,32.443748,-86.426614,Thames Dr/Janice St
160,32.431105,-86.464956,Washington Ferry Rd/Hazel St
472,32.459999,-86.456719,E Main St/Jeanette Dr
334,32.467869,-86.442239,Wright St/E Poplar St
334,32.466473,-86.463346,Douglas Cir
160,32.438249,-86.438525,Doster Industrial Pkwy
246,32.451348,-86.412271,Barn Cut
160,32.431260,-86.474915,Challenge Ave
246,32.494431,-86.416558,Calumet Pkwy
276,32.435679,-86.422390,S Memorial Dr
185,32.467332,-86.471955,7th St/Martin Luther King Dr
246,32.438904,-86.464789,Washington Ferry Rd/Yaupon Dr
246,32.452848,-86.430687,Sweet Ridge Rd/Silver Hills Dr
362,32.517366,-86.432601,I- 65
160,32.509292,-86.471957,Red Hawk Rd
334,32.489821,-86.416110,Calumet Pkwy/Keenlaw Cmn
185,32.432526,-86.418200,S Memorial Dr
185,32.561653,-86.461994,US Hwy 31/Mountain Laurel Rd
185,32.454856,-86.462522,Water St/Hallmark Dr
445,32.472954,-86.414352,Bramble Trce
185,32.466289,-86.499613,Hwy 82 Byp W
185,32.428327,-86.449947,Cotton Blossom
499,32.466409,-86.418129,S McQueen Smith Rd
160,32.451914,-86.490413,Carter Rd/Hwy 82 Byp W
631,32.500147,-86.479086,Coleman Dr
305,32.493271,-86.469875,Kingston Oaks Dr
276,32.473343,-86.428802,Ambrose Ln
216,32.513384,-86.457160,Paula St/Edgefield Mnr
216,32.472552,-86.456015,Woodvale Rd/Primrose Dr
246,32.446111,-86.479731,Mantlewood Ct/Fireside Dr
246,32.450259,-86.429524,W Teri Ct/Teri Ln
160,32.493867,-86.447213,Mill Village Ln
305,32.468286,-86.412356,Regent Rd
185,32.460434,-86.440573,E Main St
276,32.616661,-86.480290,Robin Ct/Hummingbird Dr/Bluebird Ct
216,32.454935,-86.463316,Water St/Parkwood Dr
246,32.608158,-86.469190,/US Hwy 31
160,32.469170,-86.485264,Lower Kingston Rd
276,32.435026,-86.424457,Serenity Dr
160,32.677270,-86.433859,Autauga County 131
160,32.450257,-86.418148,S McQueen Smith Rd
160,32.700977,-86.483042,Autauga County 20
276,32.443104,-86.430012,Sheila Blvd
246,32.462873,-86.472443,W 4th St/N Chestnut St/S Chestnut St/E 4th St
185,32.453001,-86.411672,Tara Dr
246,32.506053,-86.418214,Autauga County 39/Grand Park Dr
160,32.599175,-86.436790,Runway Dr
160,32.523952,-86.412293,Autauga County 39
160,32.458106,-86.532189,Golson Place Blvd
216,32.464185,-86.423263,Twelve Oaks Ln/Twelve Oaks Ct
246,32.463442,-86.437545,Dora St
246,32.471348,-86.422923,Thornton Ct
185,32.486125,-86.487929,Francis St/Ruth St
185,32.478869,-86.487873,Mockingbird St
1278,32.464683,-86.450942,Wetumpka St/N Memorial Dr/S Memorial Dr
160,32.533543,-86.638394,Co Rd 40 W/US Hwy 82 W
1020,32.460510,-86.421207,E Main St/Glynnwood Dr
552,32.469250,-86.417316,Chancellor Ridge Rd
499,32.497296,-86.472781,/Upper Kingston Rd
216,32.506954,-86.418241,Rushmore Dr/Autauga County 39
160,32.426842,-86.460659,Autauga County 4
418,32.462310,-86.445988,Wingard St/Cooper Ave
216,32.500453,-86.418396,Old Ridge Rd N
160,32.450709,-86.458331,Priscilla Ct
185,32.591928,-86.600458,/Autauga County 21
160,32.475492,-86.469756,Cone St
185,32.706556,-86.559817,Watchman Cir W
334,32.457735,-86.466185,Moncrief St/First St
160,32.660524,-86.709472,Maul Dr
216,32.420878,-86.472451,Jensen Rd
216,32.599159,-86.437653,Taxi Ct/Runway Dr
390,32.656430,-86.499670,I- 65
216,32.464570,-86.476969,W 5th St
160,32.540030,-86.451924,Snowdrift Rd/Lake Wood Dr
276,32.476726,-86.477535,Live Oak/Dunvegan Dr
246,32.425961,-86.450880,Vintage Way
334,32.632576,-86.713042,Big Spring/Big Springs Church Rd
216,32.479826,-86.471352,Howard St/Wilberforce Ave
160,32.439223,-86.657476,N Pickett St/Sweet Gum
246,32.439186,-86.475443,US Hwy 82 Byp W/US Hwy 82
185,32.466904,-86.459942,E 6th St/6th St/Booth St
246,32.424144,-86.639414,Clarks Landing Rd
160,32.438670,-86.428352,US Hwy 82
160,32.445445,-86.430869,Cynthia St/Janice St
160,32.449610,-86.457143,Carol St
216,32.428706,-86.460576,Langford Dr/Langford Ct
185,32.587471,-86.464312,US Hwy 31
185,32.457766,-86.442546,Beverly Ave/Geneva St
246,32.444574,-86.517079,Savannah Dr
334,32.450567,-86.472802,Weatherby Trl/Caliber Xing
445,32.467070,-86.477841,Walnut St
246,32.456846,-86.444736,Deramus St/Oates Rd
276,32.499883,-86.416685,I- 65
160,32.450947,-86.457938,Imogene St/Priscilla Ct
160,32.657694,-86.501904,Autauga County 68 W/Alt Rte Route County Road 59
216,32.428871,-86.464033,Autauga County 4
185,32.441769,-86.417487,Big Oak Dr
418,32.473933,-86.414158,Bramble Trce
160,32.431545,-86.653419,N Autauga St/Academy St
334,32.472614,-86.441017,Croydon Dr/Brookhaven Dr
472,32.476076,-86.429796,Windermere Ct
246,32.468638,-86.432902,Lake Haven Way/Lake Haven Pl
390,32.461343,-86.445988,Wingard St/Gaddis Ave
276,32.547646,-86.455534,I- 65/
160,32.533005,-86.415952,Formosa Ct/Autauga County 39
418,32.456566,-86.467388,Doster Rd/Doster St
334,32.457642,-86.464856,Pratt St/First St
216,32.444280,-86.423462,Amanda Ln
334,32.470509,-86.486799,Durden Rd/Lower Kingston Rd
216,32.425705,-86.411754,S Memorial Dr
334,32.457452,-86.427241,Sweet Ridge Rd/Old Creek Rd
185,32.470599,-86.474656,9th St/N Court St
499,32.448690,-86.453305,Ann Ct/Abney Dr
216,32.447417,-86.462337,Festival Dr/Cranbrook Dr/Festival Ct
185,32.424490,-86.449798,Buena Vis Lp/Buena Vista Blvd
445,32.454243,-86.412451,Shannon Ct/Heather Dr
445,32.654991,-86.498973,I- 65
185,32.452087,-86.446065,Stonewall Dr/Morris Cir
362,32.469909,-86.419055,Briarcliff Pl
216,32.470315,-86.417286,Timbermill Ct/Chancellor Ridge Rd
246,32.435142,-86.421393,/S Memorial Dr
334,32.676071,-86.509828,I- 65/Autauga County 20
160,32.484070,-86.512805,Autauga County 57
185,32.449531,-86.488754,Old Autaugaville Rd/Hwy 82 Byp W
160,32.430394,-86.664595,Dutch Bend Rd/State Rte 14
185,32.479777,-86.446265,Cedar Dr/Holly Ln
185,32.529364,-86.455266,February Dr/US Hwy 31
1071,32.462516,-86.418099,S McQueen Smith Rd
526,32.462651,-86.469591,E 4th St/N Washington St/S Washington St
160,32.477035,-86.486555,Durden Rd
160,32.529646,-86.412973,Autauga County 39/Honeysuckle Ridge Dr
445,32.467090,-86.450109,Chester St/Fairview Ave
160,32.427718,-86.451004,Buena Vista Blvd
185,32.585181,-86.464302,US Hwy 31
160,32.502563,-86.456230,US Hwy 31
160,32.520623,-86.454837,Berry Ln
216,32.491692,-86.474521,Kingston Garden Rd
160,32.488357,-86.467685,Martin Luther King Dr/Greencrest Ln
305,32.454042,-86.445631,/S Memorial Dr
185,32.486983,-86.516577,/Autauga County 57
160,32.453562,-86.520855,Choctaw Ridge
160,32.452652,-86.487222,Gin Shop Hill Rd/Carter Rd
418,32.501932,-86.418070,I- 65
788,32.463088,-86.418093,McQueen Village Rd/S McQueen Smith Rd
246,32.467595,-86.437116,Bryan St/Doris St
305,32.469802,-86.416028,Chancellor Ridge Rd
305,32.455557,-86.426041,Sheila Blvd/Seasons Dr
160,32.677540,-86.508388,Autauga County 105/Autauga County 20
216,32.480925,-86.460657,Mimosa Rd/Fern St
246,32.513187,-86.427809,I- 65
1304,32.461325,-86.450886,S Memorial Dr/Gaddis Ave
185,32.454231,-86.525253,Arrowhead Dr/Wind Rush Ln/Choctaw Ridge Rd
334,32.570372,-86.469107,River Birch Dr
216,32.466776,-86.468531,Pine St
305,32.445273,-86.479698,Mantlewood Ct
710,32.479675,-86.419608,Station Dr
390,32.499231,-86.479151,Carson Dr
246,32.467359,-86.428250,Sandstone Trce/Ashwood Ct/Ashwood Dr
185,32.656913,-86.700384,/Autauga County 77
605,32.483488,-86.415702,Old Farm Ln/Fairview Ave
305,32.462300,-86.443970,Kerlin St/Cooper Ave
445,32.463662,-86.455394,Kathleen Ct/Wildwood Dr
246,32.474125,-86.419951,N McQueen Smith Rd
216,32.430740,-86.507991,Autauga County 29/Selma Hwy
216,32.465657,-86.468827,Pine St/E 6th St
334,32.480889,-86.414812,Josie Run/Covered Bridge Pkwy
246,32.609806,-86.608860,Unamed Field Rd/Autauga County 111
160,32.476402,-86.422226,Abinger Pl
362,32.502288,-86.418309,I- 65
160,32.701472,-86.471428,Hunter Loop Rd/Autauga County 20
276,32.649289,-86.496345,I- 65
445,32.431030,-86.468706,Autauga County 4/Hill St
390,32.472186,-86.476082,Spanish Oak Dr
445,32.707057,-86.524693,I- 65
334,32.454988,-86.446533,Smith Ave/S Memorial Dr
185,32.655119,-86.445829,Co Rd 70
246,32.466412,-86.480976,/W 6th St
185,32.430911,-86.464955,Washington Ferry Rd/Industrial Park Rd
160,32.563474,-86.633387,Joffre Ruckertown Rd/Autauga County 40
160,32.476553,-86.425888,Aberdeen Ct
390,32.436628,-86.423644,/S Memorial Dr/Brandy Ln
160,32.474576,-86.470762,Goldsmith St/Martin Luther King Dr
334,32.485536,-86.471266,Hughes St/Averhart St
526,32.496433,-86.472257,Yorkshire Dr
160,32.469455,-86.485592,Lower Kingston Rd
246,32.482525,-86.488579,Durden Rd/Durden Ct
185,32.481772,-86.463072,Mt Airy Dr/Joan Ln
246,32.468624,-86.441950,Kay St/Wright St
445,32.445082,-86.474444,Gray Dr
160,32.423999,-86.453459,Autauga County 4
160,32.511952,-86.588559,Autauga County 21/US Hwy 82 W
160,32.435220,-86.422835,Hare Cir
334,32.462821,-86.454165,Gillespie St/Newton St
1252,32.463028,-86.420726,McQueen Village Rd
390,32.467036,-86.442486,Wright St/Julia St
160,32.430998,-86.493586,Selma Hwy
160,32.437132,-86.598705,Autauga County 135
334,32.485546,-86.470185,Jones St/Hughes St
305,32.613490,-86.481759,I- 65
305,32.485599,-86.422941,Ashton Oak Dr
185,32.570259,-86.504532,Autauga County 40/Autauga County 59
579,32.455152,-86.466378,Doster Rd/Water St
185,32.438985,-86.467105,Yaupon Dr
185,32.465404,-86.460282,Warren Cir
216,32.478098,-86.449891,Livingston Cir/Brookwood Dr
160,32.507165,-86.517568,/Wyatt Loop Rd
185,32.438851,-86.467636,Cottage Ct
605,32.482856,-86.418082,Old Ridge Rd N/Fairview Ave/Summit Pkwy
160,32.493263,-86.473936,Cross Creek Rd
160,32.535946,-86.556397,Johnston Rd/Autauga County 81
276,32.466203,-86.478007,Walnut St/W 6th St
160,32.464363,-86.473844,W 5th St
445,32.458635,-86.450019,S Memorial Dr/Thomas Ave
160,32.665359,-86.702166,Autauga County 77/Maul Dr
160,32.487119,-86.461174,Auburn Rd/Avalon Dr
216,32.432989,-86.418541,S Memorial Dr/S McQueen Smith Rd
390,32.470247,-86.453334,Magnolia Dr/Primrose Dr
445,32.463755,-86.447859,Spencer St/Gillespie St
334,32.485557,-86.469452,Hughes St/Martin Luther King Dr
160,32.489314,-86.469486,Gardner Rd
246,32.465185,-86.485877,Dawson St/Allenville Rd
160,32.516485,-86.450972,Floyd St
362,32.478288,-86.425535,Edinburgh St/Inge Pl
160,32.469752,-86.434066,E Poplar St
185,32.447000,-86.436032,Teri Ln/Overlook Dr
305,32.471181,-86.511432,US Hwy 82 W
160,32.669328,-86.569505,Graham Run Rd
185,32.486552,-86.516228,Autauga County 57/Autauga County 10
185,32.520021,-86.438018,I- 65
160,32.496806,-86.447668,Mill Village Ln
362,32.473450,-86.448063,Shadow Ln Dr/Shadow Ln/Woodley Ave
216,32.590390,-86.484007,Flowers Ln
185,32.482078,-86.483707,Melmar Dr
362,32.494357,-86.415728,Westbrook Ct/Calumet Pkwy
160,32.576548,-86.518746,Camp Tukabatchee Rd
526,32.448957,-86.452955,Ann Ct
160,32.503048,-86.438829,Valridge N
185,32.459367,-86.503199,Indian Hills Rd
160,32.471001,-86.411925,Wee Lovett Dr
216,32.478859,-86.488215,Mockingbird St/West Dr
418,32.597172,-86.477856,I- 65
185,32.426805,-86.411824,Murfee Dr/Cooters Pond Rd
472,32.461165,-86.438653,Cooper Ave/Adell Pl
276,32.448968,-86.461856,Hatty Ln/Fleetwood Rd
445,32.467657,-86.418138,N McQueen Smith Rd
246,32.449056,-86.434743,Overlook Dr
185,32.492334,-86.489607,Windmill Dr
185,32.477086,-86.525576,US Hwy 82 W
246,32.476433,-86.462482,Camellia Dr
216,32.430065,-86.417298,Dodgers Dr
160,32.419922,-86.411278,S Memorial Dr
305,32.475482,-86.437594,Diane Dr/Rosewood Dr
185,32.449765,-86.439528,Old Hwy 31
305,32.546934,-86.453015,Timber Trl
160,32.502764,-86.439289,Valridge N
390,32.450262,-86.423697,Arbor Ln
216,32.484564,-86.457815,Judson Rd
160,32.454136,-86.486025,Gin Shop Hill Rd/Mountain Lake Ct
246,32.480856,-86.458767,Mimosa Rd
472,32.461478,-86.475478,W 3rd St/S Court St
185,32.590350,-86.483230,/Autauga County 66
246,32.470777,-86.413073,Castle Brook Dr
605,32.657528,-86.499947,I- 65/Autauga County 68 W
160,32.528793,-86.455593,William Willis Pl/Wm Willis Pl
362,32.467198,-86.417077,Glen Meadow Ct
334,32.470132,-86.477484,Upper Kingston Rd/Easy St
362,32.462744,-86.454363,Gillespie St/Newton St
246,32.457922,-86.468775,First St
216,32.433508,-86.489361,/Alabama St
160,32.429246,-86.468703,Hill St
160,32.529717,-86.417914,Honeysuckle Ridge Dr
526,32.438343,-86.425651,S Memorial Dr
334,32.444637,-86.473322,Grove Ct/Gray Dr
362,32.443095,-86.471382,Country Club Dr/Clubview Dr
185,32.514361,-86.429155,I- 65
362,32.464703,-86.416728,Briarwood St
216,32.438726,-86.460085,Doster Rd
216,32.432285,-86.487094,Selma Hwy
362,32.479107,-86.418045,Summit Ter/Summit Pkwy
246,32.448239,-86.427142,Teri Ln/Beth Manor Dr
160,32.654015,-86.430820,Autauga County 70/State Rte 143
631,32.459411,-86.462634,E Main St/New Moon Dr
185,32.493271,-86.473509,Cross Creek Rd/Yorkshire Dr
160,32.512889,-86.497661,Breakfast Creek Rd
334,32.460363,-86.443848,Kerlin St/E Main St
334,32.451379,-86.426008,Sheila Blvd
390,32.674971,-86.508976,I- 65
160,32.431037,-86.474913,Challenge Ave/Autauga County 4
334,32.460445,-86.438653,E Main St/Adell Pl
216,32.432868,-86.418618,S Memorial Dr
160,32.488759,-86.455833,Greencrest St
160,32.495000,-86.443841,Ridge Trl
334,32.676254,-86.509639,I- 65/Autauga County 20
305,32.483367,-86.469579,Long St/Martin Luther King Dr
185,32.430053,-86.417251,Dodgers Dr/Cubs Pl
305,32.570732,-86.469759,River Birch Dr/Tea Olive Ct
160,32.491210,-86.416952,Trotter Trl
160,32.559666,-86.436635,Alpha Springs Rd
390,32.475524,-86.429853,Windermere Ave/Windermere Ct
445,32.505272,-86.420332,I- 65
160,32.476847,-86.482526,Kingston Ct/Kingston Pl
160,32.454071,-86.486069,Cook Rd/Gin Shop Hill Rd
185,32.547915,-86.429536,Dove Ln/Ole Country Rd
305,32.445388,-86.426636,Sheila Blvd/Amanda Ln
185,32.453336,-86.444980,/S Memorial Dr
246,32.464442,-86.457317,Wetumpka St/Woodvale Rd
160,32.443894,-86.480830,Hearthstone Dr
160,32.425472,-86.462590,Reynolds Mill Rd/Loren St
762,32.459699,-86.472775,S Chestnut St/Main St/W Main St
160,32.550416,-86.435199,Autauga County 87
305,32.478465,-86.456592,Wisteria Rd/Cherry Dr
305,32.469178,-86.471765,Cosby Ct/Martin Luther King Dr
216,32.423929,-86.434928,Autauga County 4
445,32.438805,-86.468643,Cottage Ct/McGriff St
390,32.457113,-86.426063,Sheila Blvd/Sheila Ct
216,32.505724,-86.415479,Charlton Pl/Grand Park Dr
246,32.466520,-86.448782,Chester St
334,32.451524,-86.433162,Sweet Ridge Rd/Silver Creek Cir
160,32.580091,-86.504189,Autauga County 61
185,32.449727,-86.488683,Old Autaugaville Rd/Hwy 82 Byp W/Gin Shop Hill Rd
185,32.449931,-86.446548,Stonewall Dr/Sunset Dr
736,32.438606,-86.473805,US Hwy 82
305,32.472572,-86.439449,Brookhaven Dr/Warwick Dr
160,32.449951,-86.445516,Sunset Dr/Sara Ln
185,32.492697,-86.490134,Windmill Dr/Unamed Gravel Driveway
185,32.434705,-86.490506,Florida St
418,32.464160,-86.419567,Briarwood St/Hampstead St
185,32.543532,-86.451709,I- 65
216,32.486671,-86.479311,Austin Valley Dr/Upper Kingston Rd
276,32.476689,-86.481246,Kingston Pl/Upper Kingston Rd/Live Oak Dr
305,32.460538,-86.507221,Guiding Way
160,32.525578,-86.628510,US Hwy 82 W/Shelton Dr
185,32.676840,-86.510209,I- 65
362,32.457242,-86.448658,S Memorial Dr/Dozier Ave
185,32.447319,-86.427140,Teri Ln/Debra Dr
605,32.456567,-86.418135,Sanford Dr/S McQueen Smith Rd
472,32.448580,-86.424601,Jay St
160,32.472350,-86.460416,Camellia Woods Ct/Gardenia Ct
246,32.470474,-86.412873,Castle Brook Dr
246,32.582281,-86.472117,Autauga County 66
160,32.543999,-86.449880,Timber Trl
276,32.471223,-86.511577,/US Hwy 82 W
246,32.570810,-86.464280,US Hwy 31
246,32.464467,-86.435795,Poplar St/E Poplar St/Shady Oak Ln
334,32.470785,-86.436849,Valley Creek Dr/Guilford Ln
305,32.445738,-86.472003,Stakley Dr/Stakely Dr/Jessey's Ln
160,32.430570,-86.527151,Selma Hwy/Fogarty Rd
276,32.436393,-86.482807,/Alabama St
160,32.394558,-86.536867,Cotton Gin Cut
160,32.469872,-86.507280,US Hwy 82 W
216,32.439922,-86.490743,Caldwell Ln/Marshall Rd
246,32.435653,-86.424996,Brandy Ln
276,32.555312,-86.459295,US Hwy 31/Mount Laurel Rd
160,32.403930,-86.636491,Strickland Landing Rd/Stricklands Trailer Park
160,32.490340,-86.566758,US Hwy 82 W
216,32.480579,-86.486186,Marlyn Dr/Bumble Bee Ct
710,32.459601,-86.456329,Pratt Plaza Mall
160,32.444682,-86.481688,Fireside Dr
246,32.468204,-86.445656,Till St/Buckner St
334,32.541894,-86.449831,I- 65
839,32.460408,-86.452463,Loder St/E Main St
160,32.436644,-86.489509,Larry Ln/Larry Ct
246,32.468341,-86.423762,Meadowbrook Ct
160,32.478232,-86.426789,Edinburgh St
216,32.443570,-86.425270,Janice St
216,32.476805,-86.487792,Cargill St/Montana Ct
839,32.465727,-86.450751,N Memorial Dr
160,32.488509,-86.542326,US Hwy 82 W
276,32.433148,-86.471478,Pickett St/Peagler St
185,32.494717,-86.588600,Lone Star Ln/Autauga County 165
305,32.547939,-86.455834,I- 65
185,32.454664,-86.444234,Paige Ct
185,32.448422,-86.471968,Weatherby Trl/Stakley Dr
160,32.609056,-86.427783,Autauga County 85/Kindling Ridge Rd
305,32.450131,-86.453255,Louise Ct/Lawrence St
276,32.466016,-86.472096,Martin Luther King Dr
185,32.476002,-86.422178,Abinger Pl/Windermere Ave
160,32.548698,-86.440621,Autauga County 87/Alpha Springs Rd
579,32.469192,-86.417431,Chancellor Ridge Rd
390,32.499437,-86.476688,Parkview Dr
216,32.473289,-86.474342,Spanish Oak Dr/N Court St
445,32.460127,-86.456740,E Main St/Jeanette Dr
788,32.438150,-86.473982,/Selma Hwy
160,32.436321,-86.426112,Longview Heights Rd
362,32.458087,-86.471042,/First St
216,32.514134,-86.456782,Paula St/US Hwy 31
160,32.458575,-86.444741,Josephine Ave/Deramus St
185,32.476523,-86.450951,Griffith Ave/Livingston Ave
160,32.463288,-86.478709,W 4th St/Lower Kingston Rd
216,32.430866,-86.416370,S Memorial Dr
185,32.454949,-86.448164,Smith Ave/Davis St
160,32.427045,-86.465008,Washington Ferry Rd/Haley Ct
276,32.492531,-86.417252,Kentucky Ct/Trotter Trl/Bluegrass Dr
305,32.455589,-86.424145,Seasons Dr/Autumn Rd
160,32.442442,-86.411570,US Hwy 82 Byp E
305,32.474328,-86.472591,White Oak Ct
305,32.471620,-86.448813,Shawdow Ln Dr/Colonial Ct
185,32.423921,-86.435787,Autauga County 4
390,32.579428,-86.469665,I- 65/Autauga County 40
160,32.700941,-86.483412,/Autauga County 20
418,32.475184,-86.420268,N McQueen Smith Rd/E Poplar St
160,32.538455,-86.440231,Autauga County 39/Oak Valley Rd
185,32.456117,-86.470524,Selma Hwy
390,32.453705,-86.426024,Sheila Blvd/Tara Dr
246,32.486457,-86.423061,Overton Dr/Ashton Oak Dr
334,32.623161,-86.488184,I- 65/Autauga County 59
185,32.431091,-86.458296,Langford Ct
160,32.426172,-86.468153,G S Rd
160,32.430867,-86.500577,Selma Hwy
160,32.454512,-86.482799,Doe Dr/Fawn Ln
160,32.461038,-86.458932,Knob Hill Rd
185,32.489956,-86.476319,Kingston Garden Rd/Kingston Green Dr
216,32.447440,-86.460093,Festival Dr
160,32.437123,-86.632939,Autauga County 21/State Rte 14
160,32.551757,-86.546023,Autauga County 57/Emma Ct
334,32.476394,-86.461978,Mt Airy Dr/Camellia Dr
216,32.428837,-86.460164,Langford Way/Langford Ln
305,32.500147,-86.480017,Coleman Dr
185,32.600548,-86.464291,Pinetuckett Pkwy
185,32.441865,-86.452144,Inzer Ln/Shady Lane Farm Rd
160,32.455970,-86.480281,Deerwood Dr/Spruce St
160,32.555673,-86.645559,Autauga County 40
185,32.475579,-86.477529,Stirling Ridge/Dunvegan Dr
305,32.440323,-86.418003,S McQueen Smith Rd/US Hwy 82 Byp E
334,32.457948,-86.451020,Davis St/Thomas Ave
185,32.476334,-86.487875,Sheffer Rd
472,32.438101,-86.425330,Dunn Ln/S Memorial Dr
160,32.570877,-86.471092,Cedar Ridge Loop/River Birch Dr
185,32.480579,-86.485795,Bumble Bee Ct
160,32.652338,-86.592107,Norton Rd/Autauga County 20
160,32.430607,-86.521555,/Selma Hwy
276,32.472986,-86.413356,Thistle Rd
305,32.453764,-86.421929,Tara Dr/Winter Pl
216,32.446756,-86.470379,Jessey's Ln
160,32.477066,-86.486576,Durden Rd/Cargill St
160,32.454738,-86.474304,Quail Run/Antelope Cir
185,32.451495,-86.462083,Hatty Ln/Hillwood Rd
160,32.430725,-86.511953,Selma Hwy
160,32.454667,-86.484465,Doe Rd/Fawn Ln
362,32.470582,-86.469086,Sandy Ct
160,32.429755,-86.668830,State Rte 14
246,32.470858,-86.510437,US Hwy 82 W/Abilene Dr
246,32.435651,-86.462834,Hwy 82 Byp E
185,32.463718,-86.500661,Rice Park Cir
1537,32.463335,-86.450930,S Memorial Dr/Gillespie St
160,32.477838,-86.497992,/Eds Dr
499,32.466467,-86.418063,Regent Rd
276,32.489735,-86.415604,Calumet Pkwy
526,32.477100,-86.431495,Edinburgh St/Hibbett St/Breckinridge Ln
334,32.455145,-86.413607,Melvina Pl
472,32.459477,-86.461734,E Main St
1485,32.464208,-86.450697,S Memorial Dr/Gipson St
499,32.442162,-86.430971,Sheila Blvd/S Memorial Dr
305,32.582611,-86.471276,I- 65
160,32.593789,-86.590081,Autauga County 140/Unamed Dirt Driveway
390,32.457296,-86.448581,S Memorial Dr/Dozier Ave
160,32.449484,-86.431585,Mara Ct
276,32.448172,-86.431647,Beth Manor Dr/Mara Ct
362,32.471695,-86.417781,Chancellor Ridge Rd/Stapleford Trce
276,32.694387,-86.518123,I- 65
334,32.453065,-86.484125,Cook Rd/Fawn Ln
160,32.466645,-86.485670,Allenville Rd
185,32.556145,-86.645331,Duffey Cir/Autauga County 40
445,32.571277,-86.469451,Tea Olive Ct
160,32.550427,-86.514063,Happy Trails Rd/Bridge Creek Rd
216,32.467829,-86.506525,Walter St/Reed St
305,32.453702,-86.427226,Sweet Ridge Rd/Tara Dr
362,32.441336,-86.471367,Dale Dr/Country Club Dr
185,32.480938,-86.462333,/Mimosa Rd
552,32.459213,-86.466013,E Main St/Moncrief St
185,32.427430,-86.460282,Langford Dr/Langford Ct
160,32.575127,-86.556750,Mason Rd/Autauga County 40
418,32.437433,-86.471025,Merlin Blvd/Hwy 82 Byp E
160,32.502986,-86.439290,Valridge N
276,32.428100,-86.460372,Langford Dr
305,32.435158,-86.424312,Serenity Dr
246,32.437963,-86.434999,Hwy 82 Byp E
160,32.486359,-86.517577,Autauga County 10
334,32.460697,-86.506872,Gateway Ct/Guiding Way
216,32.423954,-86.459847,Rueben Rd
710,32.585798,-86.429233,Avery St/Kenner Creek Cir
160,32.537477,-86.438499,Driver Rd/Autauga County 39
390,32.475422,-86.440246,Montview Ct
216,32.465727,-86.471269,E 6th St/6th St
216,32.476461,-86.457624,Mimosa Rd/Azalea Dr
246,32.441654,-86.464719,Washington Ferry Rd/Linda Ln
185,32.449910,-86.447595,Leigh Dr/Sunset Dr
418,32.450995,-86.434357,Silver Creek Cir/Silver Creek Ct
216,32.603006,-86.464305,Seth Dr/US Hwy 31
246,32.461275,-86.507381,Gateway Ct
160,32.575547,-86.561390,Autauga County 40/Land of Peace Rd
160,32.453951,-86.461003,Bonanza Ct
216,32.668353,-86.699768,Autauga County 67/Autauga County 24
160,32.508159,-86.434364,Ricky Dr
216,32.466256,-86.419590,Coventry Ct/Hampstead St
160,32.667036,-86.702850,Co Rd 24
185,32.537976,-86.439381,Nummy Rd/Autauga County 39
499,32.489936,-86.478792,Bridge Creek Rd/Upper Kingston Rd
305,32.450443,-86.479823,Chimney Ridge
160,32.431832,-86.420065,Bluejays Pl
160,32.659999,-86.717638,Office St/Norrell St
216,32.447432,-86.460505,Festival Dr
160,32.610908,-86.607596,/Unamed Field Rd
216,32.448878,-86.521997,Red Eagle Rd
216,32.533482,-86.455686,US Hwy 31/St Francis Pl
160,32.526595,-86.496475,Topaz St/Ruby Ct
390,32.476125,-86.421059,Kelse Pl/Windermere Ave
185,32.476821,-86.488734,Oregon Ct/Cargill St
788,32.496305,-86.470265,/Kingston Oaks Dr/Dorchester Dr
185,32.477860,-86.472315,Tuskegee St/Bunche Ave
246,32.476461,-86.456564,Wisteria Rd/Azalea Dr
160,32.659536,-86.860597,Autauga County 173
246,32.462363,-86.443229,Cooper Ave
216,32.457938,-86.462155,New Moon Dr/New Moon Ct
246,32.472237,-86.414080,Stapleford Trce
246,32.430737,-86.507495,Grouby Airport Rd/Selma Hwy
305,32.471080,-86.485561,/Unamed Paved Trailer Park Dr/Roy St
185,32.485298,-86.461201,Avalon Dr
185,32.435010,-86.426349,Longview Heights Rd
160,32.447277,-86.458875,Cranbrook Dr/Marlette Dr
390,32.470918,-86.415857,Grasmere Ct
160,32.466464,-86.485692,/Allenville Rd
216,32.464472,-86.434664,E Poplar St/Scott Ln
276,32.586691,-86.464325,/US Hwy 31
762,32.466637,-86.450397,/Fairview Ave
185,32.459404,-86.506723,Indian Hills Rd
968,32.463093,-86.418374,McQueen Village Rd
499,32.483609,-86.415405,Fairview Ave
305,32.462162,-86.448684,Chambliss St/Cooper Ave
390,32.466727,-86.425291,Greystone Way/Greystone Ct
185,32.486938,-86.471250,Averhart St
160,32.550255,-86.434611,Autauga County 87
160,32.504697,-86.470888,Crows Pass/Red Hawk Rd
216,32.464143,-86.446164,S Nichols St/Gillespie St
552,32.474544,-86.441442,Croydon Dr/Bedford Ter
185,32.614516,-86.725585,US Hwy 82 W
246,32.428905,-86.416460,Astros Ave
160,32.542144,-86.478781,Cheeks Ln/Pink Lilly Rd
160,32.502194,-86.463571,Martin Luther King Dr
160,32.439481,-86.442418,Doster Rd
160,32.427118,-86.461116,Autauga County 4
160,32.428230,-86.650847,N Autauga St/Galson St
185,32.583922,-86.462124,Autauga County 40/Autauga County 92
160,32.475904,-86.473895,Live Oak/Live Oak Dr
552,32.459401,-86.468641,E Main St/College St
362,32.463787,-86.466492,Wetumpka St/Oak Hill Cemetary
865,32.438584,-86.426246,S Memorial Dr/US Hwy 82 Byp E/US Hwy 82
216,32.478766,-86.471534,Wilberforce Ave/Isom St
185,32.432530,-86.469187,Jensen Rd/Hill St
276,32.435800,-86.422272,S Memorial Dr
160,32.448206,-86.429291,Beth Manor Dr/Alecia Dr
160,32.702270,-86.470824,State Rte 143/Autauga County 20
160,32.445459,-86.431417,Cynthia St
160,32.515406,-86.449535,Mims Ln/Tatum Rd
216,32.495708,-86.415927,Holly Brooke Ln
445,32.466917,-86.475020,N Court St
1459,32.460413,-86.451550,/E Main St
334,32.549509,-86.457759,I- 65/US Hwy 31
418,32.553589,-86.460775,I- 65
445,32.431178,-86.468891,Hazel St/Hill St
390,32.461820,-86.424255,Pebble Creek Ct
276,32.490896,-86.414000,Kenalay Ct
276,32.476473,-86.455504,Boxwood Rd/Azalea Dr
185,32.512759,-86.589171,US Hwy 82 W
185,32.435122,-86.422571,Hare Cir
160,32.437230,-86.613414,/Selma Hwy
160,32.608601,-86.470098,US Hwy 31
305,32.429853,-86.418370,Reds Ct
185,32.452843,-86.428883,Sweet Ridge Rd
160,32.478779,-86.439485,Chalet Wood Dr
160,32.433971,-86.424136,Hare Cir
160,32.586616,-86.697090,US Hwy 82 W
160,32.451372,-86.452577,George Dr
216,32.447387,-86.515034,Wynhaven Dr/Wynchase Dr
390,32.585977,-86.431934,Kenner Creek Cir
216,32.466011,-86.446790,S Nichols St/Wright St/N Nichols St
160,32.430857,-86.501044,/Selma Hwy
305,32.504303,-86.412756,Laurel Pl/Grand Park Dr
160,32.465536,-86.490190,Tr Ct
160,32.437241,-86.440673,Hwy 82 Byp E
160,32.485208,-86.453392,N Memorial Dr/Ridgewood Rd
160,32.584901,-86.466842,Pinelevel Run/Pinelevel Ridge
276,32.538763,-86.495057,Rowe Dr/Autauga County 82
526,32.475298,-86.451976,N Memorial Dr/Skidmore Ave
160,32.539580,-86.642524,Love Ln/US Hwy 82 W
160,32.570996,-86.471073,Cedar Ridge Loop
185,32.538300,-86.439956,Autauga County 39/Alt Rte Route Cord 39
305,32.438191,-86.490818,Caldwell Ln/Anderson St
160,32.451397,-86.463030,Hillwood Rd/Vindale Rd
276,32.472904,-86.417956,Old Prestwick Ct/Chancellor Ridge Rd
418,32.445874,-86.463222,Summer Hill Rd/Doster Rd
185,32.580499,-86.544363,Shenandoah Ct
246,32.436228,-86.424291,/Brandy Ln
276,32.489148,-86.418904,Ashton Oak Ct
160,32.660023,-86.708529,Bear Dr/Maul Dr
160,32.501731,-86.503787,Conestoga Wagon Trl
160,32.623690,-86.489705,Autauga County 59
390,32.707058,-86.524434,I- 65
216,32.431318,-86.420301,Dodgers Dr
216,32.448230,-86.428215,Beth Manor Ct/Beth Manor Dr
276,32.470743,-86.485579,Roy St
185,32.449596,-86.428767,Alecia Dr
160,32.420833,-86.465187,/Washington Ferry Rd
246,32.463765,-86.486098,W 4th St/Allenville Rd/Rollan Ave
246,32.504886,-86.418832,Sparrow Pointe Ct
362,32.467478,-86.413200,Little Farm Rd
246,32.485146,-86.424615,Riverchase N Blvd
185,32.648865,-86.421923,State Rte 143/State Rte 111
813,32.438592,-86.425967,S Memorial Dr/US Hwy 82 Byp E
305,32.464743,-86.479584,W 5th St
305,32.431103,-86.469551,/Autauga County 4
579,32.548501,-86.457709,US Hwy 31
160,32.453629,-86.440420,Perrydale Loop
185,32.503680,-86.412342,Autauga County 39
499,32.464568,-86.443301,Adell Pl/Huie St
362,32.473962,-86.479682,Upper Kingston Rd/Woodland Acres
276,32.470160,-86.416638,Mill Ridge Ct/Chancellor Ridge Rd
160,32.430918,-86.498234,Selma Hwy
185,32.511985,-86.456305,Wood Valley Ridge
246,32.435781,-86.424832,Brandy Ln
185,32.431215,-86.420086,Expos Ct/Dodgers Dr/Bluejays Pl
160,32.600487,-86.676338,Autauga County 19
334,32.452117,-86.450375,Honeysuckle Dr/Danya Dr
362,32.488247,-86.421415,Riverton Dr
362,32.550928,-86.457831,/US Hwy 31
246,32.468351,-86.416047,Little Farm Pl/Little Farm Rd
160,32.496408,-86.447662,Mill Village Ln
160,32.431012,-86.477598,Echlin Blvd/Autauga County 4
276,32.531945,-86.443947,I- 65
216,32.492520,-86.417882,Bluegrass Dr
390,32.474472,-86.521275,US Hwy 82 W
160,32.558042,-86.438295,Alpha Springs Rd
160,32.450088,-86.512639,Northington Ln/Northington Rd
160,32.437323,-86.601177,Selma Hwy
185,32.705343,-86.557145,Watchman Cir W/Autauga County 57
160,32.430788,-86.504758,Selma Hwy
160,32.561042,-86.514262,Bridge Creek Rd
499,32.454155,-86.418142,Tara Dr/S McQueen Smith Rd
160,32.588316,-86.455309,/Autauga County 40/Autauga County 102
216,32.443866,-86.520064,Wynfrey Dr/Wyngate Dr
160,32.608663,-86.470208,David/US Hwy 31
658,32.500148,-86.478856,Coleman Dr/Coleman Way
390,32.501288,-86.417645,I- 65
276,32.442217,-86.471386,Country Club Dr/Kingswood Dr
334,32.445120,-86.473065,Grove Ct
305,32.491906,-86.453689,N Memorial Dr/Powell Rd/US Hwy 31
160,32.590744,-86.485313,Givens Ct/Autauga County 66
526,32.465874,-86.414359,Regent Rd/Turnberry Ct
160,32.637455,-86.482392,Merrill Ln
445,32.467298,-86.418137,N McQueen Smith Rd/S McQueen Smith Rd/Wynford St
216,32.471443,-86.512268,/US Hwy 82 W
445,32.454195,-86.413860,Shannon Ct
160,32.522376,-86.590588,Autauga County 113/Tommy Ln
445,32.476118,-86.420299,N McQueen Smith Rd/Windermere Ave
185,32.568350,-86.676074,US Hwy 82 W
185,32.429941,-86.420069,Expos Ct
276,32.447273,-86.433153,Ivey Ct/Ivey Ln
216,32.432397,-86.486844,Larry St/Selma Hwy
160,32.449632,-86.475150,Winchester Way/Winchester Ct
246,32.436231,-86.483155,/Alabama St
334,32.443503,-86.429220,Sheila Blvd/Patti Loop
160,32.607121,-86.581639,Autauga County 150
216,32.471680,-86.423170,Hawthorne St/Hawthorn Ln/Thornton Ct
160,32.465224,-86.444025,William Ct
246,32.436998,-86.473243,Gawain Dr/Lancelot Cir
276,32.437632,-86.425036,S Memorial Dr/Tiffany Dr
185,32.706877,-86.560171,Autauga County 57
185,32.469610,-86.506469,Walter St/US Hwy 82 W
216,32.423937,-86.433318,Autauga County 4
246,32.437424,-86.425282,Tiffany Dr
305,32.508059,-86.421643,Clearbranch Rd
160,32.570784,-86.417158,Animal Acres Dr
246,32.476418,-86.458602,Japonica Rd/Azalea Dr
216,32.433185,-86.417937,S McQueen Smith Rd
276,32.465162,-86.419573,Hampstead Ct/Hampstead St
246,32.444358,-86.424841,Irma Ln/Amanda Ln
185,32.656549,-86.700611,Bear Dr
160,32.485343,-86.451438,Henderson Ln
185,32.456876,-86.442325,Oates Rd/Geneva St
276,32.433785,-86.525458,Simmons Rd
160,32.472865,-86.422084,Linden Ln/Hawthorne St
762,32.438178,-86.473111,/US Hwy 82
362,32.470303,-86.448181,Walker St/Fairview Ave
305,32.439498,-86.476178,Stewart St/Country Club Commercial Park Dr/US Hwy 82 Byp W
216,32.471756,-86.459044,Gardenia Cir/Gardenia Ct
185,32.517699,-86.413267,/Autauga County 39
216,32.446980,-86.517379,Wynhaven Dr/Wyncove Way
160,32.444107,-86.589754,Autauga County 3
579,32.548420,-86.457711,US Hwy 31
160,32.442364,-86.481111,Hearthstone Dr/US Hwy 82 Byp W
185,32.432496,-86.417925,S Memorial Dr/S McQueen Smith Rd/McQueen Smith Rd
185,32.470532,-86.420084,Kingsley Dr/Larkwood Dr
216,32.505149,-86.413935,Grand Park Dr
160,32.426675,-86.412194,Scenic Dr/S Memorial Dr
246,32.466205,-86.462297,Harlem St
246,32.488881,-86.421202,Trolley Rd
246,32.468804,-86.432504,Lake Haven Pl
160,32.442951,-86.417326,Rufus Rd
160,32.427090,-86.461070,Autauga County 4
472,32.619711,-86.483746,US Hwy 31/David Dr
216,32.453077,-86.412227,Tara Dr/Heather Dr
160,32.444004,-86.483315,Nobles Ln/US Hwy 82 Byp W
185,32.525024,-86.494468,Topaz St/Onyx Dr
160,32.430303,-86.538031,Autauga County 27/Fogarty Rd
1798,32.459928,-86.413168,E Main St
526,32.454832,-86.419321,Summer Ln/Summer Ct
216,32.438782,-86.464778,Washington Ferry Rd/Lee Cir
160,32.531066,-86.599849,Autauga County 21/Autauga County 113
160,32.626454,-86.487768,/US Hwy 31
472,32.688257,-86.515304,I- 65
160,32.473315,-86.489967,Lower Kingston Rd
160,32.561411,-86.581486,Simuel Ln
216,32.493071,-86.418010,Old Ridge Rd N
418,32.461638,-86.441249,Julia Ct
185,32.549925,-86.651698,US Hwy 82 W
185,32.461345,-86.473667,W 3rd St
390,32.580518,-86.470218,I- 65
185,32.434984,-86.426335,Longview Heights Rd
276,32.430557,-86.417970,Reds Ct/Dodgers Dr/Padres Pl
160,32.443027,-86.590822,Autauga County 3
418,32.457228,-86.470355,Doster Rd/Selma Hwy/S Washington St
216,32.480022,-86.443383,Sycamore Ct
390,32.447395,-86.466861,Washington Ferry Rd/Selma Hwy
160,32.448383,-86.454614,Lina Dr/Pelham Ln
276,32.464497,-86.469400,Washington St/N Washington St
305,32.463406,-86.425317,Twelve Oaks Ln/Greystone Way
276,32.481928,-86.485088,Carleton St/Melmar Dr
334,32.530794,-86.443436,I- 65
160,32.571450,-86.541207,Glenforest Dr/Autauga County 40
631,32.464183,-86.421828,Briarwood St/Abington St
246,32.467697,-86.505694,Reed St
276,32.436003,-86.450015,Hwy 82 Byp E/Doster Rd Cutoff
160,32.492334,-86.486612,Belle Maison
472,32.469394,-86.452624,Magnolia Dr/E 6th St
246,32.471291,-86.487682,Franklin St/Lower Kingston Rd
418,32.493105,-86.412073,I- 65
246,32.455016,-86.480296,Spruce St/Pine Ridge
216,32.475006,-86.475836,Willow Oak Ct
216,32.450392,-86.440197,/Old Hwy 31
160,32.505091,-86.585723,US Hwy 82 W
418,32.442144,-86.474480,Stewart St/Dale Dr
276,32.463482,-86.445939,S Nichols St/Newton St
160,32.453992,-86.524502,Choctaw Ridge/Choctaw Ridge Rd
160,32.457749,-86.460735,Hallmark Dr
160,32.560415,-86.447379,Laurel Hill Dr
216,32.467903,-86.449627,N Nichols St/Fairview Ave
160,32.448974,-86.461559,Fleetwood Rd
445,32.473889,-86.472613,White Oak Dr/White Oak Ct
1719,32.462417,-86.450705,S Memorial Dr/Newton St
526,32.454912,-86.416295,Dellwood Ct
362,32.436034,-86.422855,/S Memorial Dr
216,32.546276,-86.646772,Autauga County 40/US Hwy 82 W
185,32.435771,-86.648064,State Rte 14/Autauga County 165
305,32.471369,-86.430440,E Poplar St/High Pointe Ridge
160,32.428452,-86.414769,Dodgers Dr/Braves Pl
160,32.659734,-86.860107,Autauga County 31/Autauga County 173
185,32.448217,-86.440470,Pearson Pond Rd
160,32.430249,-86.654286,Smutty St/S Washington St
185,32.434528,-86.481994,Selma Hwy
160,32.438646,-86.428681,US Hwy 82
160,32.593732,-86.589690,Unamed Dirt Driveway
185,32.430721,-86.512641,Selma Hwy
185,32.608404,-86.427902,/Autauga County 85
305,32.512037,-86.427736,I- 65
362,32.466915,-86.478220,Walnut St
185,32.436102,-86.483485,/Alabama St
305,32.492137,-86.415865,Dockery Ct/Bluegrass Dr
160,32.434450,-86.485140,Avant St
160,32.460327,-86.794197,Red Cross Rd/State Rte 14
160,32.485075,-86.520524,Tallant Dr
362,32.431108,-86.467338,/Hazel St
276,32.454946,-86.447448,Smith Ave/Leigh Dr
185,32.431766,-86.421406,Yankees Ave
362,32.439453,-86.471873,Cobblestone Curve/Selma Hwy
160,32.479157,-86.441247,Sycamore Dr
334,32.461230,-86.506119,Guiding Way/High Place Dr
185,32.430407,-86.553401,Autauga County 41
160,32.443216,-86.474642,Kingswood Dr
160,32.436982,-86.641803,State Rte 14
499,32.496823,-86.471823,Canterbury Ct/Dorchester Dr
276,32.471874,-86.416822,Thistle Rd/Stapleford Trce
445,32.456342,-86.423199,Seasons Dr/Summer Ln
276,32.467506,-86.436025,Shady Oak Ln
445,32.460451,-86.437455,E Main St/Huie St
216,32.467295,-86.462603,Booth Ln/Booth St
160,32.431308,-86.658426,State Rte 14
160,32.450747,-86.428727,Teri Ln/Amelia Dr
185,32.468424,-86.446138,Park St/Till St
1407,32.459204,-86.416692,Jameson Ct
160,32.425787,-86.458992,Autauga County 4
276,32.468702,-86.449134,Tew Ct/Tew St/Fairview Ave
499,32.467224,-86.475865,Upper Kingston Rd
362,32.474500,-86.447785,Edgewood Ave/Shadow Ln Dr
216,32.442034,-86.452147,Inzer Ln
160,32.467312,-86.499828,W 4th St
305,32.430214,-86.418360,Reds Ct
246,32.628391,-86.738905,US Hwy 82 W/Maul Dr
185,32.706691,-86.559812,Watchman Cir W/Autauga County 57
160,32.424002,-86.450033,Buena Vista Blvd
185,32.583419,-86.903598,Autauga County 83
526,32.444280,-86.427530,Sheila Blvd/Janice St
160,32.431046,-86.490752,Selma Hwy
160,32.629562,-86.741145,US Hwy 82 W/Autauga County 1
216,32.494579,-86.417926,Calumet Pkwy
362,32.471113,-86.417625,Chancellor Ridge Rd
276,32.452427,-86.458452,Imogene St/Patrick St
160,32.496871,-86.418269,Old Ridge Rd N
160,32.493777,-86.738927,Autauga County 33/Autauga County 45
362,32.478003,-86.433879,Edinburgh St
160,32.447628,-86.457925,Marlette Ct
246,32.435662,-86.462929,Hwy 82 Byp E
305,32.471386,-86.442249,Richmond Way/Chatam Ln
246,32.470543,-86.423954,Greystone Way/Meadowbrook Dr
160,32.643343,-86.732731,/Autauga County 98
185,32.589247,-86.415083,Autauga County 40/Denny Dr
185,32.433258,-86.484853,Avant St/Selma Hwy
185,32.455609,-86.450500,Loder St/Honeysuckle Dr
160,32.645426,-86.420513,State Rte 143/Autauga County 64
185,32.497688,-86.481258,Bridge Creek Rd/Carson Dr
185,32.592160,-86.600638,/Autauga County 21
334,32.475448,-86.439083,Bedford Ter/Rosewood Dr
216,32.471255,-86.431465,E Poplar St/Fiveash Oak
418,32.472096,-86.468840,Cosby Ct
216,32.440654,-86.467120,Gene St
160,32.503031,-86.439174,Valridge N
160,32.459063,-86.521344,Choctaw Ridge N/Arrowhead Dr
160,32.452499,-86.455659,School Dr/Patrick St
160,32.478520,-86.472305,Bunche Ave/Dillard St
334,32.464190,-86.418105,Briarwood St/S McQueen Smith Rd
160,32.475535,-86.470868,Cone St/Martin Luther King Dr
305,32.623030,-86.487819,I- 65/Autauga County 59
418,32.452950,-86.427574,/Sweet Ridge Rd
160,32.488439,-86.461184,Avalon Dr/Greencrest Ln
246,32.524110,-86.650177,/Autauga County 40
658,32.482481,-86.418100,Dolly Cir/Summit Pkwy
552,32.483314,-86.413609,Malwest St
246,32.436293,-86.470297,Gallahad St/Lancelot Cir
160,32.574185,-86.596693,/Autauga County 40
216,32.430331,-86.415826,Candlestick Way/S Memorial Dr
305,32.476117,-86.415132,Covered Bridge Pkwy
160,32.573130,-86.681561,Autauga County 19/US Hwy 82 W
216,32.450266,-86.411668,Constitution Ave/Saddle Rdg
334,32.474857,-86.458232,Mimosa Rd/Camellia Dr
216,32.465998,-86.465767,E 6th St
334,32.469988,-86.426181,Cumberland Dr
160,32.659537,-86.716767,Billingsley Park Rd/Park Rd/Norrell St
160,32.430462,-86.538026,Autauga County 27/Selma Hwy
334,32.470716,-86.469520,Sandy Ct/Cosby Ct
160,32.452303,-86.478469,Fireside Loop/Fireside Dr
334,32.447152,-86.434512,Ivey Ct
362,32.674909,-86.509215,I- 65
246,32.436340,-86.473243,Lancelot Cir
736,32.658831,-86.500894,I- 65
160,32.563387,-86.549061,Autauga County 57/Lola Rd
418,32.466623,-86.413525,Turnberry Ct
362,32.469952,-86.424257,Greystone Way
276,32.473703,-86.468275,Archie Ln/10th St
185,32.463344,-86.479513,W 4th St
246,32.452846,-86.485097,Whitetail Ct
160,32.451495,-86.446393,Stonewall Dr/Strength St
160,32.534720,-86.427055,Autauga County 39/Bozie Rd
334,32.462345,-86.422943,Pebble Creek Dr
305,32.436484,-86.477517,Echlin Blvd/Selma Hwy
216,32.437990,-86.438236,Doster Industrial Pkwy/
160,32.701666,-86.471245,Mushat Ln/Autauga County 20
276,32.471322,-86.474586,N Court St/Easy St
579,32.474885,-86.444529,Fairview Ave/Sycamore Dr
160,32.430875,-86.418569,Reds Ct/Dodgers Dr
246,32.439937,-86.427821,S Memorial Dr
390,32.478147,-86.428756,Jasmine Trl/Edinburgh St
1772,32.462353,-86.450910,S Memorial Dr/Newton St
185,32.462339,-86.424158,Pebble Creek Ct/Pebble Creek Dr
418,32.474092,-86.414132,Chancellor Ridge Rd/Bramble Trce
160,32.456263,-86.577718,Autauga County 3
246,32.470517,-86.510624,Abilene Dr
246,32.475357,-86.459391,Azalea Dr/Camellia Dr
160,32.529423,-86.413320,Honeysuckle Ridge Dr
362,32.454819,-86.415028,Dellwood Ct/Dee Dr
216,32.470065,-86.486296,Lower Kingston Rd/Danny Lyn Ct
185,32.503657,-86.412743,Autauga County 39
445,32.701469,-86.521384,I- 65
185,32.470064,-86.450256,Till Ct
160,32.448121,-86.456225,William Wood Ct
160,32.536276,-86.430067,Autauga County 87/Autauga County 39
160,32.442726,-86.411576,US Hwy 82 Byp E
216,32.480870,-86.451818,N Memorial Dr
334,32.454093,-86.445557,/S Memorial Dr/Paige Ct
160,32.449952,-86.507985,Northington Rd
390,32.470717,-86.436752,Guilford Ln
160,32.429082,-86.414283,S Memorial Dr
788,32.461979,-86.425535,/Greystone Way
160,32.432909,-86.563472,/Selma Hwy
160,32.543793,-86.449503,Timber Trl/Autauga County 39/Alpha Springs Rd
276,32.458168,-86.472155,Oak Creek Cir/First St
216,32.490817,-86.412728,Calumet Pkwy
160,32.609152,-86.469763,David
216,32.475268,-86.484910,/Durden Rd
1589,32.460683,-86.450707,/S Memorial Dr
160,32.466372,-86.483160,W 6th St
160,32.477589,-86.460693,Ellen Ct/Daniel Dr
160,32.456775,-86.512119,Indian Hills Rd
305,32.454969,-86.412551,Melvina Pl/Heather Dr
216,32.427958,-86.462514,Autauga County 4
160,32.548453,-86.439951,Hidden Hills Rd/Autauga County 87
334,32.436988,-86.471139,Gawain Dr/Merlin Blvd
552,32.459398,-86.475332,Bridge St
216,32.455993,-86.412703,Heather Dr
362,32.459677,-86.460263,E Main St
334,32.425501,-86.449493,Buena Vis Lp/Buena Vista Blvd
362,32.470900,-86.486436,Durden Rd
276,32.607784,-86.468416,US Hwy 31
246,32.486508,-86.422340,Overton Dr
216,32.437939,-86.438319,/Doster Industrial Pkwy
160,32.458517,-86.509431,Indian Hills Rd/Bell Ln
305,32.474147,-86.442982,Bedford Ter/Brookhaven Dr
362,32.437036,-86.467307,Johnson St/Robinson St
185,32.454585,-86.480289,Spruce St
185,32.454870,-86.450634,Smith Ave
216,32.476740,-86.428501,Jasmine Trl
334,32.468350,-86.412844,Castle Brook Dr/Regent Rd
160,32.471663,-86.412837,Wee Lovett Dr/Chancellor Ridge Rd/Stapleford Trce
362,32.473509,-86.451882,N Memorial Dr/Woodley Ave
305,32.607999,-86.479813,Autauga County 61
276,32.448147,-86.462592,Cranbrook Ct
160,32.660055,-86.716360,Billingsley Park Rd/Maul Dr
160,32.509756,-86.418219,Dogwood Dr/Autauga County 39
276,32.535684,-86.446186,I- 65
160,32.574075,-86.472671,Cedar Ridge Loop/Aspen Way
185,32.450837,-86.427102,E Teri Ct
185,32.432569,-86.558122,Indian Trl
246,32.490038,-86.418046,Old Ridge Rd N/Calumet Pkwy
216,32.465676,-86.448170,Wright St/Chester St
246,32.469507,-86.420449,Sweet Meadow Ct/Kingsley Dr
185,32.453612,-86.485360,Cook Rd/Fawn Ln
216,32.478721,-86.439415,Chalet Wood Dr
185,32.582957,-86.454549,Co Rd 109
276,32.435934,-86.464854,Washington Ferry Rd/Hwy 82 Byp E
160,32.493704,-86.488324,Belle Maison
185,32.521110,-86.452931,Berry Ln/Autauga Heights Rd
246,32.434505,-86.420541,S Memorial Dr
526,32.462304,-86.447445,Spencer St/Cooper Ave
334,32.468924,-86.469481,Pine St/Bent Tree Dr
216,32.438017,-86.434491,Hwy 82 Byp E
305,32.477955,-86.438899,Chalet Wood Dr/Fairview Ave
276,32.475777,-86.424373,Edinburgh St/Windermere Ave
334,32.581642,-86.471052,I- 65
276,32.429732,-86.465460,Spring St/Autauga County 4
160,32.557377,-86.644611,Autauga County 40/Purple Mountain Ln
499,32.499254,-86.478835,Carson Dr/Coleman Way
362,32.471932,-86.441757,Richmond Way/Radburn Way
472,32.466341,-86.418128,Regent Rd/S McQueen Smith Rd
160,32.473518,-86.518790,US Hwy 82 W
710,32.658878,-86.500654,I- 65
185,32.494377,-86.474877,Kenwood Ct
362,32.469766,-86.425633,Cumberland Ct
185,32.425671,-86.412301,S Memorial Dr
160,32.529535,-86.412884,Autauga County 39/Honeysuckle Ridge Dr
390,32.451784,-86.424888,Arbor Ln/Harvest Loop
246,32.450128,-86.439873,/Old Hwy 31
160,32.438775,-86.450117,Doster Rd/Doster Rd Cutoff
362,32.446365,-86.466216,Cypress Creek Way/Washington Ferry Rd
246,32.462979,-86.425381,/Greystone Way
472,32.467139,-86.475816,Walnut St/Upper Kingston Rd
216,32.440002,-86.471080,Cobblestone Curve/Selma Hwy
160,32.570521,-86.488710,Old Stagecoach Trl/Autauga County 40
418,32.448548,-86.423049,Jay St
160,32.539918,-86.613569,/Huckleberry Ln
185,32.473232,-86.517886,Michelle Dr/US Hwy 82 W
246,32.486977,-86.479251,Upper Kingston Rd/Jordan Xing
216,32.447941,-86.462155,Cranbrook Dr/Cranbrook Ct
390,32.466358,-86.415920,Regent Ct/Regent Rd
390,32.448569,-86.423833,Jay St/Jenny Dr
334,32.460458,-86.435369,E Main St/Shady Oak Ln
1667,32.460270,-86.451447,E Main St
334,32.431545,-86.467804,/Hazel St
246,32.431514,-86.657044,Taylor St/State Rte 14
160,32.600513,-86.481025,Autauga County 61
334,32.467337,-86.425268,Greystone Way/Jasmine Trl
160,32.521822,-86.412337,/Autauga County 39
185,32.481772,-86.460657,Joan Ln/Fern St
185,32.467242,-86.468366,Pine St
185,32.456989,-86.430764,Planters Ridge Rd/Silver Hills Dr
216,32.479753,-86.473530,Howard St/Carver St
160,32.666997,-86.442224,/State Rte 143
185,32.437026,-86.464823,Washington Ferry Rd/Robinson St
185,32.469735,-86.437502,Poplar St/Bryan St
160,32.609014,-86.670189,Autauga County 69
185,32.449247,-86.488310,McKetchen Rd/Hwy 82 Byp W
418,32.446280,-86.463395,Doster Rd
246,32.468874,-86.471791,8th St/Martin Luther King Dr
246,32.465597,-86.448477,Spencer St/Wright St
185,32.643344,-86.732637,/Autauga County 98
185,32.474670,-86.439149,Graylynn Dr/Bedford Ter
160,32.451183,-86.512545,Northington Ln
276,32.478099,-86.451976,N Memorial Dr/Brookwood Dr
160,32.553277,-86.518562,Happy Trails Rd
160,32.438409,-86.429345,US Hwy 82
334,32.473765,-86.475407,Willow Oak Dr/Black Oak Ct
185,32.453390,-86.444896,/S Memorial Dr
216,32.435070,-86.425093,/Brandy Ln
160,32.453600,-86.439933,Perrydale Loop
216,32.448725,-86.440368,S Memorial Dr/Pearson Pond Rd
160,32.493175,-86.453936,Old Ridge Rd/US Hwy 31
334,32.452556,-86.447581,Morris Cir/Leigh Dr
160,32.393838,-86.559894,Autauga County 41/41st Ct
160,32.501848,-86.846546,/Fig Tree St
160,32.472422,-86.515363,US Hwy 82 W/Norris Rd
216,32.458920,-86.508568,Indian Hills Rd
334,32.470779,-86.449236,Walker St/Shawdow Ln Dr
160,32.493443,-86.490523,Unamed Gravel Driveway
334,32.464926,-86.430041,Rambling Brook Ln
160,32.599901,-86.676424,Autauga County 19/McGee Rd
499,32.456683,-86.467640,S Northington St/Doster Rd
185,32.443857,-86.483133,US Hwy 82 Byp W
185,32.622155,-86.485293,US Hwy 31/Autauga County 59
160,32.579901,-86.565613,Co Rd 94
160,32.469253,-86.485362,Lower Kingston Rd
305,32.608035,-86.479342,I- 65
160,32.444325,-86.702333,State Rte 14
362,32.582147,-86.464240,Autauga County 40/US Hwy 31
334,32.453794,-86.469263,Deer Trce/Selma Hwy
362,32.476875,-86.444534,Sycamore Dr/Hickory Ln
160,32.430715,-86.514972,Selma Hwy
762,32.466667,-86.450834,/N Memorial Dr
334,32.470765,-86.418414,Larkwood Dr
305,32.489593,-86.414627,Calumet Pkwy/Bluegrass Dr
216,32.525850,-86.455436,/US Hwy 31
160,32.426628,-86.462713,Loren St
276,32.436158,-86.477627,Echlin Blvd
334,32.449672,-86.441297,/S Memorial Dr
216,32.524108,-86.649864,Nora Ln/Autauga County 40
160,32.463321,-86.479176,W 4th St
185,32.470262,-86.508552,Toby Ln/US Hwy 82 W
246,32.480984,-86.486209,Marlyn Dr/Carleton St
216,32.446010,-86.418080,S McQueen Smith Rd
185,32.459452,-86.442752,Faulk Ave/Geneva St
246,32.581421,-86.471691,Carrie Lee Ln/Autauga County 66
334,32.460357,-86.444752,Deramus St/E Main St
1252,32.462889,-86.421271,Glynnwood Dr
160,32.437226,-86.642062,Blossom Rd
185,32.456846,-86.431380,Planters Ridge Rd
305,32.501925,-86.501789,Conestoga Wagon Trl
160,32.671326,-86.670914,Autauga County 34/Autauga County 24
445,32.605063,-86.478690,I- 65
276,32.474613,-86.427988,High Pointe Ridge/Jasmine Trl
185,32.470602,-86.455353,Magnolia Ct
160,32.423918,-86.436574,Autauga County 4
305,32.462745,-86.434047,Scott Ln
472,32.474210,-86.446548,Edgewood Ave/Fairview Ave
445,32.463529,-86.469476,Wetumpka St/N Washington St
160,32.591361,-86.437387,Autauga County 40
216,32.447150,-86.418096,S McQueen Smith Rd
305,32.612516,-86.481118,I- 65/Autauga County 61
185,32.498090,-86.479151,Crenshaw Ct
185,32.547598,-86.429458,Ole Country Rd
160,32.496142,-86.476695,Prairie View Dr/Parkview Dr
185,32.674922,-86.451105,Autauga County 68/State Rte 143
216,32.485072,-86.418071,Old Ridge Rd N
160,32.573092,-86.681838,Autauga County 19
160,32.570169,-86.490732,Davies Dr
160,32.540101,-86.627855,Autauga County 69
276,32.469747,-86.436266,Poplar St/Shady Oak Ln
185,32.505175,-86.416172,Laurel Pl
160,32.478336,-86.497532,Eds Dr
216,32.447038,-86.481523,Andiron Ct
216,32.451074,-86.412505,Barn Cut/Saddle Rdg
246,32.428316,-86.460458,Langford Dr
2247,32.460768,-86.418092,/S McQueen Smith Rd
216,32.451588,-86.447652,Strength St/Leigh Dr
276,32.474044,-86.473972,White Oak Dr/N Court St
305,32.454665,-86.429209,Silver Hills Ct/Silver Hills Dr
334,32.459814,-86.459167,E Main St
160,32.428963,-86.649507,S Pickett St
160,32.540416,-86.443621,Autauga County 39/Alt Rte Route Cord 39
160,32.440106,-86.484499,Marshall Dr
216,32.450826,-86.412451,Saddle Rdg
334,32.506520,-86.418929,Rushton Ct
276,32.655484,-86.500987,Sabrina Ln/Alt Rte Route County Road 59
305,32.464588,-86.455409,N Wildwood Dr/Wetumpka St/Wildwood Dr
160,32.590089,-86.613628,Autauga County 43
334,32.431109,-86.467991,/Hazel St
160,32.454867,-86.500090,Muirfield Dr
216,32.436207,-86.478177,Selma Hwy
216,32.452852,-86.412260,Heather Dr
160,32.453071,-86.497636,Northington Rd/Wedgewood Ct
160,32.475904,-86.473599,Live Oak/Carver St/N Court St/Live Oak Dr
362,32.477983,-86.481262,Kingston Pl/Upper Kingston Rd
246,32.477227,-86.428606,Jasmine Trl/Breckinridge Ln
160,32.435617,-86.488451,Larry St/Larry Ln/Florida St
305,32.464613,-86.477673,W 5th St
216,32.583985,-86.454688,Co Rd 109/Co Rd 102/Autauga County 102
216,32.437606,-86.438109,Doster Industrial Pkwy/Hwy 82 Byp E
160,32.659836,-86.717367,Norrell St
246,32.459125,-86.507974,Indian Hills Rd
390,32.471044,-86.447844,Fairview Ave
445,32.458754,-86.468714,College St
526,32.455638,-86.415783,Doss Ct
246,32.475535,-86.428333,Windermere Ave/Jasmine Trl
216,32.455565,-86.454123,Cardinal Ln
246,32.491740,-86.411981,I- 65
305,32.471699,-86.456522,Magnolia Dr/Woodvale Rd
276,32.453617,-86.415120,Tara Dr/Dee Dr
160,32.422049,-86.472423,/Jensen Rd
185,32.440278,-86.440105,Doster Industrial Pkwy
276,32.455863,-86.461717,New Moon Dr/Hallmark Dr
276,32.474404,-86.477458,Dunvegan Dr
246,32.464438,-86.457446,Wetumpka St/Pinecrest Rd
185,32.474032,-86.456331,Boxwood Rd/Camellia Dr
305,32.474176,-86.414617,Chancellor Ridge Rd
246,32.649140,-86.496544,I- 65
1278,32.459798,-86.411675,E Main St
185,32.449903,-86.447948,Sunset Dr
362,32.469617,-86.471716,Newby St/Martin Luther King Dr
160,32.677411,-86.433855,Autauga County 68/Autauga County 131
305,32.462381,-86.475396,S Court St/Hunts Aly
631,32.498798,-86.476725,Parkview Dr
160,32.537218,-86.470715,Autauga County 85
160,32.454937,-86.484465,Doe Rd
185,32.454219,-86.450495,Honeysuckle Dr
216,32.482583,-86.487418,Durden Ct
362,32.471100,-86.469358,Cosby Ct
246,32.624245,-86.488809,I- 65
552,32.460776,-86.475545,S Court St/Tichnor Ave
276,32.458212,-86.472747,S Chestnut St/First St
160,32.475852,-86.485478,/Durden Rd
246,32.454016,-86.429628,Tara Dr/Silver Hills Dr
526,32.504131,-86.419555,I- 65
305,32.682076,-86.512471,I- 65
185,32.509127,-86.420141,Paradise Rose Ct/Vonica Rose St
276,32.477745,-86.438190,/Diane Dr/Old Fairview Ave
390,32.451600,-86.434525,Silver Creek Ct
305,32.461835,-86.422984,Pebble Creek Dr
185,32.473622,-86.455366,Woodvale Rd/Camellia Dr
246,32.431150,-86.490037,Selma Hwy
185,32.452714,-86.448791,Danya Dr
305,32.431325,-86.489314,Autauga County 4/Selma Hwy
185,32.583939,-86.464289,Autauga County 92/Pinelevel Ridge/US Hwy 31
334,32.468353,-86.412883,Regent Rd
185,32.437565,-86.643905,Cyrus Dr/Blossom Rd
160,32.501334,-86.437584,Valridge W
305,32.461261,-86.472595,W 3rd St/S Chestnut St/E 3rd St
276,32.453325,-86.484698,Cook Rd/Doe Rd
216,32.428094,-86.459028,Langford Ct
246,32.464675,-86.448177,Spencer St/Gipson St
390,32.473058,-86.476350,Spanish Oak Dr
305,32.621142,-86.484646,US Hwy 31
185,32.447625,-86.457075,Summer Hill Rd
185,32.452419,-86.459180,Patrick St
160,32.537456,-86.455737,Ingram Ln/Snowdrift Rd
246,32.490068,-86.474519,Kingston Garden Rd
276,32.475169,-86.428302,Jasmine Trl
185,32.597397,-86.496441,Autauga County 66/Autauga County 59
246,32.475107,-86.436714,Rosewood Dr
160,32.466963,-86.458331,Booth St
276,32.503200,-86.420157,Old Ridge Rd N/Old Ridge Rd
1798,32.462412,-86.450912,S Memorial Dr/Newton St
216,32.676881,-86.509960,I- 65
305,32.541747,-86.450110,I- 65
246,32.572167,-86.477978,Autauga County 40
276,32.456487,-86.415119,Dee Dr
362,32.462961,-86.473906,W 4th St
658,32.459880,-86.475247,S Court St/Bridge St/W Main St
390,32.579281,-86.469872,I- 65/Autauga County 40
160,32.489203,-86.467310,Gardner Rd/N Chestnut St/Martin Luther King Dr
472,32.466343,-86.418071,Regent Rd
160,32.473548,-86.427386,Jasmine Trl
305,32.481651,-86.447588,Holly Ct
185,32.573977,-86.551864,Autauga County 57/Autauga County 40
684,32.438647,-86.473145,Selma Hwy
246,32.457171,-86.446819,Peachtree St/Wingard St
160,32.466380,-86.436897,Bryan St/Scott Ln
185,32.536824,-86.456074,Autauga County 85/US Hwy 31
185,32.459428,-86.447426,Spencer St
160,32.434272,-86.487612,Alabama St/Larry St
216,32.457276,-86.462902,New Moon Ct
276,32.476497,-86.452044,N Memorial Dr/Green Springs Dr
246,32.478471,-86.455510,Boxwood Rd/Cherry Dr
160,32.478834,-86.486121,Marlyn Dr/Mockingbird Ct
362,32.469684,-86.442281,Richmond Way/E Poplar St
334,32.449857,-86.452995,Louise Ct
418,32.446499,-86.422115,Jenny Dr
160,32.423862,-86.447670,Autauga County 4
246,32.470739,-86.424976,Meadowbrook Dr
160,32.455481,-86.477372,Quail Run/Thomas Ln
445,32.471491,-86.469183,Cosby Ct/Cottonwood Ct
160,32.494487,-86.417104,Calumet Pkwy
390,32.452188,-86.452070,Danya Ct
499,32.462753,-86.455330,Gillespie St/Wildwood Dr
216,32.435482,-86.425161,Brandy Ln
334,32.459569,-86.460264,E Main St
160,32.436174,-86.655112,N Pickett St/Dutch Bend St
216,32.448593,-86.521992,Red Eagle Rd
216,32.492517,-86.418013,Old Ridge Rd N/Bluegrass Dr
185,32.480931,-86.462017,Mimosa Rd/Lilac Dr
362,32.490209,-86.416010,Keenlaw Cmn
160,32.468483,-86.457436,E 6th St/Woodvale Rd
160,32.539510,-86.451372,White Cloud Dr/Lake Wood Dr
334,32.467368,-86.445789,Tew St/Buckner St
216,32.541553,-86.478793,Pink Lilly Rd/Autauga County 82
160,32.492657,-86.575062,/US Hwy 82 W
246,32.455457,-86.470357,Maple St/Selma Hwy
552,32.484530,-86.413608,Fairview Ave
246,32.470287,-86.510709,Abilene Dr
160,32.503152,-86.573371,Autauga County 10/Autauga County 81
305,32.456764,-86.446411,Peachtree St/Oates Rd
246,32.616267,-86.481530,Hummingbird Dr/US Hwy 31
362,32.475597,-86.430713,Windermere Ave
390,32.436149,-86.422737,/S Memorial Dr
160,32.465905,-86.499237,Hwy 82 Byp W
160,32.440078,-86.485541,Marshall Dr
185,32.452311,-86.462538,Mobile Dr/Hallmark Dr
216,32.481417,-86.411873,Old Farm Ln
160,32.451355,-86.453017,George Dr/Lawrence St
216,32.465594,-86.485822,/Allenville Rd
246,32.574925,-86.464280,US Hwy 31
216,32.442638,-86.418043,Rufus Rd/S McQueen Smith Rd
