Estimated daily crossings,Latitude,Longitude,Name
160,33.356845,-85.490558,US Hwy 431/Bluff Cir
418,33.341003,-85.538971,Hanson Rd
160,33.278651,-85.494281,Co Rd 15
246,33.290335,-85.475048,Hub Rd/S Main St/Co Rd 333
160,33.118135,-85.560600,Lee St
334,33.145848,-85.356235,US Hwy 431/Cook Rd/Bell Rd
185,33.151849,-85.348866,Rock Mills Rd/Cauthen Cir
160,33.342534,-85.476521,Co Rd 56
160,33.122099,-85.400601,Estella Dr/Country Club Rd
362,33.372228,-85.504903,US Hwy 431
160,33.385876,-85.436561,Co Rd 97
160,33.489361,-85.385653,Co Rd 420/Co Rd 526
160,33.139505,-85.365941,Guano Rd/Auburn Ave/Guano St
160,33.109912,-85.355788,US Hwy 431
160,33.131718,-85.495630,Co Rd 846/State Rte 22
185,33.139859,-85.365720,/Guano Rd/Guano St
246,33.374389,-85.399147,Woodland Dr
160,33.157086,-85.364995,Commerce St/East Ave
185,33.462671,-85.561768,Co Rd 206
216,33.112899,-85.357901,US Hwy 431
160,33.313141,-85.439981,State Rte 48
305,33.309317,-85.486932,2nd St W/W Broad St
185,33.233161,-85.400407,Co Rd 691/Co Rd 65/Rockstand Rd
160,33.405273,-85.600574,Bobcat Ln
216,33.420403,-85.560639,Co Rd 82
160,33.306129,-85.511129,State Rte 48
160,33.128160,-85.482746,/State Rte 22
216,33.301988,-85.310011,Co Rd 87/Co Rd 518
305,33.373962,-85.394325,/Main St
216,33.422539,-85.554731,Co Rd 23/Co Rd 329/Co Rd 82
160,33.381935,-85.508368,/Co Rd 4
216,33.156303,-85.376354,Striplin St
160,33.323946,-85.558690,Co Rd 235/Exa Dr
305,33.167733,-85.371900,/Co Rd 79
160,33.358416,-85.492239,Cobblestone Dr/Laurel Dr
160,33.116089,-85.333992,Bud Cummings Rd
185,33.330880,-85.489612,US Hwy 431/Co Rd 241
185,33.274537,-85.590295,Arrowhead Dr
631,33.311031,-85.477782,1st Ave SE/Woodland Ave NE
185,33.415943,-85.547861,US Hwy 431
185,33.126258,-85.570059,Roberts St
185,33.161489,-85.403115,State Rte 22/Shady Creek Church Rd
160,33.291364,-85.486284,Co Rd 15/Co Rd 808
185,33.116089,-85.333936,Bud Cummings Rd
185,33.122698,-85.566342,Highland Cir/Highland Ave
160,33.199075,-85.381484,Co Rd 59/Co Rd 83
185,33.370152,-85.501265,US Hwy 431
276,33.162895,-85.366219,/US Hwy 431
160,33.300188,-85.374737,/Co Rd 63
362,33.293438,-85.477465,Co Rd 15/S Main St
246,33.319687,-85.484951,US Hwy 431/Old Hwy 431
185,33.157379,-85.299074,/Rock Mills Rd
160,33.348287,-85.488042,US Hwy 431/Co Rd 140
246,33.157621,-85.368771,Randolph St
246,33.126139,-85.567433,Cooledge St
160,33.328001,-85.485303,/Co Rd 4311
160,33.299217,-85.482058,S Main St
160,33.385617,-85.403238,/Co Rd 51
185,33.112198,-85.357021,US Hwy 431
246,33.152735,-85.352500,Parris Cir
160,33.404131,-85.375322,State Rte 48/Co Rd 4081
160,33.341620,-85.528676,/Sunset Dr
160,33.148496,-85.379448,Gulf St/Gulf Cir
160,33.423602,-85.500599,Co Rd 250/Pine Hollow Dr
334,33.157565,-85.370568,Randolph St/Stone Ave
334,33.119171,-85.569771,Welch St
305,33.116829,-85.361774,US Hwy 431/Lane Chapel Rd
160,33.174132,-85.384234,US Hwy 431
216,33.367364,-85.490605,Dagwood Dr/Muffit Dr
305,33.154541,-85.373759,Mathis St/Handley Ave
160,33.117908,-85.560040,Lee St
246,33.306778,-85.484969,3rd Ave SW/S Main St
160,33.335071,-85.484790,Co Rd 241/Co Rd 239
160,33.374252,-85.358891,Lancaster Ln/Co Rd 460
185,33.159457,-85.366118,Smith Dr/Central Ave
418,33.147775,-85.364189,Cannon St/Ave A
160,33.360978,-85.398190,Co Rd 59
160,33.154121,-85.374710,Striplin St/Handley Ave
160,33.142184,-85.364053,Cotney Cir/Gaston St
160,33.167416,-85.296585,/Co Rd 91
160,33.374107,-85.481130,/Old Hwy 431
185,33.286496,-85.466323,Co Rd 603
216,33.143827,-85.358188,Dallas Cir/Longshore St
185,33.159024,-85.367213,Mulberry St/Central Ave
246,33.144272,-85.353749,Cook Rd/Rebecca Ln
362,33.153821,-85.371802,Peachtree St/Trammell St
160,33.159875,-85.399067,State Rte 22
160,33.305483,-85.483724,Hillcrest Ave
160,33.310212,-85.595276,Co Rd 4806
246,33.357266,-85.471782,Old Hwy 431
185,33.380249,-85.515078,US Hwy 431
276,33.142406,-85.361659,Lafayette Hwy/South St
160,33.434990,-85.514072,Old Hwy 431
160,33.230019,-85.428489,/Co Rd 61
160,33.316460,-85.593198,Commander Cove
160,33.208216,-85.423175,Co Rd 815/Co Rd 65
185,33.477482,-85.585184,Old Hwy 431
185,33.123072,-85.571968,Hwy 77
185,33.128439,-85.486842,/State Rte 22
160,33.147424,-85.360494,Bell Rd/Border St
160,33.210130,-85.252665,/State Rte 22
216,33.373711,-85.499758,Co Rd 244/Ralph Boyd Dr
160,33.347575,-85.529848,Int Harvester Rd/Mt Pleasant Rd
185,33.342309,-85.536459,Hanson Rd
185,33.312806,-85.485455,/Main St N
276,33.150965,-85.370464,Vine St/Main St
185,33.135408,-85.356852,/Field St
185,33.308859,-85.627721,Fernwood Pt
185,33.210299,-85.417434,/US Hwy 431
334,33.119244,-85.569624,Roberts St/Welch St
160,33.406413,-85.471115,Co Rd 134
276,33.352085,-85.472156,/Old Hwy 431
160,33.157684,-85.365881,Holder St/E Piedmont St
185,33.232458,-85.434868,Co Rd 61
185,33.131469,-85.571134,Co Rd 868
160,33.178094,-85.366237,Co Rd 79
160,33.152580,-85.351764,/Omaha Rd
160,33.354456,-85.430425,/State Rte 48
160,33.411120,-85.431199,Co Rd 59
305,33.374132,-85.399115,State Rte 48
185,33.144435,-85.362468,Riley St/Longshore St
185,33.116689,-85.542813,Co Rd 828/State Rte 77/State Rte 22
160,33.118893,-85.562491,/Hutton Creek/Lee St
390,33.309433,-85.483812,E Broad St NE/1st St E
276,33.135354,-85.355828,US Hwy 431/Jackson Ave
160,33.417883,-85.567961,Co Rd 82
246,33.311020,-85.482197,/Woodland Ln/Woodland Ave NE
185,33.143763,-85.346267,Pinevalley Dr/Pine Valley Rd
185,33.342668,-85.536528,/Co Rd 129
185,33.368377,-85.503769,Carron St/Pineywoods Dr
160,33.464713,-85.476776,Co Rd 92
160,33.149960,-85.336060,Gladney Mill Rd/Rock Mills Rd
445,33.156926,-85.362668,US Hwy 431/Talley St
185,33.174732,-85.387001,/Main St
185,33.159371,-85.369276,North Ave/E Piedmont St/W Piedmont St
276,33.155527,-85.372533,Gordon St
160,33.210946,-85.252098,State Rte 22
499,33.313440,-85.484763,US Hwy 431/
216,33.310226,-85.485970,1st St W/1st Ave NW
216,33.146540,-85.377169,Chestnut St
185,33.358063,-85.492074,Cobblestone Dr/Laurel Dr
185,33.310249,-85.487907,3rd St W/1st Ave NW
276,33.131338,-85.367848,/Candlewick Dr
216,33.363846,-85.493224,US Hwy 431/Warren Dr/Pleasure Pt
246,33.412674,-85.320796,Co Rd 87
185,33.373005,-85.404244,/State Rte 48
160,33.128245,-85.318270,/Gladney Mill Rd
160,33.231448,-85.356938,Co Rd 59
160,33.304598,-85.566102,State Rte 48
160,33.300618,-85.479904,Dogwood St/Hillcrest Ave
160,33.126260,-85.519825,/State Rte 22
334,33.119906,-85.569623,Roberts St/Lee St
185,33.324196,-85.486736,US Hwy 431
160,33.146008,-85.385027,Seymour Dr/Berry St
160,33.125449,-85.566372,Cooledge Cir/Cooledge Dr
185,33.150591,-85.365187,Jackson St/Main St
185,33.150546,-85.380543,Pate St/Gulf St
246,33.372583,-85.505802,Pam St
160,33.319243,-85.546322,Co Rd 243
185,33.142671,-85.366589,W Point St
160,33.338931,-85.449193,Co Rd 56/Co Rd 498
216,33.345371,-85.328191,Co Rd 479/Co Rd 71
160,33.147539,-85.361242,Bell St/Bell Rd/Lafayette Hwy
185,33.154159,-85.351510,Lane Ave/Omaha Rd
160,33.144364,-85.378558,/Christie Ln
160,33.309975,-85.494192,W Broad St
216,33.256717,-85.454115,Co Rd 42/US Hwy 431/Co Rd 814
160,33.418630,-85.565953,Co Rd 82
160,33.172043,-85.380028,US Hwy 431
216,33.347720,-85.317019,Co Rd 64
160,33.348990,-85.458333,Co Rd 419/Co Rd 498
160,33.365524,-85.487116,Wright Way Dr/Inez Dr
390,33.153791,-85.372528,Knight Ave/Peachtree St
160,33.111493,-85.540224,/State Rte 77
362,33.308407,-85.486019,1st St W/1st Ave SW
160,33.358080,-85.488728,Robert's Cir
246,33.149431,-85.361365,/College St
276,33.166085,-85.369801,US Hwy 431/
216,33.112823,-85.357796,US Hwy 431
185,33.142867,-85.366699,W Point St/South St
185,33.179357,-85.273344,Rock Mills Rd
160,33.145249,-85.375182,Government St/Guy St
160,33.360646,-85.453890,Co Rd 497
276,33.148947,-85.377224,Antigo Pl/Chestnut St
216,33.321098,-85.484757,/Old Hwy 431
185,33.221290,-85.421656,Creek Side Cir
185,33.175015,-85.386851,US Hwy 431
160,33.140709,-85.365201,W Point St/Guano Rd
160,33.154873,-85.375498,Striplin St/Mathis St
185,33.159342,-85.369379,W Piedmont St
160,33.178894,-85.409550,Lakeside Dr
160,33.152033,-85.356030,Rock Mills Rd/McArthur Dr
185,33.358504,-85.456565,Co Rd 497/Co Rd 498
160,33.141886,-85.308180,/Co Rd 16
216,33.326869,-85.423738,Co Rd 56
499,33.136705,-85.362799,Lafayette Hwy/Field St
185,33.288307,-85.471864,/Co Rd 333
185,33.300922,-85.489522,Bailey Ave/4th St NW
684,33.312710,-85.484940,/US Hwy 431/Main St N
160,33.154427,-85.369621,Martha St/Brown Ave
185,33.139637,-85.416845,/Louina Rd
246,33.271037,-85.360214,Co Rd 65
160,33.172599,-85.256185,Co Rd 660/Co Rd 658
185,33.172098,-85.380123,US Hwy 431
160,33.404090,-85.415328,Co Rd 120
305,33.151899,-85.372202,White St/Trammell St
160,33.175438,-85.411340,Northlake Dr
185,33.307476,-85.481904,3rd St E/Cherry St
160,33.358283,-85.480102,Ridgeview Ct/Hillcrest Ct/Hick's Bend
160,33.146939,-85.385143,/Luckie St
334,33.136695,-85.376186,Crestwood Cir
160,33.141907,-85.347511,/Gilham Rd
246,33.144458,-85.361405,/Longshore St
216,33.341005,-85.471568,/Co Rd 56
160,33.173206,-85.385918,/Main St
160,33.348087,-85.488042,/US Hwy 431
631,33.150847,-85.363596,Railroad St/Main St
216,33.112803,-85.357768,US Hwy 431/
216,33.129593,-85.356938,US Hwy 431/Steel View Dr
160,33.328586,-85.502256,Paynes Way
579,33.170183,-85.372265,Co Rd 79
160,33.286347,-85.488478,/Co Rd 15
216,33.144500,-85.347271,Pinevalley Dr
185,33.490251,-85.596906,US Hwy 431/Co Rd 207
185,33.378042,-85.512784,US Hwy 431/Co Rd 4
445,33.311023,-85.484781,US Hwy 431/Woodland Ave NE/N Main St
160,33.145030,-85.359599,/Border St
160,33.140938,-85.363746,/Cotney Cir
216,33.139162,-85.386151,Stanley Ave
216,33.143276,-85.366904,W Point St/Schuessler St
334,33.157257,-85.373308,Mitchell St/S Handley Ave/N Handley Ave
160,33.145144,-85.384634,Seymour Dr/Smith St
526,33.153933,-85.363246,Harris Ave/Peachtree St
185,33.342070,-85.535447,Edgewood Cove Rd/Co Rd 129
334,33.118985,-85.569614,Roberts St/State Rte 22
160,33.366756,-85.490128,Muffit Dr
160,33.151980,-85.354948,Lakeview Dr/Rock Mills Rd
185,33.134240,-85.347547,/Johnson Cir
246,33.340466,-85.537461,Longshore Dr/Turtle Cv
276,33.157629,-85.368526,Park Ave/Randolph St
185,33.346805,-85.462933,Co Rd 419
246,33.340439,-85.537547,Longshore Dr
160,33.301873,-85.302837,/Co Rd 518
305,33.154317,-85.361140,US Hwy 431/Stewart Dr/Peachtree St
160,33.323985,-85.358880,Co Rd 619/Co Rd 56/Co Rd 487
185,33.169652,-85.371033,/Co Rd 79
160,33.376721,-85.400470,/Co Rd 51
390,33.145581,-85.356083,US Hwy 431/Cook Rd
185,33.370261,-85.503908,Pineywoods Dr
216,33.155318,-85.371963,Knight Ave/Gordon St
334,33.314088,-85.484764,US Hwy 431/
160,33.160597,-85.290163,Co Rd 2204
160,33.216661,-85.274478,Dirt Dr
185,33.143847,-85.358640,Nook St/Longshore St
185,33.475555,-85.583561,US Hwy 431/Concrete Dr
160,33.262186,-85.469842,Co Rd 811
246,33.316480,-85.484723,US Hwy 431
160,33.471074,-85.579369,Old Hwy 431/Co Rd 204/Co Rd 233
160,33.297004,-85.399045,Co Rd 59/Co Rd 618
160,33.163947,-85.408726,Co Rd 73/State Rte 22
160,33.276530,-85.465278,/Co Rd 333
160,33.117510,-85.350327,/Bud Cummings Rd
160,33.108555,-85.538881,/State Rte 77
216,33.144987,-85.345027,Pine Valley Dr
185,33.141495,-85.383468,Seymour Dr/Recreation Dr
160,33.398569,-85.396072,Co Rd 522/Co Rd 462
160,33.153540,-85.369650,Lebanon St
276,33.178468,-85.395771,US Hwy 431
216,33.287740,-85.473171,US Hwy 431
418,33.314723,-85.484752,/US Hwy 431
216,33.363169,-85.481779,Hicks Bend Ct/Hick's Bend
185,33.125512,-85.421273,Co Rd 871
362,33.136820,-85.363066,Millwork Ind/Field St
160,33.376268,-85.482867,/Old Hwy 431
160,33.481223,-85.328233,Co Rd 430/Co Rd 87
160,33.307389,-85.518849,State Rte 48/Co Rd 129
526,33.153236,-85.376470,Short St/Main St
160,33.147903,-85.385923,Seymour Dr/Louina Rd
160,33.432761,-85.506027,Co Rd 19/Co Rd 253
160,33.330007,-85.516448,Taylor Way/Mt Pleasant Rd
216,33.347763,-85.315855,Co Rd 64/Co Rd 87
276,33.149330,-85.360664,/College St
185,33.378785,-85.390806,/State Rte 48/Main St
185,33.145511,-85.377167,Government St/Chestnut St
160,33.129804,-85.489113,/State Rte 22
160,33.129799,-85.566172,Cooledge St
160,33.383411,-85.522481,Pine Ridge Rd/Co Rd 121
160,33.134988,-85.374992,Industrial Blvd
160,33.181023,-85.421446,Co Rd 26
185,33.412712,-85.377198,State Rte 48/Co Rd 457
160,33.309371,-85.488881,4th St NW/W Broad St
160,33.137951,-85.374423,Oakcrest Dr/Creek Cir
160,33.243645,-85.461732,Co Rd 333
185,33.319161,-85.494268,King David Turner Rd
658,33.313043,-85.484770,US Hwy 431
216,33.156514,-85.368591,Commerce St/Park Ave/Padgette St
160,33.353642,-85.505959,Co Rd 256
160,33.438575,-85.561307,US Hwy 431/Big Buck Rd
185,33.306621,-85.484810,S Main St
276,33.157632,-85.377670,Franklin Rd/Striplin St
160,33.130688,-85.364365,Lafayette Hwy
216,33.145294,-85.376337,Government St
216,33.159854,-85.371334,Franklin St/Knight Ave
160,33.415188,-85.377432,State Rte 48/Co Rd 456
246,33.152067,-85.375209,W Point St//Chestnut St
185,33.160471,-85.367207,North Ave/Central Ave
185,33.381124,-85.389437,State Rte 48
160,33.150514,-85.327133,Rock Mills Rd
160,33.143994,-85.364815,Chemical St/Ave A
160,33.320728,-85.522638,Co Rd 240/Co Rd 129
160,33.231901,-85.356948,Co Rd 59/Co Rd 310
418,33.311693,-85.478861,Circle Dr
160,33.340291,-85.610549,Wildlife Blvd
160,33.153908,-85.383153,Lincoln St/Pool St
185,33.183553,-85.400610,US Hwy 431/Co Rd 61
185,33.373137,-85.499115,Austin Dr
526,33.153830,-85.363246,Harris Ave/Peachtree St
160,33.376587,-85.391161,McCarley Dr/Main St
160,33.124789,-85.574668,Highland Ave/Ashland Ave
185,33.145847,-85.368854,W Point St/Government St
362,33.293507,-85.477369,Co Rd 15/S Main St
160,33.314009,-85.476157,Circle Dr/Dobson Mill Rd
160,33.348180,-85.635595,Co Rd 113/
305,33.150875,-85.369739,Lebanon St/Main St
160,33.388785,-85.624105,Co Rd 221/Co Rd 82
160,33.205916,-85.320269,Co Rd 79/Co Rd 87
160,33.366625,-85.481182,Cedar Cove Dr
160,33.190039,-85.350394,Co Rd 79/Co Rd 667
216,33.368947,-85.622245,Co Rd 226/Co Rd 281
185,33.290582,-85.474450,Hub Rd
160,33.372784,-85.491199,Wright Way Dr/Misty Ln
160,33.361126,-85.477938,Hick's Bend/Peninsula Dr
185,33.142615,-85.363482,South St
216,33.210917,-85.417641,US Hwy 431/Co Rd 65
160,33.389933,-85.594493,/Co Rd 222
445,33.136775,-85.375039,Oakcrest Dr/Crestwood Dr
216,33.380941,-85.510522,/Co Rd 4
160,33.164060,-85.284798,Rock Mills Rd
160,33.412788,-85.595788,Rosie Hill Ln
1381,33.151821,-85.359666,US Hwy 431/Rock Mills Rd/Main St
160,33.421739,-85.556643,Co Rd 82
160,33.145004,-85.368175,W Point St/Mickle Dr
160,33.121792,-85.363849,Melody Ln
160,33.394333,-85.375966,State Rte 48
305,33.143044,-85.353311,Rebecca Ln
160,33.159475,-85.384059,Price St/State Rte 22/Waller Mill Rd
160,33.161074,-85.403612,Shady Creek Church Rd
160,33.320500,-85.522433,/Co Rd 129
246,33.158914,-85.387354,/State Rte 22
246,33.151026,-85.323059,Rock Mills Rd
160,33.147011,-85.384676,Luckie St/Berry St
185,33.154431,-85.377801,Stewart St/Main St
390,33.307586,-85.485017,S Main St/2nd Ave SW
160,33.123078,-85.466272,Co Rd 856
160,33.149940,-85.337397,/Rock Mills Rd
160,33.111103,-85.416147,Country Club Rd/Co Rd 871
216,33.299947,-85.482576,S Main St
185,33.135647,-85.358112,Wes St/Field St
216,33.146504,-85.380327,Satterwhite St/Gulf Cir
185,33.152413,-85.376608,Short St/Louina Rd
276,33.127513,-85.357320,US Hwy 431/Airport Rd
246,33.160877,-85.367161,Central Ave
246,33.152107,-85.374782,Knight Ave/Main St
362,33.309101,-85.483844,E Broad St SE/1st St E
160,33.386536,-85.403452,Co Rd 51
185,33.378138,-85.512897,US Hwy 431/Lakewood Dr
160,33.140177,-85.381081,Reed Cir
216,33.122750,-85.569729,Roberts St/Hwy 77/Highland Ave
160,33.306706,-85.483921,3rd Ave SE
216,33.150717,-85.367517,/Main St
160,33.134357,-85.499909,/State Rte 22
160,33.320952,-85.619499,/Co Rd 57
160,33.339380,-85.450671,Co Rd 213/Co Rd 56/Co Rd 498
185,33.297372,-85.480614,Stewart Dr/S Main St
246,33.319437,-85.484921,US Hwy 431/N Main St
246,33.426651,-85.446352,Co Rd 59/Co Rd 82
160,33.153731,-85.367439,/Peachtree St
185,33.342273,-85.535806,Hanson Rd/Co Rd 129
390,33.372177,-85.506177,Pam St
185,33.436175,-85.317090,Co Rd 436
418,33.121488,-85.388398,Oakview Way
305,33.371454,-85.503567,US Hwy 431/Pineywoods Dr
160,33.273927,-85.592749,Primrose Ln/Co Rd 897
276,33.152301,-85.375447,Louina Rd
185,33.274901,-85.497476,Co Rd 15
160,33.169705,-85.558566,Co Rd 883/Co Rd 43
160,33.128594,-85.363778,Lafayette Hwy/Industrial Blvd
160,33.220529,-85.411399,Co Rd 690/Co Rd 61
216,33.310222,-85.486965,2nd St W/1st Ave NW
185,33.144123,-85.367461,W Point St/Heflin Ave
185,33.265130,-85.634900,R L Harris Dam Rd
216,33.308362,-85.483834,1st Ave SE/1st St E
160,33.159602,-85.381778,/Main St
185,33.149447,-85.362746,Wilkie Clark Dr/College St
216,33.142035,-85.385876,Recreation Dr
160,33.296404,-85.504817,Co Rd 807/Co Rd 806
185,33.128757,-85.378103,Shady Branch Dr
246,33.425300,-85.509843,/Co Rd 253
216,33.151592,-85.379693,Maple Dr
813,33.309438,-85.484771,E Broad St NE/N Main St
160,33.142867,-85.448524,Co Rd 860/State Rte 22/Co Rd 859
160,33.369411,-85.406902,State Rte 48
160,33.338897,-85.532761,Pine Cir/Co Rd 129
216,33.175421,-85.406558,Twin Lakes Dr/Southlake Dr
185,33.164327,-85.382396,Brooks Edge Ln
160,33.337896,-85.326022,/Co Rd 480
276,33.362938,-85.300832,/Co Rd 87
160,33.262287,-85.373716,Co Rd 59/Co Rd 65
216,33.206482,-85.416410,US Hwy 431
160,33.312458,-85.494872,Weathers Heights Rd/Woodland Ave NW
631,33.149521,-85.371234,College St
185,33.152791,-85.353593,Parris Cir
185,33.150680,-85.367101,/Main St
160,33.305861,-85.484039,3rd Ave SE/Hillcrest Ave
216,33.340735,-85.536665,Longshore Dr/Long Shore Dr/Turtle Cove
160,33.137433,-85.365330,Millwork Ind
160,33.176391,-85.275470,/Rock Mills Rd
185,33.401757,-85.636789,/Co Rd 313
185,33.321472,-85.452646,/Circle Dr
160,33.124542,-85.572253,Ashland Ave
334,33.131811,-85.382557,Country Club Pkwy
160,33.389614,-85.404064,Co Rd 51
160,33.123710,-85.361939,Lafayette Hwy
160,33.389851,-85.614917,Co Rd 222/Co Rd 82
185,33.318331,-85.388644,Co Rd 616
334,33.313946,-85.484757,/US Hwy 431
160,33.469715,-85.578084,Old Hwy 431
160,33.378577,-85.513342,US Hwy 431/Co Rd 4
160,33.306019,-85.479429,Cherry St/Short Cir
839,33.309438,-85.485038,E Broad St NE/N Main St
276,33.303488,-85.477394,Mill St/Short Cir
658,33.308400,-85.485049,S Main St/1st Ave SW
185,33.149476,-85.369580,College St/Mickle St
216,33.159906,-85.373252,Franklin St/Handley Ave
362,33.151638,-85.373137,Church St/Main St
362,33.144000,-85.372173,Sports Dr/Bradley St/Heflin Ave
160,33.343286,-85.477938,Co Rd 56/Old Hwy 431
526,33.308394,-85.484792,1st Ave SE/S Main St/1st Ave SW
160,33.211066,-85.540649,Co Rd 884/Co Rd 26
185,33.308414,-85.487958,3rd St W/1st Ave SW
160,33.341240,-85.535225,Long Shore Dr
160,33.162202,-85.415580,/State Rte 22
160,33.216842,-85.419238,US Hwy 431/Co Rd 690
968,33.149552,-85.372662,W Point St/Vaughn St
216,33.157561,-85.371235,Brown Ave/Randolph St
160,33.254455,-85.315303,Slick Lawson Dr/Co Rd 634
160,33.156142,-85.384207,Hornsby St/McCarter Dr
276,33.142214,-85.352362,Rebecca Ln
160,33.381379,-85.509794,Co Rd 4
160,33.138427,-85.373945,Creek Cir
160,33.158859,-85.366621,Smith Dr/Mulberry St
160,33.368997,-85.480804,/Poplar Pl
216,33.147841,-85.375173,Kirk St/Guy St/Lamont St
160,33.151646,-85.318131,Rock Mills Rd
185,33.310270,-85.488903,4th St NW/1st Ave NW
216,33.160818,-85.371384,Knight Ave/Williams St
185,33.310178,-85.483555,1st Ave NE
185,33.132942,-85.356284,US Hwy 431
160,33.173392,-85.404306,Holly Hill Farm Cir/Co Rd 26
246,33.144388,-85.345225,/Pine Valley Dr
246,33.379469,-85.498109,Co Rd 244/Co Rd 4
160,33.338423,-85.532533,Whaley Cove/Co Rd 129
160,33.153824,-85.378421,Stewart St/Willow Ln
216,33.150657,-85.366854,Main St
216,33.156700,-85.371208,Brown Ave/Commerce St
160,33.463144,-85.311302,/State Rte 48
305,33.308407,-85.486958,2nd St W/1st Ave SW
160,33.355922,-85.395961,Co Rd 59
246,33.324911,-85.487046,/US Hwy 431
160,33.152439,-85.379605,Maple Dr/Stewart St/Louina Rd
160,33.151463,-85.319553,Rock Mills Rd
160,33.460904,-85.573713,US Hwy 431/Co Rd 88
160,33.308439,-85.488930,4th St NW/1st Ave SW
305,33.170339,-85.370914,Co Rd 79
160,33.131693,-85.360630,Industrial Ave
160,33.136802,-85.608444,/State Rte 77
185,33.375914,-85.488982,/Co Rd 4
813,33.309112,-85.484771,S Main St/E Broad St SE/N Main St
246,33.142770,-85.358286,Dallas Cir
185,33.162084,-85.416027,State Rte 22
813,33.309117,-85.485044,S Main St/E Broad St SE
160,33.159858,-85.398778,State Rte 22
246,33.332389,-85.489886,US Hwy 431
160,33.172796,-85.255937,Co Rd 660/Co Rd 658
160,33.229957,-85.426979,Co Rd 692
185,33.125402,-85.567434,Cooledge Cir/Cooledge St
160,33.276482,-85.465508,/US Hwy 431
160,33.210093,-85.252688,/State Rte 22
362,33.151901,-85.373965,/Main St
160,33.338383,-85.453650,Co Rd 213
160,33.321990,-85.292313,Co Rd 52/Co Rd 340
305,33.151266,-85.371791,Vaughn St/Main St
185,33.325608,-85.483224,Old Hwy 431
185,33.306770,-85.487043,2nd St W/3rd Ave SW
160,33.258747,-85.445987,Co Rd 42/
160,33.378737,-85.496693,Co Rd 4
276,33.141480,-85.375710,Strong St
276,33.320880,-85.485307,US Hwy 431/
160,33.317034,-85.433480,Co Rd 67/State Rte 48
160,33.330059,-85.516225,Taylor Way
276,33.246181,-85.520954,Co Rd 892/Co Rd 8921
185,33.151913,-85.352537,Rock Mills Rd/Parris Cir
160,33.217501,-85.274677,Dirt Dr
246,33.155577,-85.373356,Gordon St/N Handley Ave
276,33.312869,-85.495975,Middle School Rd/Woodland Ave NW
216,33.161230,-85.287677,Burks Rd
185,33.173695,-85.332894,Omaha Rd
160,33.309869,-85.496486,Middle School Rd/W Broad St
185,33.173098,-85.405715,Concrete Dr
216,33.145983,-85.371945,Randle St/Government St
216,33.145992,-85.372125,Bradley St/Government St
160,33.374536,-85.360130,Lancaster Ln/Co Rd 460
185,33.143237,-85.346510,Pine Valley Rd
246,33.368782,-85.473445,Wood Haven Dr
160,33.128754,-85.380471,Shady Branch Dr/Doublehead Rd
276,33.143319,-85.367828,/Schuessler St
160,33.318738,-85.493390,Heard St
160,33.355359,-85.300630,/Co Rd 39
216,33.368966,-85.623315,Co Rd 113/Co Rd 281/Co Rd 224
246,33.175370,-85.388074,US Hwy 431/Main St
160,33.340134,-85.531561,Rabbit Run
216,33.319294,-85.485358,Main St N/N Main St
160,33.322952,-85.397025,Co Rd 59/Co Rd 56
160,33.327154,-85.430612,/Co Rd 56
160,33.332800,-85.556099,Crescent Crest Dr/Co Rd 240
160,33.417840,-85.568422,Co Rd 7/Co Rd 82
160,33.153837,-85.375367,White St/Handley Ave
160,33.155251,-85.381139,Price St/Lincoln St
160,33.155825,-85.381457,Price St/Radney St
160,33.199331,-85.381349,/Co Rd 59
216,33.316087,-85.518181,Co Rd 129
246,33.311038,-85.478992,Circle Dr/Woodland Ave NE
246,33.142707,-85.360593,Nook St/Border St
216,33.373772,-85.397020,Co Rd 64/Woodland Dr/Main St
185,33.139163,-85.385371,Stanley Ave
160,33.374820,-85.368972,Co Rd 467/Co Rd 460
305,33.143150,-85.353340,Cynthia Cir/Rebecca Ln
160,33.127091,-85.484797,/Co Rd 830
160,33.128951,-85.472544,/Co Rd 3
216,33.147869,-85.377195,/Kirk St/Chestnut St
160,33.405703,-85.532904,US Hwy 431/Co Rd 275
160,33.363650,-85.479694,Peninsula Ct
160,33.309857,-85.492103,/Holmes Ave/W Broad St
579,33.136262,-85.361750,Roanoke Arms/Field St
160,33.301836,-85.513933,Dam Rd/Co Rd 805
185,33.156677,-85.379335,Radney St/Main St
216,33.126436,-85.570354,Roberts St
216,33.122470,-85.358996,US Hwy 431/Ziglar Blvd
216,33.143734,-85.407949,/Louina Rd
160,33.372652,-85.428869,Wilson St/
160,33.304599,-85.538658,Co Rd 237/State Rte 48
160,33.467951,-85.577631,US Hwy 431
334,33.167416,-85.372101,US Hwy 431/Co Rd 79/Franklin Rd
276,33.142986,-85.353513,Rebecca Ln
276,33.321095,-85.376196,Co Rd 56
246,33.134875,-85.349698,Minnifield St
390,33.156674,-85.373332,Commerce St/N Handley Ave
160,33.156470,-85.307399,/Co Rd 2207
276,33.152296,-85.375355,Main St/Louina Rd
160,33.363706,-85.480616,Hicks Bend Ct/Peninsula Dr
160,33.129862,-85.566434,Cooledge St
160,33.275360,-85.405555,Co Rd 67/Mote Rd
185,33.306339,-85.484794,Hillcrest Ave/S Main St
579,33.150156,-85.363604,Railroad St/Sanders St
185,33.308009,-85.449552,Co Rd 46/State Rte 48
334,33.152465,-85.373705,/White St
160,33.228043,-85.432956,US Hwy 431
160,33.373323,-85.445787,/Co Rd 97
160,33.369832,-85.488524,Wright Way Dr/Muffit Dr
216,33.145772,-85.363946,Government St/Ave A
216,33.373841,-85.395312,/Main St
160,33.329573,-85.480022,Co Rd 4312/Old Hwy 431
160,33.331586,-85.426344,State Rte 48
160,33.310521,-85.387751,Co Rd 63
160,33.326068,-85.527617,/Co Rd 129
216,33.150778,-85.354953,Barkley Dr
246,33.158136,-85.367476,E Piedmont St/Central Ave
276,33.158718,-85.378430,Kiwanis Dr/Highland Ave
788,33.312720,-85.484759,US Hwy 431/
185,33.278913,-85.467153,US Hwy 431
185,33.308352,-85.482608,1st Ave SE
160,33.455734,-85.472759,Co Rd 473/Co Rd 25
160,33.389030,-85.489746,Old Hwy 431/Co Rd 289
160,33.332693,-85.374318,Co Rd 470
160,33.308632,-85.505301,W Broad St
160,33.140456,-85.453877,/Co Rd 65/State Rte 22
185,33.282690,-85.281813,Co Rd 628
160,33.337468,-85.532076,Rabbit Run/Co Rd 129
185,33.373506,-85.499071,Ralph Boyd Dr/Austin Dr
160,33.145093,-85.348229,/Pine Valley Dr
185,33.159342,-85.369251,Stone Ave/E Piedmont St
160,33.280428,-85.344390,Co Rd 65/Co Rd 626
160,33.135550,-85.363434,Lafayette Hwy
160,33.162826,-85.606215,Co Rd 15/Co Rd 845
160,33.354034,-85.506076,Co Rd 256
160,33.153791,-85.369662,Lebanon St/Peachtree St/Brown Ave
418,33.150354,-85.373444,W Point St/Lafayette St
160,33.369351,-85.494271,Misty Ln
185,33.141343,-85.385590,Recreation Dr
185,33.138782,-85.357348,/South St
216,33.147554,-85.362673,Bell St/Wilkie Clark Dr
334,33.314577,-85.484749,US Hwy 431
362,33.119994,-85.360341,US Hwy 431/Bud Cummings Rd
160,33.143715,-85.377558,Chestnut St
160,33.427712,-85.552903,US Hwy 431
160,33.344841,-85.397031,Co Rd 59/Co Rd 474
305,33.156219,-85.362264,US Hwy 431/Talley St
246,33.306783,-85.484819,3rd Ave SW/S Main St
276,33.311023,-85.483796,1st St E/Woodland Ave NE
160,33.160939,-85.286102,Rock Mills Rd/Burks Rd
185,33.161599,-85.403247,/State Rte 22
185,33.145560,-85.377164,Gulf St/Chestnut St
276,33.143098,-85.357451,Hill Cir
185,33.118070,-85.342846,Bud Cummings Rd
160,33.222012,-85.410119,Co Rd 692/Co Rd 65
390,33.158907,-85.363826,US Hwy 431/Pilgrim Dr/Smith Dr
160,33.394517,-85.489084,/Old Hwy 431
246,33.152796,-85.374378,Knight Ave/Peachtree St/White St
418,33.158088,-85.363336,US Hwy 431/Lamar St/East Ave
185,33.307613,-85.487995,3rd St W/2nd Ave SW
276,33.372611,-85.505573,US Hwy 431
390,33.318818,-85.610742,/Co Rd 38
185,33.397342,-85.527073,US Hwy 431/Co Rd 275
160,33.129196,-85.363995,Lafayette Hwy
160,33.134415,-85.439016,Co Rd 859
160,33.329093,-85.584886,Sweetwater Lndg/Co Rd 99
160,33.378825,-85.513064,Co Rd 4
216,33.143424,-85.383861,Seymour Dr
160,33.123359,-85.565416,N Berry St/Clay St
334,33.138146,-85.355299,US Hwy 431/Johnson St/South St
216,33.309365,-85.478895,1st Ave SE
160,33.117789,-85.559747,State Rte 22/Lee St
246,33.166289,-85.370146,US Hwy 431/
185,33.142334,-85.362638,Cotney Line Dr/South St
216,33.140037,-85.359096,/South St/Connector St
160,33.139325,-85.363693,W Point St/Cotney Cir
185,33.307601,-85.486975,2nd St W/2nd Ave SW
160,33.161203,-85.439858,Co Rd 31/Co Rd 35
552,33.150350,-85.362920,Lafayette Hwy/Sanders St
160,33.304471,-85.489077,4th St NW/5th Ave
160,33.337677,-85.536076,Walnut St
160,33.215649,-85.418930,US Hwy 431
276,33.142707,-85.361565,Nook St/Lafayette Hwy
216,33.356668,-85.491475,Bluff Cir/Bluffs Cir/Laurel Dr
160,33.125178,-85.522391,State Rte 22/Co Rd 885
185,33.223284,-85.425569,Creek Side Cir
160,33.393725,-85.489768,Old Hwy 431
160,33.347671,-85.432604,/State Rte 48
185,33.166126,-85.381781,Crooked Creek Dr
216,33.159681,-85.366366,/Smith Dr
160,33.320619,-85.380453,Co Rd 616/Co Rd 615
185,33.366407,-85.483819,Peninsula Dr
160,33.320709,-85.453501,/Circle Dr
160,33.159851,-85.398596,State Rte 22
160,33.373462,-85.496843,Ralph Boyd Dr/Chimney Rd
160,33.343400,-85.509052,Ridgeway
160,33.185176,-85.359659,Co Rd 79
160,33.127245,-85.438925,/Louina Rd
160,33.233092,-85.413505,Co Rd 692
185,33.266335,-85.586608,Sunset Ridge/Creek Trl
246,33.121381,-85.389766,Fairway Dr
246,33.362842,-85.482730,Hick's Bend
160,33.228870,-85.433785,US Hwy 431/Co Rd 674
276,33.117509,-85.361711,US Hwy 431/Lafayette Hwy
246,33.149510,-85.377134,Lane St/Chestnut St
160,33.374833,-85.368920,Co Rd 467/Co Rd 460
160,33.124302,-85.524471,State Rte 22
160,33.358333,-85.426980,Co Rd 508
246,33.149152,-85.360556,Border St
160,33.307260,-85.388178,Co Rd 705/Co Rd 63
160,33.145549,-85.363001,Ave C
185,33.345383,-85.516600,/Wedowee Creekview Dr
185,33.209173,-85.417134,US Hwy 431
160,33.160215,-85.538870,Co Rd 333
160,33.494743,-85.539922,Co Rd 19
185,33.359142,-85.471226,Co Rd 58
160,33.231474,-85.425949,Co Rd 692
418,33.151420,-85.372376,Main St/Trammell St
160,33.210467,-85.319551,Co Rd 87/Co Rd 310
216,33.434649,-85.368217,State Rte 48/Co Rd 82
334,33.147862,-85.374618,Guy St
216,33.290398,-85.474966,Hub Rd/S Main St
499,33.150624,-85.373686,W Point St/Church St
334,33.160275,-85.375670,Yancey St/Franklin Rd
160,33.159277,-85.381484,Main St
216,33.145169,-85.383114,Pine St/Smith St
160,33.325674,-85.360317,/Co Rd 487
185,33.150661,-85.354355,Douglas Dr
216,33.310006,-85.517050,Dry Rd/Co Rd 129
160,33.172599,-85.255937,Co Rd 658
216,33.363332,-85.482009,Hick's Bend
160,33.426092,-85.317065,Co Rd 87
160,33.131593,-85.584402,State Rte 77/Co Rd 837
185,33.450460,-85.571704,US Hwy 431
160,33.124575,-85.523816,State Rte 22
160,33.291595,-85.475993,S Main St/Bufford Adamson Rd
472,33.310204,-85.484781,1st Ave NE/N Main St
160,33.176871,-85.275166,/Rock Mills Rd
276,33.311023,-85.485964,1st St W/Woodland Ave NW
160,33.117438,-85.558879,State Rte 22/Co Rd 333
185,33.372691,-85.505714,US Hwy 431/Pam St/Co Rd 4315
160,33.121162,-85.566671,Highland Cir/Randolph Ave
160,33.424417,-85.509663,/Co Rd 82
185,33.369737,-85.500543,US Hwy 431
418,33.145110,-85.351005,Centerway Dr/Gilham Rd/Pine Valley Dr
185,33.149738,-85.355926,Burdette St/McArthur Dr
216,33.149416,-85.363629,Railroad St/College St
160,33.189061,-85.320593,/Co Rd 87
185,33.367171,-85.491428,Dagwood Dr
160,33.310040,-85.331463,Co Rd 56/Co Rd 515
216,33.246577,-85.521007,Co Rd 892
160,33.456798,-85.497894,Co Rd 408/Co Rd 47
216,33.135083,-85.379957,Mack St/Industrial Blvd/Chestnut St
185,33.302442,-85.309943,Co Rd 56/Co Rd 87
185,33.155057,-85.309407,Rock Mills Rd/Co Rd 2207
185,33.142279,-85.362444,Riley St/South St
185,33.329655,-85.489268,US Hwy 431/Co Rd 239
216,33.129933,-85.356870,US Hwy 431/
185,33.310100,-85.471236,State Rte 48/Woodland Ave NE
160,33.373348,-85.491359,Wright Way Dr/Ralph Boyd Dr
160,33.431871,-85.427226,Co Rd 82
185,33.166558,-85.372771,Franklin Rd
185,33.158603,-85.365735,Mulberry St/Central Ave
185,33.131182,-85.553584,Co Rd 333
160,33.146814,-85.385409,Luckie St/Seymour Dr
160,33.133482,-85.356182,US Hwy 431
276,33.152112,-85.357744,/Rock Mills Rd
160,33.123942,-85.565378,N Berry St/Ashland Ave
216,33.159245,-85.367830,Park Ave/Mulberry St
160,33.153045,-85.379203,Price St/Stewart St
160,33.141936,-85.364027,Cotney Line Dr/Cotney Cir
216,33.163742,-85.374564,Franklin Rd
160,33.351456,-85.525607,/Florence Rd
185,33.472416,-85.311499,/Co Rd 437
185,33.429009,-85.371926,Co Rd 512/State Rte 48
160,33.187272,-85.379387,Co Rd 59/Co Rd 131
185,33.166497,-85.381502,Crooked Creek Dr
305,33.150861,-85.369625,Main St/Mickle St
160,33.172071,-85.380077,US Hwy 431
216,33.174878,-85.405960,Twin Lakes Dr
185,33.161915,-85.403670,State Rte 22
185,33.158889,-85.373264,N Handley/Handley Ave/W Piedmont St
390,33.153717,-85.360784,US Hwy 431
160,33.140497,-85.307979,Co Rd 607/Co Rd 16
160,33.158482,-85.365324,Holder St/Smith Dr/Mulberry St
185,33.176276,-85.391497,US Hwy 431/
160,33.267902,-85.456689,/Co Rd 333
185,33.472566,-85.311409,Co Rd 437
160,33.327257,-85.505158,Deason Cove Rd/Dawson Cove Rd/Blueberry Hill
185,33.373931,-85.400435,State Rte 48/Woodland Dr
185,33.154395,-85.360406,Stewart Dr/Talley St
160,33.155583,-85.360563,/Talley St
185,33.301014,-85.489484,4th St NW
185,33.160804,-85.364924,US Hwy 431
276,33.149282,-85.360602,Border St/College St
276,33.134895,-85.355915,US Hwy 431/Field St
185,33.145584,-85.377199,Gulf St
185,33.149459,-85.362333,Lafayette Hwy/College St
185,33.116087,-85.333892,Co Rd 678/Bud Cummings Rd
160,33.361983,-85.347802,Co Rd 64/Co Rd 521
418,33.311023,-85.484974,US Hwy 431/Woodland Ave NE/Woodland Ave NW/N Main St
185,33.155664,-85.378771,Main St
160,33.157663,-85.373294,N Handley/S Handley Ave/Randolph St
160,33.157942,-85.393010,Yellowhammer Dr/Quail Run Dr
185,33.374355,-85.400061,Co Rd 59/Woodland Dr
160,33.135002,-85.376291,Crestwood Dr/Industrial Blvd
160,33.370561,-85.495043,Christine Ln
185,33.176342,-85.391749,/US Hwy 431
216,33.156070,-85.375403,Striplin St
160,33.287768,-85.394749,Co Rd 59
160,33.189846,-85.350624,/Co Rd 79
160,33.361122,-85.499769,Aaron Dr/Marie St
160,33.293979,-85.437427,/Co Rd 46
216,33.134875,-85.364391,/Industrial Blvd
160,33.339689,-85.533143,Walnut St/Co Rd 129
185,33.157815,-85.422853,State Rte 22/Co Rd 865
185,33.231870,-85.436343,/US Hwy 431
160,33.357536,-85.483443,Canter Dr
160,33.317836,-85.432112,Co Rd 614/State Rte 48
276,33.308298,-85.506935,Dam Rd/State Rte 48/W Broad St
160,33.340052,-85.537917,Turtle Cv
499,33.150712,-85.373766,W Point St/Church St
160,33.381402,-85.389159,Co Rd 531/State Rte 48
160,33.372565,-85.491267,Christine Ln/Misty Ln
160,33.278669,-85.356024,Co Rd 63
246,33.151998,-85.375144,W Point St
246,33.116349,-85.362332,Lane Chapel Rd
216,33.157978,-85.293315,Rock Mills Rd/Co Rd 91
216,33.150740,-85.367801,Main St
246,33.152203,-85.375155,Main St
472,33.153036,-85.376235,Main St/Handley Ave
185,33.299647,-85.482231,Mill St/S Main St
160,33.363636,-85.480271,Peninsula Dr
160,33.299430,-85.481833,Mill St
160,33.119351,-85.563654,Tallapoosa St/Lee St
160,33.359093,-85.480174,Hillcrest Ct/Hill Crest Ct
216,33.173144,-85.404712,/Co Rd 26
160,33.128677,-85.514920,State Rte 22
160,33.365051,-85.494038,US Hwy 431/Warren Dr
160,33.164451,-85.411308,Co Rd 2210/State Rte 22
390,33.142229,-85.353313,Rebecca Ln
216,33.151912,-85.352825,Rock Mills Rd/Bartlett Ave
160,33.173082,-85.333021,Omaha Rd
160,33.301845,-85.480740,Pine St/Hillcrest Ave
185,33.340573,-85.535427,Turtle Cove
160,33.117959,-85.560168,Lee St
185,33.151902,-85.351867,Rock Mills Rd/Omaha Rd
185,33.122487,-85.565450,N Berry St/Highland Ave
160,33.159743,-85.290994,Co Rd 2204/Co Rd 2203
334,33.143821,-85.356877,Longshore St
160,33.374132,-85.382244,Co Rd 533
246,33.119555,-85.564484,/Highland Ave/Lee St
160,33.430317,-85.362464,/Co Rd 82
246,33.255578,-85.372040,Co Rd 59
276,33.423074,-85.547297,/Co Rd 82
418,33.158946,-85.363853,US Hwy 431/Smith Dr
160,33.460104,-85.313141,State Rte 48
160,33.291606,-85.475827,S Main St/Bufford Adamson Rd
305,33.370789,-85.502409,US Hwy 431
334,33.141070,-85.374608,Strong St
160,33.164155,-85.409468,State Rte 22
160,33.131323,-85.474234,State Rte 22
445,33.150754,-85.373618,Church St
160,33.307592,-85.486052,1st St W/2nd Ave SW
185,33.297463,-85.480528,Stewart Dr/S Main St
160,33.218435,-85.264347,Co Rd 30/Co Rd 655
390,33.151124,-85.374172,W Point St/Lamont St
185,33.305656,-85.480957,3rd St E
160,33.317064,-85.488049,Weathers Heights Rd/N Main St
276,33.139159,-85.386324,Stanley Ave
160,33.159813,-85.381981,Main St/State Rte 22
216,33.145108,-85.373659,/S Lafayette St
160,33.268773,-85.640767,R L Harris Dam Rd
160,33.128656,-85.472336,Co Rd 3
160,33.358172,-85.492337,Cobblestone Dr
499,33.313584,-85.484763,US Hwy 431/
276,33.178275,-85.395546,US Hwy 431//Co Rd 26
334,33.379841,-85.499554,Co Rd 4
160,33.185775,-85.323828,Co Rd 611/Co Rd 87
246,33.156992,-85.368513,Commerce St/Park Ave
185,33.370432,-85.501798,US Hwy 431
160,33.403787,-85.386125,/Co Rd 4081
185,33.305636,-85.484708,4th Ave SW/S Main St
276,33.170337,-85.370800,Co Rd 79
160,33.463174,-85.480501,Co Rd 167/Co Rd 92
160,33.356426,-85.301026,Co Rd 39/Co Rd 87
185,33.141925,-85.348842,Gilham Rd
160,33.154421,-85.354804,/Lakeview Dr
160,33.355812,-85.492204,Martin Ln/Bluffs Cir
185,33.151822,-85.347800,Rock Mills Rd/Cauthen Cir
362,33.159084,-85.378310,Highland Ave/W Piedmont St
185,33.238850,-85.442104,US Hwy 431
216,33.117776,-85.361983,/Lafayette Hwy
160,33.341779,-85.528894,/Sunset Dr
160,33.145685,-85.377343,Gulf St
390,33.154525,-85.372187,Knight Ave/Handley Ave
276,33.374195,-85.397590,Williams St/Woodland Dr
160,33.119723,-85.567404,Cooledge St/State Rte 22/Lee St
185,33.140936,-85.371380,Sports Dr
160,33.291065,-85.553138,Co Rd 803
216,33.144060,-85.373659,S Lafayette St/Heflin Ave
216,33.144776,-85.372153,Mickle Dr/Bradley St
216,33.372984,-85.499154,Austin Dr
160,33.159681,-85.539818,Co Rd 333
246,33.359575,-85.473171,/Old Hwy 431
160,33.294908,-85.467940,Bufford Adamson Rd
216,33.124132,-85.569761,Roberts St/Ashland Ave
160,33.151294,-85.381257,Gulf St/Louina Rd
499,33.309289,-85.486013,1st St W/W Broad St
160,33.331090,-85.478796,/Old US Hwy 431/Old Hwy 431
185,33.283132,-85.470014,US Hwy 431
160,33.135648,-85.349823,Johnson St/Minnifield St
216,33.425147,-85.551500,US Hwy 431/Co Rd 29
160,33.137847,-85.364540,Auburn Ave
276,33.171034,-85.370570,/Co Rd 79
160,33.128535,-85.363991,Industrial Blvd
276,33.344738,-85.516438,/Wedowee Creekview Dr
246,33.330826,-85.459908,Co Rd 213
185,33.145806,-85.368828,W Point St/Government St
216,33.360244,-85.491765,US Hwy 431/Lakeview Dr
160,33.142515,-85.351306,Cynthia Cir
362,33.315434,-85.484743,US Hwy 431
160,33.448330,-85.388906,Co Rd 9
305,33.157269,-85.374157,Mitchell St/West Ave
160,33.159269,-85.369696,Stone Ave/W Piedmont St
160,33.299878,-85.479546,Mill St/Hillcrest Ave
160,33.204606,-85.256635,/State Rte 22
185,33.145744,-85.363090,Ave C/Government St
160,33.361922,-85.347963,Co Rd 64
362,33.131458,-85.383170,Grandview Dr
160,33.138703,-85.379968,Seymour Dr/Chestnut St
334,33.143886,-85.355269,US Hwy 431
185,33.274234,-85.463994,US Hwy 431/Co Rd 811
216,33.142102,-85.361750,Lafayette Hwy/South St
276,33.337102,-85.484599,Wedowee Cove Dr/Co Rd 239
185,33.141911,-85.348024,/Gilham Rd
160,33.275007,-85.301625,/Co Rd 87
160,33.279139,-85.493897,Co Rd 15/5th Ave
160,33.117521,-85.558118,Co Rd 333
334,33.159152,-85.376236,Franklin Rd/W Piedmont St
160,33.154103,-85.380385,Price St/Willow Ln
160,33.310273,-85.331866,Co Rd 56
160,33.309618,-85.330582,Co Rd 561/Co Rd 56
216,33.318143,-85.492084,King David Turner Rd/Heard St
185,33.306355,-85.484915,Hillcrest Ave/S Main St
216,33.159885,-85.373860,Franklin St//West Ave
185,33.156326,-85.379140,Franklin Rd/Main St
160,33.158169,-85.383080,/Price St
216,33.493054,-85.598150,Co Rd 209//US Hwy 431
305,33.158486,-85.368531,Park Ave/E Piedmont St
160,33.121816,-85.420524,Co Rd 871
1097,33.148564,-85.373050,Guy St/Lafayette St
160,33.139992,-85.359296,Connector St
160,33.323358,-85.385150,/Co Rd 56
246,33.144193,-85.377441,Christie Ln/Chestnut St
579,33.150903,-85.363372,Lafayette Hwy/Harris Ave/Main St
216,33.267259,-85.572054,Lane Branch Rd
160,33.489201,-85.490714,Ryan Dr
160,33.338969,-85.489209,Wedowee Cove Dr/US Hwy 431
445,33.373241,-85.394437,Co Rd 64
216,33.117033,-85.340234,Johnson St/Bud Cummings Rd
185,33.154652,-85.364038,Harris Ave
305,33.193877,-85.403311,/Co Rd 61
160,33.128135,-85.486339,State Rte 22
160,33.441491,-85.635952,Co Rd 313/Co Rd 88
185,33.326662,-85.422414,Co Rd 56/Co Rd 493
160,33.161029,-85.403677,Shady Creek Church Rd
472,33.310209,-85.485011,1st Ave NW/1st Ave NE/N Main St
160,33.389778,-85.615124,Co Rd 113/Co Rd 82
160,33.273398,-85.463409,US Hwy 431
160,33.131835,-85.473093,/State Rte 22
160,33.461275,-85.312379,State Rte 48
185,33.326825,-85.551778,Co Rd 240
160,33.136913,-85.357156,Jackson Ave/Wes St
160,33.162123,-85.415867,State Rte 22
160,33.336862,-85.531774,Beaver Branch Rd/Co Rd 129
216,33.337044,-85.484310,/Wedowee Cove Dr
160,33.164575,-85.383970,Main St
160,33.334760,-85.443834,Co Rd 56
334,33.141886,-85.375306,Bell St
185,33.233812,-85.400319,Co Rd 691
362,33.143479,-85.372179,Sports Dr/Schuessler St
160,33.194750,-85.370520,/Co Rd 671
160,33.349991,-85.372679,/Co Rd 524
246,33.135329,-85.348987,Johnson Cir/Johnson St
216,33.163947,-85.374491,Franklin Rd
246,33.136042,-85.360628,Roanoke Arms/Field St
185,33.309514,-85.478747,1st Ave SE/Honey Suckle Ln
246,33.156891,-85.376937,Mitchell St/Striplin St
160,33.132005,-85.472739,State Rte 22/Co Rd 823
160,33.283989,-85.465840,/Co Rd 333
160,33.400514,-85.362734,Co Rd 452
160,33.151941,-85.353628,Rock Mills Rd/Parris Cir
160,33.356481,-85.490399,US Hwy 431/Robert's Cir
246,33.119596,-85.564909,/Lee St
305,33.379965,-85.500074,Co Rd 4315/Co Rd 4
160,33.141502,-85.365819,W Point St/Cotney Line Dr
185,33.333101,-85.458315,Co Rd 213/
160,33.357898,-85.484005,Canter Dr
160,33.398043,-85.543974,Co Rd 258/Co Rd 329
160,33.406230,-85.471337,Co Rd 134/Co Rd 138
334,33.369235,-85.499668,US Hwy 431
216,33.153972,-85.364211,/Peachtree St
160,33.154750,-85.310140,Rock Mills Rd
160,33.363514,-85.479913,Peninsula Ct/Peninsula Dr
160,33.145769,-85.359445,Border St
160,33.158911,-85.374074,W Piedmont St/West Ave
160,33.404508,-85.601146,Woodpecker Ln
185,33.158291,-85.390499,Whippoorwill Ln
185,33.304398,-85.484573,S Main St
185,33.325408,-85.487283,US Hwy 431/Landing Chase
160,33.145535,-85.384811,Clark St/Seymour Dr
160,33.165345,-85.284016,Rock Mills Rd
305,33.146879,-85.364128,Ave C/Ave A
160,33.311057,-85.488849,4th St NW/Woodland Ave NW
185,33.342281,-85.536340,Hanson Rd
160,33.154804,-85.354870,Lakeview Dr/Stewart Dr/Davis Dr
185,33.306783,-85.487979,3rd Ave SW/3rd St W
160,33.151980,-85.354909,Rock Mills Rd/Barkley Dr
276,33.157831,-85.377445,/Franklin Rd
185,33.142581,-85.363412,South St/Gaston St
160,33.275464,-85.593828,Ginger Dr
185,33.159056,-85.367308,Mulberry St/Central Ave
160,33.380902,-85.423455,Co Rd 503
216,33.144993,-85.383294,Pine St
160,33.291659,-85.486035,Co Rd 15
216,33.279263,-85.408119,/Co Rd 67
160,33.323558,-85.389588,Co Rd 56
185,33.304481,-85.490153,5th St W/5th Ave
185,33.304479,-85.484476,S Main St
185,33.318427,-85.388246,Co Rd 616
276,33.158866,-85.371254,Knight Ave/W Piedmont St
185,33.128748,-85.379127,Shady Branch Dr
160,33.389647,-85.619281,/Co Rd 82
160,33.373464,-85.494318,Ralph Boyd Dr/Amanda Dr
276,33.146462,-85.364090,/Ave A
160,33.122790,-85.528063,Co Rd 835/State Rte 22
160,33.322994,-85.290987,Co Rd 52/Co Rd 513
185,33.466946,-85.416987,Co Rd 92
276,33.156525,-85.361887,Talley St
246,33.145040,-85.345681,Pine Valley Dr/Pine Valley Rd
160,33.141731,-85.363983,Cotney Line Dr/Cotney Cir
160,33.119009,-85.562773,Lee St
160,33.136677,-85.607576,State Rte 77
185,33.156875,-85.368513,Park Ave
276,33.399102,-85.374566,State Rte 48/Co Rd 103
216,33.326794,-85.423137,Co Rd 56/Co Rd 601
216,33.145072,-85.347220,/Pine Valley Dr
246,33.374369,-85.399636,Woodland Dr/Co Rd 51
160,33.159872,-85.399004,State Rte 22
160,33.138542,-85.375640,Oakcrest Dr
788,33.312889,-85.484770,US Hwy 431/
160,33.134532,-85.346808,Johnson Cir/Johnson St
160,33.117539,-85.557999,/Co Rd 333
160,33.327689,-85.487913,Co Rd 4311
160,33.358629,-85.472367,Old Hwy 431/Co Rd 58
390,33.154631,-85.372484,Handley Ave
160,33.333112,-85.556214,Crescent Crest Dr
160,33.348343,-85.488041,US Hwy 431
160,33.340429,-85.531535,Rabbit Run
526,33.154192,-85.363232,Harris Ave/Harris St
160,33.286926,-85.466634,/Co Rd 603
160,33.233472,-85.399939,Co Rd 691/Rockstand Rd
276,33.132494,-85.382571,Country Club Rd/Country Club Pkwy
160,33.465502,-85.518256,Co Rd 19/Co Rd 40
216,33.343977,-85.477490,Old Hwy 431/Co Rd 140
160,33.178362,-85.365899,/Co Rd 79
160,33.149459,-85.368568,Pershing Ave/College St
185,33.305557,-85.484810,4th Ave SW/S Main St
160,33.364714,-85.488129,Inez Dr
276,33.422967,-85.545429,Co Rd 82
160,33.376243,-85.487899,/Co Rd 4
160,33.162633,-85.539335,Co Rd 43
185,33.159367,-85.366199,Smith Dr
185,33.392128,-85.524989,US Hwy 431/Co Rd 252
185,33.153810,-85.370590,Peachtree St
160,33.163283,-85.374729,Franklin Rd/West Ave
216,33.316283,-85.518218,/Co Rd 129
160,33.131923,-85.584902,State Rte 77/Co Rd 868
160,33.415286,-85.547527,US Hwy 431
334,33.326721,-85.426431,Co Rd 56/State Rte 48
216,33.159850,-85.371023,Franklin St
160,33.342354,-85.431113,State Rte 48
185,33.331854,-85.426419,/State Rte 48
160,33.220625,-85.264906,/Co Rd 30
160,33.266785,-85.379405,Mote Rd/Co Rd 703
160,33.143287,-85.377698,Strozier St/Chestnut St
605,33.148747,-85.371372,W Point St/Randle St/College St
216,33.174386,-85.405305,Twin Lakes Dr
185,33.157629,-85.391605,Yellowhammer Dr
362,33.141484,-85.375319,Bell St/Strong St
246,33.160786,-85.367175,Central Ave
160,33.357405,-85.439797,/Co Rd 58
160,33.115955,-85.385140,Mary Dr
246,33.158164,-85.377051,Kiwanis Dr/Franklin Rd
160,33.180211,-85.363757,Co Rd 79
305,33.116779,-85.361868,/Lane Chapel Rd
160,33.299279,-85.481972,Mill St/S Main St
185,33.144511,-85.444897,Co Rd 867/State Rte 22
390,33.375293,-85.505096,Co Rd 4315
216,33.225400,-85.429253,US Hwy 431/
246,33.152237,-85.374724,Knight Ave/
160,33.141909,-85.347688,Gilham Rd
160,33.319649,-85.467681,Co Rd 213/Circle Dr
185,33.144182,-85.353578,Cook Rd/Rebecca Ln
276,33.134881,-85.363842,Lafayette Hwy/Industrial Blvd
160,33.156458,-85.424724,State Rte 22
216,33.368177,-85.492655,Debbie Dr
160,33.153813,-85.370332,Vine St/Peachtree St/Park Ave
276,33.137576,-85.375715,Crestwood Dr
276,33.144149,-85.351013,Cook Rd/Gilham Rd
160,33.420547,-85.582211,Co Rd 7/
276,33.140686,-85.370685,Sports Dr
246,33.310183,-85.483818,1st St E/1st Ave NE
216,33.359543,-85.479259,Hill Crest Ct
160,33.352817,-85.432172,State Rte 48/Co Rd 58
185,33.327603,-85.485530,Co Rd 4311
160,33.327361,-85.505153,Pettitt's Pl/Dawson Cove Rd
216,33.144644,-85.373656,/S Lafayette St
160,33.252915,-85.517292,Co Rd 15
160,33.158082,-85.293009,Rock Mills Rd
160,33.275463,-85.591314,Pansy Dr
160,33.279456,-85.589393,Daisy Dr
160,33.160645,-85.362853,Pilgrim Dr
160,33.231741,-85.367089,/Co Rd 268
216,33.144471,-85.361163,Lafayette Hwy/Longshore St
160,33.361689,-85.352292,Co Rd 64/Co Rd 489
160,33.147729,-85.360511,Border St
160,33.436144,-85.489388,Co Rd 82
362,33.371190,-85.503093,/US Hwy 431
160,33.144841,-85.370603,Mickle Dr/Wood St
334,33.286457,-85.307420,/Co Rd 87
160,33.378679,-85.496596,Co Rd 4/Co Rd 289
160,33.334082,-85.427026,/State Rte 48
160,33.357827,-85.493307,Bluffs Cir/Cobblestone Dr
160,33.245390,-85.518693,Co Rd 8921
334,33.115620,-85.542321,State Rte 77/Pvt Dirt Dr
160,33.160077,-85.378730,Yancey St/Highland Ave
160,33.351343,-85.527856,Int Harvester Rd
160,33.145698,-85.360545,Border St/Government St
160,33.299799,-85.479508,Mill St/Hillcrest Ave
185,33.134244,-85.346951,/Johnson Cir
185,33.231446,-85.366775,/Co Rd 268
305,33.351418,-85.472357,Old Hwy 431
160,33.173440,-85.369770,Co Rd 79
276,33.139209,-85.357956,Jackson Ave/South St
160,33.159868,-85.398932,State Rte 22
160,33.387718,-85.522601,US Hwy 431
160,33.436466,-85.404019,/Co Rd 82
185,33.327575,-85.488318,US Hwy 431/Co Rd 4311
216,33.143957,-85.345442,/Pine Valley Rd
160,33.180343,-85.525074,Co Rd 49/Co Rd 333
216,33.173081,-85.369888,Co Rd 79
160,33.405349,-85.481979,Co Rd 134/Old Hwy 431
185,33.153664,-85.360000,Talley St
185,33.326424,-85.487767,US Hwy 431
160,33.128397,-85.318756,Gladney Mill Rd
185,33.137316,-85.357706,/Jackson Ave
390,33.307581,-85.484829,/S Main St/2nd Ave SW
246,33.357129,-85.471737,/Old Hwy 431
160,33.156424,-85.383470,McCarter Dr/Waller Dr
160,33.468392,-85.576797,Old Hwy 431
160,33.207546,-85.347514,Co Rd 16/Co Rd 131
276,33.134887,-85.363967,Industrial Blvd
216,33.112808,-85.358215,Co Rd 122
334,33.136395,-85.376158,Crestwood Cir
160,33.365964,-85.481808,Hickory Hollow
185,33.385111,-85.520135,US Hwy 431/Co Rd 121
160,33.145738,-85.362992,Ave C/Government St
216,33.373646,-85.499637,/Ralph Boyd Dr
246,33.145755,-85.364752,Government St/Chemical St
276,33.144388,-85.345968,/Pine Valley Rd
216,33.389738,-85.523945,US Hwy 431/Co Rd 270
160,33.146343,-85.359352,Border St
160,33.153492,-85.356760,Lucille Cir
160,33.158706,-85.392718,Whippoorwill Ln/Quail Run Dr
185,33.198417,-85.414065,US Hwy 431
246,33.290377,-85.474952,S Main St/Co Rd 333
472,33.157966,-85.363575,Mulberry St/East Ave
160,33.174183,-85.369531,Co Rd 79
185,33.358379,-85.491103,Lakeview Dr/US Hwy 431
160,33.398353,-85.398442,Co Rd 522/Co Rd 51
160,33.148007,-85.337520,Peggy Dr
160,33.470937,-85.579643,/US Hwy 431/Co Rd 233
160,33.383502,-85.487310,Co Rd 246/Old Hwy 431
185,33.231619,-85.366962,Co Rd 268
185,33.159582,-85.366001,Smith Dr
185,33.239223,-85.442408,US Hwy 431/
160,33.432071,-85.436000,Co Rd 534/Co Rd 82
276,33.145772,-85.364048,Government St/Ave A
216,33.233381,-85.412156,Co Rd 45
160,33.358279,-85.422726,State Rte 48
185,33.111461,-85.356470,US Hwy 431
160,33.127364,-85.390656,Brookside Dr/Country Club Dr
160,33.326548,-85.515418,Mt Pleasant Rd
160,33.180045,-85.363944,Co Rd 79
185,33.372985,-85.404303,State Rte 48
160,33.180539,-85.397772,US Hwy 431
160,33.127557,-85.360339,Dunson Ct/Airport Rd
1097,33.151989,-85.358848,Rock Mills Rd/Allen Ave
246,33.177805,-85.394923,/US Hwy 431
185,33.304983,-85.489894,5th Ave SW/5th St W
160,33.285373,-85.459294,Landfill Rd/Horsin Rd
160,33.420534,-85.582009,Co Rd 7
160,33.474929,-85.585185,Concrete Dr
160,33.161057,-85.373634,Williams St/West Ave
185,33.360695,-85.479882,Hillcrest Ct
865,33.309294,-85.485038,S Main St/W Broad St/N Main St
216,33.155169,-85.361649,US Hwy 431/Harris St
160,33.310271,-85.489785,5th St W/1st Ave NW
160,33.469614,-85.578722,US Hwy 431
160,33.149552,-85.384371,Louina Rd
160,33.122756,-85.358398,/Wilder Ind Blvd
160,33.373162,-85.354885,Co Rd 465/Co Rd 460
216,33.311580,-85.481975,Woodland Ln
185,33.221339,-85.421582,US Hwy 431
160,33.440108,-85.360886,Co Rd 442/State Rte 48
160,33.145423,-85.360536,/Border St
605,33.149493,-85.371087,College St
305,33.143096,-85.353541,Cynthia Cir/Rebecca Ln
160,33.155825,-85.425836,/State Rte 22
160,33.117106,-85.558068,State Rte 22
305,33.373812,-85.397367,Co Rd 59/State Rte 48/Main St
216,33.122600,-85.358937,US Hwy 431/Wilder Ind Blvd
160,33.360791,-85.493343,Laurel Dr
160,33.478532,-85.586805,US Hwy 431/Old US Hwy 431
185,33.263922,-85.456675,US Hwy 431/Co Rd 610
160,33.437883,-85.407435,Co Rd 51/Co Rd 82
160,33.149413,-85.364278,College St/Ave A
472,33.145102,-85.354954,Centerway Dr/Cook Rd
185,33.418261,-85.377829,State Rte 48
160,33.341588,-85.534596,Long Shore Dr/Co Rd 129
185,33.418177,-85.377817,State Rte 48/Co Rd 456
276,33.131439,-85.356549,US Hwy 431/Industrial Ave
160,33.440410,-85.359937,State Rte 48
160,33.150571,-85.326655,Rock Mills Rd
160,33.144050,-85.445925,Co Rd 886/State Rte 22
160,33.153501,-85.383343,Pool St
160,33.304149,-85.485207,4th Ave SW
185,33.143712,-85.381241,Betty St
160,33.139215,-85.412684,/Louina Rd
160,33.264152,-85.507605,Co Rd 15
160,33.245528,-85.519002,/Co Rd 8921
160,33.126029,-85.580504,Elliott St
160,33.365585,-85.408753,State Rte 48
160,33.456880,-85.497863,Co Rd 408/Co Rd 47
160,33.351782,-85.525758,Florence Rd
216,33.160293,-85.366326,Central St
185,33.142744,-85.383679,Satterwhite St/Seymour Dr
185,33.422431,-85.392181,Co Rd 457
334,33.143818,-85.357386,Hill Cir/Longshore St
246,33.120520,-85.361589,Lafayette Hwy/Bud Cummings Rd
160,33.309138,-85.626120,Co Rd 863
216,33.322646,-85.392836,Co Rd 56/Co Rd 63
160,33.351672,-85.525670,/Florence Rd
160,33.120216,-85.577161,Bailey St
160,33.161119,-85.403546,Shady Creek Church Rd
160,33.345709,-85.376315,Co Rd 524
160,33.337147,-85.506470,Lake Point Ln
160,33.161783,-85.417676,/State Rte 22
216,33.350315,-85.488316,US Hwy 431
185,33.131487,-85.473864,Co Rd 3/State Rte 22
160,33.154801,-85.356049,Lakeview Dr/Stewart Dr
160,33.343006,-85.537116,Co Rd 129
160,33.257604,-85.513757,Co Rd 15
185,33.309949,-85.477464,/Honey Suckle Ln
216,33.423173,-85.550697,US Hwy 431/Co Rd 82
160,33.377521,-85.483867,Co Rd 4/Old Hwy 431
185,33.288593,-85.473774,US Hwy 431/S Main St
185,33.420743,-85.443239,Co Rd 523/Co Rd 59
160,33.147396,-85.360495,Bell Rd/Border St
160,33.127530,-85.365051,Airport Rd
334,33.119604,-85.568375,State Rte 22/Lee St
185,33.132289,-85.385078,Country Club Rd/Grandview Dr
362,33.136066,-85.375976,Crestwood Dr
216,33.112857,-85.357846,US Hwy 431/Co Rd 122
160,33.266979,-85.378942,Co Rd 59/Mote Rd
185,33.318530,-85.519651,Mt Pleasant Rd/Co Rd 129
160,33.151893,-85.351648,Rock Mills Rd/Gilham Rd
160,33.303832,-85.388723,/Co Rd 673
160,33.287644,-85.394008,Co Rd 59
